{"type":"FeatureCollection", "features": [
{"type":"Feature","geometry":{"type":"Point","coordinates":[114.146312,30.678374]},"properties":{"name":"湖北泓通达物流发展有限公司","xiaolei":"9352008","address":"径河街塔西路南径河路21号","zhonglei":"9352","dalei":"2","type":"ems"}},
{"type":"Feature","geometry":{"type":"Point","coordinates":[114.247909,30.714495]},"properties":{"name":"武汉宏程捷运物流有限公司","xiaolei":"9352008","address":"城巨龙大道196号","zhonglei":"9352","dalei":"2","type":"ems"}},
{"type":"Feature","geometry":{"type":"Point","coordinates":[114.236657,30.721442]},"properties":{"name":"民航快递（湖北分公司）","xiaolei":"9352008","address":"","zhonglei":"9352","dalei":"2","type":"ems"}},
{"type":"Feature","geometry":{"type":"Point","coordinates":[114.232897,30.731284]},"properties":{"name":"武汉天时运输有限公司","xiaolei":"9352008","address":"华顶模具工业园","zhonglei":"9352","dalei":"2","type":"ems"}},
{"type":"Feature","geometry":{"type":"Point","coordinates":[114.23771,30.73457]},"properties":{"name":"中通速递（佳海环形路）","xiaolei":"9352008","address":"佳海环行路61","zhonglei":"9352","dalei":"2","type":"ems"}},
{"type":"Feature","geometry":{"type":"Point","coordinates":[114.2378,30.735902]},"properties":{"name":"佳文生活配送","xiaolei":"9352008","address":"","zhonglei":"9352","dalei":"2","type":"ems"}},
{"type":"Feature","geometry":{"type":"Point","coordinates":[114.160393,30.68078]},"properties":{"name":"德邦（塔西路）","xiaolei":"9352008","address":"径河十字东街40号","zhonglei":"9352","dalei":"2","type":"ems"}},
{"type":"Feature","geometry":{"type":"Point","coordinates":[114.155116,30.680478]},"properties":{"name":"圆通速递（塔西路）","xiaolei":"9352008","address":"","zhonglei":"9352","dalei":"2","type":"ems"}},
{"type":"Feature","geometry":{"type":"Point","coordinates":[114.154096,30.680411]},"properties":{"name":"中通速递（塔西路）","xiaolei":"9352008","address":"","zhonglei":"9352","dalei":"2","type":"ems"}},
{"type":"Feature","geometry":{"type":"Point","coordinates":[114.248385,30.713725]},"properties":{"name":"信航物流","xiaolei":"9352008","address":"","zhonglei":"9352","dalei":"2","type":"ems"}},
{"type":"Feature","geometry":{"type":"Point","coordinates":[114.159429,30.678767]},"properties":{"name":"武汉金潮物流有限公司","xiaolei":"9352008","address":"十字南街66号","zhonglei":"9352","dalei":"2","type":"ems"}},
{"type":"Feature","geometry":{"type":"Point","coordinates":[114.367629,30.679357]},"properties":{"name":"武汉祥安运输有限公司","xiaolei":"9352008","address":"谌家矶大道42附1","zhonglei":"9352","dalei":"2","type":"ems"}},
{"type":"Feature","geometry":{"type":"Point","coordinates":[114.312668,30.702235]},"properties":{"name":"汉口北货运中心","xiaolei":"9352008","address":"汉口北大道","zhonglei":"9352","dalei":"2","type":"ems"}},
{"type":"Feature","geometry":{"type":"Point","coordinates":[114.314218,30.702513]},"properties":{"name":"汉口北货运中心","xiaolei":"9352008","address":"","zhonglei":"9352","dalei":"2","type":"ems"}},
{"type":"Feature","geometry":{"type":"Point","coordinates":[114.344589,30.738878]},"properties":{"name":"鑫铁安通钢材加工物流有限公司","xiaolei":"9352008","address":"","zhonglei":"9352","dalei":"2","type":"ems"}},
{"type":"Feature","geometry":{"type":"Point","coordinates":[114.362987,30.69211]},"properties":{"name":"武汉恒信铭扬仓储物流有限公司","xiaolei":"9352008","address":"","zhonglei":"9352","dalei":"2","type":"ems"}},
{"type":"Feature","geometry":{"type":"Point","coordinates":[114.364638,30.678365]},"properties":{"name":"中交二航局第五工程分公司物流中心","xiaolei":"9352008","address":"谌家矶大道65号","zhonglei":"9352","dalei":"2","type":"ems"}},
{"type":"Feature","geometry":{"type":"Point","coordinates":[114.359972,30.683905]},"properties":{"name":"武汉商储有限责任公司快易通物流","xiaolei":"9352008","address":"","zhonglei":"9352","dalei":"2","type":"ems"}},
{"type":"Feature","geometry":{"type":"Point","coordinates":[114.328218,30.67056]},"properties":{"name":"武汉市商业储运有限责任公司物流中","xiaolei":"9352008","address":"堤角边269号附近","zhonglei":"9352","dalei":"2","type":"ems"}},
{"type":"Feature","geometry":{"type":"Point","coordinates":[114.328207,30.669677]},"properties":{"name":"商储快易通物流","xiaolei":"9352008","address":"堤边路269号","zhonglei":"9352","dalei":"2","type":"ems"}},
{"type":"Feature","geometry":{"type":"Point","coordinates":[114.328196,30.669678]},"properties":{"name":"武汉市商业储运有限责任公司物流中","xiaolei":"9352008","address":"","zhonglei":"9352","dalei":"2","type":"ems"}},
{"type":"Feature","geometry":{"type":"Point","coordinates":[114.295924,30.695556]},"properties":{"name":"韵达快运（黄陂服务站）","xiaolei":"9352008","address":"横店中兴街","zhonglei":"9352","dalei":"2","type":"ems"}},
{"type":"Feature","geometry":{"type":"Point","coordinates":[114.312713,30.702297]},"properties":{"name":"天地华宇（巨龙大道）","xiaolei":"9352008","address":"汉口北大道88号","zhonglei":"9352","dalei":"2","type":"ems"}},
{"type":"Feature","geometry":{"type":"Point","coordinates":[114.312757,30.702352]},"properties":{"name":"德邦物流（巨龙大道）","xiaolei":"9352008","address":"汉口北大道88号","zhonglei":"9352","dalei":"2","type":"ems"}},
{"type":"Feature","geometry":{"type":"Point","coordinates":[114.314335,30.70245]},"properties":{"name":"中国邮政物流","xiaolei":"9352008","address":"","zhonglei":"9352","dalei":"2","type":"ems"}},
{"type":"Feature","geometry":{"type":"Point","coordinates":[114.367344,30.722296]},"properties":{"name":"龙行天下物流股份有限公司（武汉分","xiaolei":"9352008","address":"","zhonglei":"9352","dalei":"2","type":"ems"}},
{"type":"Feature","geometry":{"type":"Point","coordinates":[114.373776,30.722095]},"properties":{"name":"华中物流超市","xiaolei":"9352008","address":"汉口北大道19号","zhonglei":"9352","dalei":"2","type":"ems"}},
{"type":"Feature","geometry":{"type":"Point","coordinates":[114.358691,30.676504]},"properties":{"name":"武汉新天运输有限责任公司","xiaolei":"9352008","address":"谌家矶大道47","zhonglei":"9352","dalei":"2","type":"ems"}},
{"type":"Feature","geometry":{"type":"Point","coordinates":[114.357589,30.676122]},"properties":{"name":"汉江丹江口铝鑫运输有限责任公司（","xiaolei":"9352008","address":"","zhonglei":"9352","dalei":"2","type":"ems"}},
{"type":"Feature","geometry":{"type":"Point","coordinates":[114.29594,30.695625]},"properties":{"name":"中国邮政全球邮政特快专递","xiaolei":"9352008","address":"","zhonglei":"9352","dalei":"2","type":"ems"}},
{"type":"Feature","geometry":{"type":"Point","coordinates":[114.328273,30.669686]},"properties":{"name":"武汉市商业储运有限责任公司物流中","xiaolei":"9352008","address":"堤边路269号","zhonglei":"9352","dalei":"2","type":"ems"}},
{"type":"Feature","geometry":{"type":"Point","coordinates":[114.348841,30.716438]},"properties":{"name":"圆通速递（政通大道）","xiaolei":"9352008","address":"","zhonglei":"9352","dalei":"2","type":"ems"}},
{"type":"Feature","geometry":{"type":"Point","coordinates":[114.374277,30.722176]},"properties":{"name":"武汉联创通达物流","xiaolei":"9352008","address":"","zhonglei":"9352","dalei":"2","type":"ems"}},
{"type":"Feature","geometry":{"type":"Point","coordinates":[114.312801,30.702401]},"properties":{"name":"大道物流（巨龙大道）","xiaolei":"9352008","address":"","zhonglei":"9352","dalei":"2","type":"ems"}},
{"type":"Feature","geometry":{"type":"Point","coordinates":[114.312555,30.702129]},"properties":{"name":"圆通速递","xiaolei":"9352008","address":"","zhonglei":"9352","dalei":"2","type":"ems"}},
{"type":"Feature","geometry":{"type":"Point","coordinates":[114.314392,30.702389]},"properties":{"name":"天成达物流","xiaolei":"9352008","address":"","zhonglei":"9352","dalei":"2","type":"ems"}},
{"type":"Feature","geometry":{"type":"Point","coordinates":[114.314458,30.702328]},"properties":{"name":"光辉物流","xiaolei":"9352008","address":"","zhonglei":"9352","dalei":"2","type":"ems"}},
{"type":"Feature","geometry":{"type":"Point","coordinates":[114.315091,30.701938]},"properties":{"name":"万运达物流","xiaolei":"9352008","address":"","zhonglei":"9352","dalei":"2","type":"ems"}},
{"type":"Feature","geometry":{"type":"Point","coordinates":[114.315,30.701985]},"properties":{"name":"九蕴物流","xiaolei":"9352008","address":"","zhonglei":"9352","dalei":"2","type":"ems"}},
{"type":"Feature","geometry":{"type":"Point","coordinates":[114.257993,30.711074]},"properties":{"name":"全峰快递（巨龙大道）","xiaolei":"9352008","address":"","zhonglei":"9352","dalei":"2","type":"ems"}},
{"type":"Feature","geometry":{"type":"Point","coordinates":[114.323145,30.670093]},"properties":{"name":"湖北华旭物流有限公司","xiaolei":"9352008","address":"汉黄路46号","zhonglei":"9352","dalei":"2","type":"ems"}},
{"type":"Feature","geometry":{"type":"Point","coordinates":[114.390299,30.702543]},"properties":{"name":"汉江潮钢材物流","xiaolei":"9352008","address":"武湖工业园","zhonglei":"9352","dalei":"2","type":"ems"}},
{"type":"Feature","geometry":{"type":"Point","coordinates":[114.391572,30.702443]},"properties":{"name":"汉江潮钢材物流３号门","xiaolei":"9352008","address":"","zhonglei":"9352","dalei":"2","type":"ems"}},
{"type":"Feature","geometry":{"type":"Point","coordinates":[114.404442,30.699529]},"properties":{"name":"蔬菜直通车武湖分拣配送中心","xiaolei":"9352008","address":"","zhonglei":"9352","dalei":"2","type":"ems"}},
{"type":"Feature","geometry":{"type":"Point","coordinates":[114.421219,30.705867]},"properties":{"name":"中通快递（庙咀路）","xiaolei":"9352008","address":"","zhonglei":"9352","dalei":"2","type":"ems"}},
{"type":"Feature","geometry":{"type":"Point","coordinates":[114.413674,30.701007]},"properties":{"name":"韵达快运（肖咀路）","xiaolei":"9352008","address":"","zhonglei":"9352","dalei":"2","type":"ems"}},
{"type":"Feature","geometry":{"type":"Point","coordinates":[114.414733,30.698522]},"properties":{"name":"丽红商业公司物流中心","xiaolei":"9352008","address":"","zhonglei":"9352","dalei":"2","type":"ems"}},
{"type":"Feature","geometry":{"type":"Point","coordinates":[114.1229,30.620796]},"properties":{"name":"北运物流有限责任公司（七雄路）","xiaolei":"9352008","address":"吴家山七雄路加油站后侧平安物流院","zhonglei":"9352","dalei":"2","type":"ems"}},
{"type":"Feature","geometry":{"type":"Point","coordinates":[114.116851,30.618828]},"properties":{"name":"湖北华昕物流配送有限公司","xiaolei":"9352008","address":"东西湖大道6050","zhonglei":"9352","dalei":"2","type":"ems"}},
{"type":"Feature","geometry":{"type":"Point","coordinates":[114.124283,30.619716]},"properties":{"name":"武汉市永强物流有限公司","xiaolei":"9352008","address":"吴家山七支沟","zhonglei":"9352","dalei":"2","type":"ems"}},
{"type":"Feature","geometry":{"type":"Point","coordinates":[114.112814,30.61927]},"properties":{"name":"新琪安物流园","xiaolei":"9352008","address":"东西湖大道5779","zhonglei":"9352","dalei":"2","type":"ems"}},
{"type":"Feature","geometry":{"type":"Point","coordinates":[114.112011,30.618661]},"properties":{"name":"武汉永兴交通运输有限公司","xiaolei":"9352008","address":"东西湖大道6041","zhonglei":"9352","dalei":"2","type":"ems"}},
{"type":"Feature","geometry":{"type":"Point","coordinates":[114.118976,30.616891]},"properties":{"name":"近铁运通运输有限公司（武汉分公司","xiaolei":"9352008","address":"八方路79","zhonglei":"9352","dalei":"2","type":"ems"}},
{"type":"Feature","geometry":{"type":"Point","coordinates":[114.111685,30.622151]},"properties":{"name":"武汉鸿运行物流发展有限公司","xiaolei":"9352008","address":"","zhonglei":"9352","dalei":"2","type":"ems"}},
{"type":"Feature","geometry":{"type":"Point","coordinates":[114.109107,30.609963]},"properties":{"name":"武汉工贸有限公司物流配送中心","xiaolei":"9352008","address":"吴家山十全路","zhonglei":"9352","dalei":"2","type":"ems"}},
{"type":"Feature","geometry":{"type":"Point","coordinates":[114.120317,30.607315]},"properties":{"name":"仲泰农资物流部","xiaolei":"9352008","address":"车站村165","zhonglei":"9352","dalei":"2","type":"ems"}},
{"type":"Feature","geometry":{"type":"Point","coordinates":[114.118581,30.621648]},"properties":{"name":"湖北捷龙物流股份有限公司","xiaolei":"9352008","address":"新城八路特1号","zhonglei":"9352","dalei":"2","type":"ems"}},
{"type":"Feature","geometry":{"type":"Point","coordinates":[114.123674,30.622182]},"properties":{"name":"武汉逸飞物流有限公司","xiaolei":"9352008","address":"七雄路74","zhonglei":"9352","dalei":"2","type":"ems"}},
{"type":"Feature","geometry":{"type":"Point","coordinates":[114.115281,30.617063]},"properties":{"name":"湖北华昕物流配送有限公司（九通路","xiaolei":"9352008","address":"","zhonglei":"9352","dalei":"2","type":"ems"}},
{"type":"Feature","geometry":{"type":"Point","coordinates":[114.12437,30.626542]},"properties":{"name":"武汉欣志鑫物流有限公司","xiaolei":"9352008","address":"汉口吴家山南山路68号","zhonglei":"9352","dalei":"2","type":"ems"}},
{"type":"Feature","geometry":{"type":"Point","coordinates":[114.124534,30.626174]},"properties":{"name":"武汉市日月安汽车运输有限公司","xiaolei":"9352008","address":"南山路27","zhonglei":"9352","dalei":"2","type":"ems"}},
{"type":"Feature","geometry":{"type":"Point","coordinates":[114.118188,30.625057]},"properties":{"name":"武汉永顺通物流有限责任公司","xiaolei":"9352008","address":"","zhonglei":"9352","dalei":"2","type":"ems"}},
{"type":"Feature","geometry":{"type":"Point","coordinates":[114.119555,30.614571]},"properties":{"name":"武汉泰捷物流有限责任公司","xiaolei":"9352008","address":"","zhonglei":"9352","dalei":"2","type":"ems"}},
{"type":"Feature","geometry":{"type":"Point","coordinates":[114.119759,30.614572]},"properties":{"name":"武汉世纪物通物流有限公司","xiaolei":"9352008","address":"","zhonglei":"9352","dalei":"2","type":"ems"}},
{"type":"Feature","geometry":{"type":"Point","coordinates":[114.112087,30.618663]},"properties":{"name":"北京中路达物流公司","xiaolei":"9352008","address":"","zhonglei":"9352","dalei":"2","type":"ems"}},
{"type":"Feature","geometry":{"type":"Point","coordinates":[114.112166,30.618664]},"properties":{"name":"捷峰货运","xiaolei":"9352008","address":"","zhonglei":"9352","dalei":"2","type":"ems"}},
{"type":"Feature","geometry":{"type":"Point","coordinates":[114.11222,30.618664]},"properties":{"name":"武汉恒信物流有限公司","xiaolei":"9352008","address":"","zhonglei":"9352","dalei":"2","type":"ems"}},
{"type":"Feature","geometry":{"type":"Point","coordinates":[114.112262,30.618664]},"properties":{"name":"武汉金吉物流","xiaolei":"9352008","address":"","zhonglei":"9352","dalei":"2","type":"ems"}},
{"type":"Feature","geometry":{"type":"Point","coordinates":[114.113783,30.618729]},"properties":{"name":"汉联物流","xiaolei":"9352008","address":"东西湖大道6048","zhonglei":"9352","dalei":"2","type":"ems"}},
{"type":"Feature","geometry":{"type":"Point","coordinates":[114.124411,30.62617]},"properties":{"name":"武汉中宇通物流有限公司","xiaolei":"9352008","address":"","zhonglei":"9352","dalei":"2","type":"ems"}},
{"type":"Feature","geometry":{"type":"Point","coordinates":[114.123635,30.625311]},"properties":{"name":"武汉金泰来物流有限公司","xiaolei":"9352008","address":"沁园街13","zhonglei":"9352","dalei":"2","type":"ems"}},
{"type":"Feature","geometry":{"type":"Point","coordinates":[114.123439,30.624671]},"properties":{"name":"兆安时代冷藏物流有限责任公司","xiaolei":"9352008","address":"七雄路112","zhonglei":"9352","dalei":"2","type":"ems"}},
{"type":"Feature","geometry":{"type":"Point","coordinates":[114.123477,30.624132]},"properties":{"name":"武汉兴安泉运输有限公司","xiaolei":"9352008","address":"七雄路84-86","zhonglei":"9352","dalei":"2","type":"ems"}},
{"type":"Feature","geometry":{"type":"Point","coordinates":[114.123477,30.624132]},"properties":{"name":"武汉惠安运输有限公司","xiaolei":"9352008","address":"七雄路84-86","zhonglei":"9352","dalei":"2","type":"ems"}},
{"type":"Feature","geometry":{"type":"Point","coordinates":[114.123697,30.621961]},"properties":{"name":"武汉市清凯运输有限公司","xiaolei":"9352008","address":"七雄路68","zhonglei":"9352","dalei":"2","type":"ems"}},
{"type":"Feature","geometry":{"type":"Point","coordinates":[114.123454,30.624357]},"properties":{"name":"全峰快递（七雄路）","xiaolei":"9352008","address":"七雄路92","zhonglei":"9352","dalei":"2","type":"ems"}},
{"type":"Feature","geometry":{"type":"Point","coordinates":[114.122437,30.615195]},"properties":{"name":"国通快递（革新大道）","xiaolei":"9352008","address":"","zhonglei":"9352","dalei":"2","type":"ems"}},
{"type":"Feature","geometry":{"type":"Point","coordinates":[114.108379,30.627477]},"properties":{"name":"仁利和物流","xiaolei":"9352008","address":"十路永盛工业园","zhonglei":"9352","dalei":"2","type":"ems"}},
{"type":"Feature","geometry":{"type":"Point","coordinates":[114.122931,30.620167]},"properties":{"name":"苏州巨星货运有限公司","xiaolei":"9352008","address":"","zhonglei":"9352","dalei":"2","type":"ems"}},
{"type":"Feature","geometry":{"type":"Point","coordinates":[114.122931,30.620335]},"properties":{"name":"平安物流","xiaolei":"9352008","address":"七雄路43","zhonglei":"9352","dalei":"2","type":"ems"}},
{"type":"Feature","geometry":{"type":"Point","coordinates":[114.113074,30.619175]},"properties":{"name":"武汉闽汉通物流公司","xiaolei":"9352008","address":"","zhonglei":"9352","dalei":"2","type":"ems"}},
{"type":"Feature","geometry":{"type":"Point","coordinates":[114.112653,30.619121]},"properties":{"name":"大田物流","xiaolei":"9352008","address":"东西湖大道5779","zhonglei":"9352","dalei":"2","type":"ems"}},
{"type":"Feature","geometry":{"type":"Point","coordinates":[114.112736,30.619124]},"properties":{"name":"快邦物流","xiaolei":"9352008","address":"东西湖大道5779","zhonglei":"9352","dalei":"2","type":"ems"}},
{"type":"Feature","geometry":{"type":"Point","coordinates":[114.111685,30.622149]},"properties":{"name":"天一腾达物流","xiaolei":"9352008","address":"","zhonglei":"9352","dalei":"2","type":"ems"}},
{"type":"Feature","geometry":{"type":"Point","coordinates":[114.121356,30.611002]},"properties":{"name":"万程物流（裕东路）","xiaolei":"9352008","address":"团结大道吴南铁芯院内","zhonglei":"9352","dalei":"2","type":"ems"}},
{"type":"Feature","geometry":{"type":"Point","coordinates":[114.111503,30.622291]},"properties":{"name":"京汉速达货物运输公司","xiaolei":"9352008","address":"田园大道145","zhonglei":"9352","dalei":"2","type":"ems"}},
{"type":"Feature","geometry":{"type":"Point","coordinates":[114.111503,30.622291]},"properties":{"name":"无锡力翔货运公司","xiaolei":"9352008","address":"田园大道145","zhonglei":"9352","dalei":"2","type":"ems"}},
{"type":"Feature","geometry":{"type":"Point","coordinates":[114.111503,30.622291]},"properties":{"name":"深圳风行物流武汉分公司","xiaolei":"9352008","address":"田园大道145","zhonglei":"9352","dalei":"2","type":"ems"}},
{"type":"Feature","geometry":{"type":"Point","coordinates":[114.124468,30.62483]},"properties":{"name":"武汉市双国运输有限公司","xiaolei":"9352008","address":"沁园街52","zhonglei":"9352","dalei":"2","type":"ems"}},
{"type":"Feature","geometry":{"type":"Point","coordinates":[114.124468,30.62483]},"properties":{"name":"武汉快可物流有限公司","xiaolei":"9352008","address":"沁园街52","zhonglei":"9352","dalei":"2","type":"ems"}},
{"type":"Feature","geometry":{"type":"Point","coordinates":[114.112626,30.619249]},"properties":{"name":"鑫捷利达物流","xiaolei":"9352008","address":"东西湖大道5779","zhonglei":"9352","dalei":"2","type":"ems"}},
{"type":"Feature","geometry":{"type":"Point","coordinates":[114.111503,30.622291]},"properties":{"name":"天地·上乘物流武汉公司","xiaolei":"9352008","address":"田园大道145","zhonglei":"9352","dalei":"2","type":"ems"}},
{"type":"Feature","geometry":{"type":"Point","coordinates":[114.247324,30.618441]},"properties":{"name":"湖北邮政全夜航速递局","xiaolei":"9352008","address":"","zhonglei":"9352","dalei":"2","type":"ems"}},
{"type":"Feature","geometry":{"type":"Point","coordinates":[114.246685,30.615998]},"properties":{"name":"中国东方航空货运中心","xiaolei":"9352008","address":"","zhonglei":"9352","dalei":"2","type":"ems"}},
{"type":"Feature","geometry":{"type":"Point","coordinates":[114.246942,30.633781]},"properties":{"name":"武汉金程航空客货服务有限公司","xiaolei":"9352008","address":"长港路311","zhonglei":"9352","dalei":"2","type":"ems"}},
{"type":"Feature","geometry":{"type":"Point","coordinates":[114.247036,30.633811]},"properties":{"name":"武汉星晨货运服务有限公司","xiaolei":"9352008","address":"长港路313","zhonglei":"9352","dalei":"2","type":"ems"}},
{"type":"Feature","geometry":{"type":"Point","coordinates":[114.22747,30.604394]},"properties":{"name":"大道物流（武汉市中西医结合医院汉","xiaolei":"9352008","address":"","zhonglei":"9352","dalei":"2","type":"ems"}},
{"type":"Feature","geometry":{"type":"Point","coordinates":[114.243694,30.610671]},"properties":{"name":"武汉市第二汽车运输公司三站（振兴","xiaolei":"9352008","address":"振兴路209号","zhonglei":"9352","dalei":"2","type":"ems"}},
{"type":"Feature","geometry":{"type":"Point","coordinates":[114.243694,30.610671]},"properties":{"name":"武汉新干线快运","xiaolei":"9352008","address":"","zhonglei":"9352","dalei":"2","type":"ems"}},
{"type":"Feature","geometry":{"type":"Point","coordinates":[114.243694,30.610671]},"properties":{"name":"武汉市安达快运公司","xiaolei":"9352008","address":"","zhonglei":"9352","dalei":"2","type":"ems"}},
{"type":"Feature","geometry":{"type":"Point","coordinates":[114.243694,30.610671]},"properties":{"name":"华昌快运","xiaolei":"9352008","address":"","zhonglei":"9352","dalei":"2","type":"ems"}},
{"type":"Feature","geometry":{"type":"Point","coordinates":[114.234007,30.608288]},"properties":{"name":"天音物流有限公司","xiaolei":"9352008","address":"小区41栋","zhonglei":"9352","dalei":"2","type":"ems"}},
{"type":"Feature","geometry":{"type":"Point","coordinates":[114.161217,30.634611]},"properties":{"name":"武汉安林物流有限公司","xiaolei":"9352008","address":"金海工业园路8","zhonglei":"9352","dalei":"2","type":"ems"}},
{"type":"Feature","geometry":{"type":"Point","coordinates":[114.129134,30.619951]},"properties":{"name":"中百集团吴家山物流配送（配销）中","xiaolei":"9352008","address":"六顺路38","zhonglei":"9352","dalei":"2","type":"ems"}},
{"type":"Feature","geometry":{"type":"Point","coordinates":[114.139446,30.619894]},"properties":{"name":"武汉市新形运输有限责任公司","xiaolei":"9352008","address":"东西湖大道7058","zhonglei":"9352","dalei":"2","type":"ems"}},
{"type":"Feature","geometry":{"type":"Point","coordinates":[114.162635,30.613522]},"properties":{"name":"昱顺物流","xiaolei":"9352008","address":"","zhonglei":"9352","dalei":"2","type":"ems"}},
{"type":"Feature","geometry":{"type":"Point","coordinates":[114.170263,30.614565]},"properties":{"name":"大顺发物流（长丰大道）","xiaolei":"9352008","address":"","zhonglei":"9352","dalei":"2","type":"ems"}},
{"type":"Feature","geometry":{"type":"Point","coordinates":[114.216753,30.609506]},"properties":{"name":"世通物流常码头配送中心","xiaolei":"9352008","address":"","zhonglei":"9352","dalei":"2","type":"ems"}},
{"type":"Feature","geometry":{"type":"Point","coordinates":[114.216867,30.609517]},"properties":{"name":"金桥运业（发展大道）","xiaolei":"9352008","address":"","zhonglei":"9352","dalei":"2","type":"ems"}},
{"type":"Feature","geometry":{"type":"Point","coordinates":[114.216173,30.609573]},"properties":{"name":"东联快运","xiaolei":"9352008","address":"","zhonglei":"9352","dalei":"2","type":"ems"}},
{"type":"Feature","geometry":{"type":"Point","coordinates":[114.153471,30.621153]},"properties":{"name":"武汉快易通货运有限公司","xiaolei":"9352008","address":"","zhonglei":"9352","dalei":"2","type":"ems"}},
{"type":"Feature","geometry":{"type":"Point","coordinates":[114.197113,30.613183]},"properties":{"name":"汉正快运公司","xiaolei":"9352008","address":"","zhonglei":"9352","dalei":"2","type":"ems"}},
{"type":"Feature","geometry":{"type":"Point","coordinates":[114.155666,30.616666]},"properties":{"name":"南洋龙仓储货运信息部","xiaolei":"9352008","address":"","zhonglei":"9352","dalei":"2","type":"ems"}},
{"type":"Feature","geometry":{"type":"Point","coordinates":[114.135877,30.621096]},"properties":{"name":"武汉盛达装卸运输有限公司","xiaolei":"9352008","address":"四明路127号","zhonglei":"9352","dalei":"2","type":"ems"}},
{"type":"Feature","geometry":{"type":"Point","coordinates":[114.127739,30.62099]},"properties":{"name":"武汉中百物流配送有限公司","xiaolei":"9352008","address":"六顺路特1号","zhonglei":"9352","dalei":"2","type":"ems"}},
{"type":"Feature","geometry":{"type":"Point","coordinates":[114.142692,30.600132]},"properties":{"name":"江西亚利运输公司武汉分公司","xiaolei":"9352008","address":"余氏墩201号附近","zhonglei":"9352","dalei":"2","type":"ems"}},
{"type":"Feature","geometry":{"type":"Point","coordinates":[114.148642,30.604252]},"properties":{"name":"武汉供销农资物流股份有限公司","xiaolei":"9352008","address":"朝阳路117","zhonglei":"9352","dalei":"2","type":"ems"}},
{"type":"Feature","geometry":{"type":"Point","coordinates":[114.145097,30.61406]},"properties":{"name":"武汉同盛物流有限公司","xiaolei":"9352008","address":"","zhonglei":"9352","dalei":"2","type":"ems"}},
{"type":"Feature","geometry":{"type":"Point","coordinates":[114.148524,30.611528]},"properties":{"name":"老贺物流有限公司武汉分公司","xiaolei":"9352008","address":"舵落口大市场12区7栋12号","zhonglei":"9352","dalei":"2","type":"ems"}},
{"type":"Feature","geometry":{"type":"Point","coordinates":[114.148527,30.611478]},"properties":{"name":"金三友物流","xiaolei":"9352008","address":"","zhonglei":"9352","dalei":"2","type":"ems"}},
{"type":"Feature","geometry":{"type":"Point","coordinates":[114.151011,30.613149]},"properties":{"name":"花旗物流","xiaolei":"9352008","address":"","zhonglei":"9352","dalei":"2","type":"ems"}},
{"type":"Feature","geometry":{"type":"Point","coordinates":[114.147525,30.6126]},"properties":{"name":"瑞源物流","xiaolei":"9352008","address":"","zhonglei":"9352","dalei":"2","type":"ems"}},
{"type":"Feature","geometry":{"type":"Point","coordinates":[114.147628,30.612605]},"properties":{"name":"神龙通货物快运有限公司","xiaolei":"9352008","address":"","zhonglei":"9352","dalei":"2","type":"ems"}},
{"type":"Feature","geometry":{"type":"Point","coordinates":[114.148329,30.612598]},"properties":{"name":"大公货物运输有限责任公司","xiaolei":"9352008","address":"","zhonglei":"9352","dalei":"2","type":"ems"}},
{"type":"Feature","geometry":{"type":"Point","coordinates":[114.149245,30.612157]},"properties":{"name":"金昌物流提货处","xiaolei":"9352008","address":"","zhonglei":"9352","dalei":"2","type":"ems"}},
{"type":"Feature","geometry":{"type":"Point","coordinates":[114.249542,30.615946]},"properties":{"name":"武汉龙达运输有限公司","xiaolei":"9352008","address":"发展大道176号兴城大厦B座9层0906","zhonglei":"9352","dalei":"2","type":"ems"}},
{"type":"Feature","geometry":{"type":"Point","coordinates":[114.245673,30.614746]},"properties":{"name":"武汉长海集装箱航运有限公司（发展","xiaolei":"9352008","address":"发展大道166号江锋大厦B座9层0904室","zhonglei":"9352","dalei":"2","type":"ems"}},
{"type":"Feature","geometry":{"type":"Point","coordinates":[114.245673,30.614746]},"properties":{"name":"武汉长海通国际货运代理有限公司","xiaolei":"9352008","address":"发展大道166号江锋大厦B座12层1201室","zhonglei":"9352","dalei":"2","type":"ems"}},
{"type":"Feature","geometry":{"type":"Point","coordinates":[114.22025,30.592074]},"properties":{"name":"汉西车站货场","xiaolei":"9352008","address":"汉西一路80号","zhonglei":"9352","dalei":"2","type":"ems"}},
{"type":"Feature","geometry":{"type":"Point","coordinates":[114.163632,30.594905]},"properties":{"name":"志通物流（三环线）","xiaolei":"9352008","address":"黄金口特1号","zhonglei":"9352","dalei":"2","type":"ems"}},
{"type":"Feature","geometry":{"type":"Point","coordinates":[114.17935,30.608744]},"properties":{"name":"武汉恒荣物流有限公司","xiaolei":"9352008","address":"古田一路16号附近","zhonglei":"9352","dalei":"2","type":"ems"}},
{"type":"Feature","geometry":{"type":"Point","coordinates":[114.189031,30.607433]},"properties":{"name":"武汉兰卫物流中心","xiaolei":"9352008","address":"","zhonglei":"9352","dalei":"2","type":"ems"}},
{"type":"Feature","geometry":{"type":"Point","coordinates":[114.186361,30.601979]},"properties":{"name":"德邦物流（解放大道）","xiaolei":"9352008","address":"解放大道28号","zhonglei":"9352","dalei":"2","type":"ems"}},
{"type":"Feature","geometry":{"type":"Point","coordinates":[114.219545,30.591779]},"properties":{"name":"正达物流","xiaolei":"9352008","address":"汉西一路95号","zhonglei":"9352","dalei":"2","type":"ems"}},
{"type":"Feature","geometry":{"type":"Point","coordinates":[114.216982,30.593204]},"properties":{"name":"远诚物流（汉西二路）","xiaolei":"9352008","address":"汉西二路139号","zhonglei":"9352","dalei":"2","type":"ems"}},
{"type":"Feature","geometry":{"type":"Point","coordinates":[114.224288,30.588271]},"properties":{"name":"宇鑫物流（建设大道）","xiaolei":"9352008","address":"建设大道101号","zhonglei":"9352","dalei":"2","type":"ems"}},
{"type":"Feature","geometry":{"type":"Point","coordinates":[114.222428,30.598509]},"properties":{"name":"湖北长城物流有限公司","xiaolei":"9352008","address":"汉西北路189-1号","zhonglei":"9352","dalei":"2","type":"ems"}},
{"type":"Feature","geometry":{"type":"Point","coordinates":[114.245111,30.624644]},"properties":{"name":"志通物流（新湾三路）","xiaolei":"9352008","address":"红旗渠路特8号","zhonglei":"9352","dalei":"2","type":"ems"}},
{"type":"Feature","geometry":{"type":"Point","coordinates":[114.23997,30.62453]},"properties":{"name":"金昌物流有限公司（红旗渠路）","xiaolei":"9352008","address":"红旗渠路18号","zhonglei":"9352","dalei":"2","type":"ems"}},
{"type":"Feature","geometry":{"type":"Point","coordinates":[114.232603,30.607464]},"properties":{"name":"武汉中小企业物流全程电子商务平台","xiaolei":"9352008","address":"发展大道36附1","zhonglei":"9352","dalei":"2","type":"ems"}},
{"type":"Feature","geometry":{"type":"Point","coordinates":[114.232075,30.606655]},"properties":{"name":"武汉市第二汽车运输公司六站","xiaolei":"9352008","address":"","zhonglei":"9352","dalei":"2","type":"ems"}},
{"type":"Feature","geometry":{"type":"Point","coordinates":[114.132796,30.616553]},"properties":{"name":"川渝物流（五环大道）","xiaolei":"9352008","address":"","zhonglei":"9352","dalei":"2","type":"ems"}},
{"type":"Feature","geometry":{"type":"Point","coordinates":[114.140478,30.628666]},"properties":{"name":"韵达快运（东西湖服务站）","xiaolei":"9352008","address":"吴祁街133","zhonglei":"9352","dalei":"2","type":"ems"}},
{"type":"Feature","geometry":{"type":"Point","coordinates":[114.131315,30.630556]},"properties":{"name":"圆通快递（吴家山分部）","xiaolei":"9352008","address":"吴家山三店吴北路59号","zhonglei":"9352","dalei":"2","type":"ems"}},
{"type":"Feature","geometry":{"type":"Point","coordinates":[114.131752,30.616954]},"properties":{"name":"武汉中原物流有限公司","xiaolei":"9352008","address":"吴家山五支沟","zhonglei":"9352","dalei":"2","type":"ems"}},
{"type":"Feature","geometry":{"type":"Point","coordinates":[114.13222,30.609311]},"properties":{"name":"武汉捷利物流有限公司","xiaolei":"9352008","address":"五环大道23号","zhonglei":"9352","dalei":"2","type":"ems"}},
{"type":"Feature","geometry":{"type":"Point","coordinates":[114.147143,30.620784]},"properties":{"name":"三志物流","xiaolei":"9352008","address":"","zhonglei":"9352","dalei":"2","type":"ems"}},
{"type":"Feature","geometry":{"type":"Point","coordinates":[114.1329,30.606213]},"properties":{"name":"武汉远洋大型汽车运输有限公司","xiaolei":"9352008","address":"五环路20","zhonglei":"9352","dalei":"2","type":"ems"}},
{"type":"Feature","geometry":{"type":"Point","coordinates":[114.146277,30.622327]},"properties":{"name":"爱民物流有限责任公司","xiaolei":"9352008","address":"广富巷40","zhonglei":"9352","dalei":"2","type":"ems"}},
{"type":"Feature","geometry":{"type":"Point","coordinates":[114.146273,30.622458]},"properties":{"name":"武汉新东垦物流有限公司","xiaolei":"9352008","address":"广富巷40","zhonglei":"9352","dalei":"2","type":"ems"}},
{"type":"Feature","geometry":{"type":"Point","coordinates":[114.136238,30.61483]},"properties":{"name":"武汉鼎兴物流有限公司","xiaolei":"9352008","address":"吴家山四明路","zhonglei":"9352","dalei":"2","type":"ems"}},
{"type":"Feature","geometry":{"type":"Point","coordinates":[114.126452,30.620072]},"properties":{"name":"湖北畅达天下物流有限公司","xiaolei":"9352008","address":"东西湖大道6019","zhonglei":"9352","dalei":"2","type":"ems"}},
{"type":"Feature","geometry":{"type":"Point","coordinates":[114.126452,30.620072]},"properties":{"name":"成都畅达货运有限公司提货点","xiaolei":"9352008","address":"东西湖大道6019","zhonglei":"9352","dalei":"2","type":"ems"}},
{"type":"Feature","geometry":{"type":"Point","coordinates":[114.137133,30.643246]},"properties":{"name":"天虎物流","xiaolei":"9352008","address":"吴北路123","zhonglei":"9352","dalei":"2","type":"ems"}},
{"type":"Feature","geometry":{"type":"Point","coordinates":[114.13089,30.615126]},"properties":{"name":"武汉中运通国际物流有限公司","xiaolei":"9352008","address":"革新大道574","zhonglei":"9352","dalei":"2","type":"ems"}},
{"type":"Feature","geometry":{"type":"Point","coordinates":[114.197058,30.627684]},"properties":{"name":"武汉市富航前程货运有限公司","xiaolei":"9352008","address":"","zhonglei":"9352","dalei":"2","type":"ems"}},
{"type":"Feature","geometry":{"type":"Point","coordinates":[114.191687,30.630767]},"properties":{"name":"嘉禾装饰集团物流中心","xiaolei":"9352008","address":"","zhonglei":"9352","dalei":"2","type":"ems"}},
{"type":"Feature","geometry":{"type":"Point","coordinates":[114.127963,30.617637]},"properties":{"name":"武汉强昕货运有限公司","xiaolei":"9352008","address":"","zhonglei":"9352","dalei":"2","type":"ems"}},
{"type":"Feature","geometry":{"type":"Point","coordinates":[114.14853,30.625526]},"properties":{"name":"武汉晶辉物流有限公司","xiaolei":"9352008","address":"","zhonglei":"9352","dalei":"2","type":"ems"}},
{"type":"Feature","geometry":{"type":"Point","coordinates":[114.166061,30.635131]},"properties":{"name":"湖北盐业集团有限公司武汉食盐配送","xiaolei":"9352008","address":"金海工业园路3","zhonglei":"9352","dalei":"2","type":"ems"}},
{"type":"Feature","geometry":{"type":"Point","coordinates":[114.13459,30.619656]},"properties":{"name":"汇通物流园","xiaolei":"9352008","address":"吴家山四明路107国道旁","zhonglei":"9352","dalei":"2","type":"ems"}},
{"type":"Feature","geometry":{"type":"Point","coordinates":[114.24801,30.64299]},"properties":{"name":"北京大通道源物流有限公司","xiaolei":"9352008","address":"康居一路10号","zhonglei":"9352","dalei":"2","type":"ems"}},
{"type":"Feature","geometry":{"type":"Point","coordinates":[114.17508,30.594462]},"properties":{"name":"申通快递（硚口分部）","xiaolei":"9352008","address":"古田一路1附5","zhonglei":"9352","dalei":"2","type":"ems"}},
{"type":"Feature","geometry":{"type":"Point","coordinates":[114.166953,30.615425]},"properties":{"name":"武汉市乘丰物流园","xiaolei":"9352008","address":"","zhonglei":"9352","dalei":"2","type":"ems"}},
{"type":"Feature","geometry":{"type":"Point","coordinates":[114.169907,30.610384]},"properties":{"name":"佳吉快运（易家街工农社区西北）","xiaolei":"9352008","address":"工农路63号","zhonglei":"9352","dalei":"2","type":"ems"}},
{"type":"Feature","geometry":{"type":"Point","coordinates":[114.169246,30.614668]},"properties":{"name":"景赋物流","xiaolei":"9352008","address":"长丰大道16号","zhonglei":"9352","dalei":"2","type":"ems"}},
{"type":"Feature","geometry":{"type":"Point","coordinates":[114.170103,30.614583]},"properties":{"name":"佳宇物流（长丰大道）","xiaolei":"9352008","address":"","zhonglei":"9352","dalei":"2","type":"ems"}},
{"type":"Feature","geometry":{"type":"Point","coordinates":[114.227822,30.625885]},"properties":{"name":"湖北省邮政公司","xiaolei":"9352008","address":"江兴路10号","zhonglei":"9352","dalei":"2","type":"ems"}},
{"type":"Feature","geometry":{"type":"Point","coordinates":[114.225803,30.620879]},"properties":{"name":"畅通物流（江达路）","xiaolei":"9352008","address":"","zhonglei":"9352","dalei":"2","type":"ems"}},
{"type":"Feature","geometry":{"type":"Point","coordinates":[114.18199,30.588474]},"properties":{"name":"武汉宏畅物流市场有限公司（西南一","xiaolei":"9352008","address":"","zhonglei":"9352","dalei":"2","type":"ems"}},
{"type":"Feature","geometry":{"type":"Point","coordinates":[114.181091,30.589388]},"properties":{"name":"武汉宏畅物流市场有限公司（西南二","xiaolei":"9352008","address":"","zhonglei":"9352","dalei":"2","type":"ems"}},
{"type":"Feature","geometry":{"type":"Point","coordinates":[114.245125,30.624609]},"properties":{"name":"宇鑫物流（新湾三路）","xiaolei":"9352008","address":"","zhonglei":"9352","dalei":"2","type":"ems"}},
{"type":"Feature","geometry":{"type":"Point","coordinates":[114.191539,30.604974]},"properties":{"name":"宅急送（武汉硚口营业厅）","xiaolei":"9352008","address":"解放大道49附25","zhonglei":"9352","dalei":"2","type":"ems"}},
{"type":"Feature","geometry":{"type":"Point","coordinates":[114.191079,30.605089]},"properties":{"name":"圆通速递（南泥湾大道）","xiaolei":"9352008","address":"解放大道49附30","zhonglei":"9352","dalei":"2","type":"ems"}},
{"type":"Feature","geometry":{"type":"Point","coordinates":[114.205429,30.597407]},"properties":{"name":"大公货运","xiaolei":"9352008","address":"长嘉路5","zhonglei":"9352","dalei":"2","type":"ems"}},
{"type":"Feature","geometry":{"type":"Point","coordinates":[114.215586,30.596244]},"properties":{"name":"金典物流（汉西一路）","xiaolei":"9352008","address":"","zhonglei":"9352","dalei":"2","type":"ems"}},
{"type":"Feature","geometry":{"type":"Point","coordinates":[114.140089,30.63105]},"properties":{"name":"武汉鑫运达运输有限公司","xiaolei":"9352008","address":"","zhonglei":"9352","dalei":"2","type":"ems"}},
{"type":"Feature","geometry":{"type":"Point","coordinates":[114.177286,30.600349]},"properties":{"name":"古田路报刊发行投递站","xiaolei":"9352008","address":"","zhonglei":"9352","dalei":"2","type":"ems"}},
{"type":"Feature","geometry":{"type":"Point","coordinates":[114.229785,30.625518]},"properties":{"name":"创捷平安达物流（开发区经营部）","xiaolei":"9352008","address":"江兴路8附1","zhonglei":"9352","dalei":"2","type":"ems"}},
{"type":"Feature","geometry":{"type":"Point","coordinates":[114.231091,30.62416]},"properties":{"name":"武汉捷锐物流有限公司","xiaolei":"9352008","address":"","zhonglei":"9352","dalei":"2","type":"ems"}},
{"type":"Feature","geometry":{"type":"Point","coordinates":[114.232725,30.613488]},"properties":{"name":"天天快运（常腾街）","xiaolei":"9352008","address":"吴家山四支沟长江物流院内","zhonglei":"9352","dalei":"2","type":"ems"}},
{"type":"Feature","geometry":{"type":"Point","coordinates":[114.230105,30.610795]},"properties":{"name":"昊鹏物流","xiaolei":"9352008","address":"发展大道39附65","zhonglei":"9352","dalei":"2","type":"ems"}},
{"type":"Feature","geometry":{"type":"Point","coordinates":[114.208449,30.616002]},"properties":{"name":"申通快递（古田公司）","xiaolei":"9352008","address":"","zhonglei":"9352","dalei":"2","type":"ems"}},
{"type":"Feature","geometry":{"type":"Point","coordinates":[114.179405,30.612415]},"properties":{"name":"武汉鑫汉渝物流有限公司","xiaolei":"9352008","address":"","zhonglei":"9352","dalei":"2","type":"ems"}},
{"type":"Feature","geometry":{"type":"Point","coordinates":[114.158317,30.61397]},"properties":{"name":"申通快递（东西湖分公司）","xiaolei":"9352008","address":"","zhonglei":"9352","dalei":"2","type":"ems"}},
{"type":"Feature","geometry":{"type":"Point","coordinates":[114.157601,30.611362]},"properties":{"name":"中建商砼设备运输分公司","xiaolei":"9352008","address":"朝阳路166","zhonglei":"9352","dalei":"2","type":"ems"}},
{"type":"Feature","geometry":{"type":"Point","coordinates":[114.183801,30.591739]},"properties":{"name":"杰通宏业物流","xiaolei":"9352008","address":"","zhonglei":"9352","dalei":"2","type":"ems"}},
{"type":"Feature","geometry":{"type":"Point","coordinates":[114.197489,30.592134]},"properties":{"name":"圆通速递（古田三路）","xiaolei":"9352008","address":"古田三路58路","zhonglei":"9352","dalei":"2","type":"ems"}},
{"type":"Feature","geometry":{"type":"Point","coordinates":[114.178394,30.61249]},"properties":{"name":"武汉市鑫汉渝物流有限公司","xiaolei":"9352008","address":"","zhonglei":"9352","dalei":"2","type":"ems"}},
{"type":"Feature","geometry":{"type":"Point","coordinates":[114.172998,30.608864]},"properties":{"name":"汉成捷物流","xiaolei":"9352008","address":"工农路106号","zhonglei":"9352","dalei":"2","type":"ems"}},
{"type":"Feature","geometry":{"type":"Point","coordinates":[114.174035,30.606724]},"properties":{"name":"汉口火车站行包托运处","xiaolei":"9352008","address":"","zhonglei":"9352","dalei":"2","type":"ems"}},
{"type":"Feature","geometry":{"type":"Point","coordinates":[114.181645,30.616384]},"properties":{"name":"武汉邦尼国际货运（代理）有限公司","xiaolei":"9352008","address":"长丰大道长风路东风创业园","zhonglei":"9352","dalei":"2","type":"ems"}},
{"type":"Feature","geometry":{"type":"Point","coordinates":[114.192546,30.614153]},"properties":{"name":"宇鑫物流（硚口区长丰街长丰村医务","xiaolei":"9352008","address":"","zhonglei":"9352","dalei":"2","type":"ems"}},
{"type":"Feature","geometry":{"type":"Point","coordinates":[114.192659,30.614095]},"properties":{"name":"大道物流（硚口区长丰街长丰村医务","xiaolei":"9352008","address":"","zhonglei":"9352","dalei":"2","type":"ems"}},
{"type":"Feature","geometry":{"type":"Point","coordinates":[114.195667,30.613543]},"properties":{"name":"长丰万国汽车城物流配送公司","xiaolei":"9352008","address":"","zhonglei":"9352","dalei":"2","type":"ems"}},
{"type":"Feature","geometry":{"type":"Point","coordinates":[114.194888,30.614216]},"properties":{"name":"晓阳物流有限公司","xiaolei":"9352008","address":"","zhonglei":"9352","dalei":"2","type":"ems"}},
{"type":"Feature","geometry":{"type":"Point","coordinates":[114.15825,30.593363]},"properties":{"name":"优速物流（金花路）","xiaolei":"9352008","address":"百威路12号","zhonglei":"9352","dalei":"2","type":"ems"}},
{"type":"Feature","geometry":{"type":"Point","coordinates":[114.158151,30.593611]},"properties":{"name":"恒路物流","xiaolei":"9352008","address":"黄金口特1号","zhonglei":"9352","dalei":"2","type":"ems"}},
{"type":"Feature","geometry":{"type":"Point","coordinates":[114.238679,30.615366]},"properties":{"name":"武汉顺成物流有限公司","xiaolei":"9352008","address":"常超街375","zhonglei":"9352","dalei":"2","type":"ems"}},
{"type":"Feature","geometry":{"type":"Point","coordinates":[114.237817,30.616613]},"properties":{"name":"武汉九通快捷物流有限公司","xiaolei":"9352008","address":"","zhonglei":"9352","dalei":"2","type":"ems"}},
{"type":"Feature","geometry":{"type":"Point","coordinates":[114.237693,30.615768]},"properties":{"name":"天易通物流","xiaolei":"9352008","address":"","zhonglei":"9352","dalei":"2","type":"ems"}},
{"type":"Feature","geometry":{"type":"Point","coordinates":[114.237568,30.615716]},"properties":{"name":"武汉市江汉区经纬货运中心","xiaolei":"9352008","address":"","zhonglei":"9352","dalei":"2","type":"ems"}},
{"type":"Feature","geometry":{"type":"Point","coordinates":[114.23745,30.615677]},"properties":{"name":"武汉市铁顺物流有限公司","xiaolei":"9352008","address":"","zhonglei":"9352","dalei":"2","type":"ems"}},
{"type":"Feature","geometry":{"type":"Point","coordinates":[114.236391,30.615255]},"properties":{"name":"武汉中杰物流","xiaolei":"9352008","address":"","zhonglei":"9352","dalei":"2","type":"ems"}},
{"type":"Feature","geometry":{"type":"Point","coordinates":[114.236116,30.615134]},"properties":{"name":"中通速递（凯旋佳园西南）","xiaolei":"9352008","address":"新华工业园内","zhonglei":"9352","dalei":"2","type":"ems"}},
{"type":"Feature","geometry":{"type":"Point","coordinates":[114.235737,30.614975]},"properties":{"name":"武汉三江华宇物流有限公司（复兴湾","xiaolei":"9352008","address":"","zhonglei":"9352","dalei":"2","type":"ems"}},
{"type":"Feature","geometry":{"type":"Point","coordinates":[114.235253,30.614847]},"properties":{"name":"国通快递（常飞街）","xiaolei":"9352008","address":"","zhonglei":"9352","dalei":"2","type":"ems"}},
{"type":"Feature","geometry":{"type":"Point","coordinates":[114.240091,30.613387]},"properties":{"name":"佳吉快运（常超街）","xiaolei":"9352008","address":"常展里30号附近","zhonglei":"9352","dalei":"2","type":"ems"}},
{"type":"Feature","geometry":{"type":"Point","coordinates":[114.239145,30.614672]},"properties":{"name":"韵达快运（常超街）","xiaolei":"9352008","address":"","zhonglei":"9352","dalei":"2","type":"ems"}},
{"type":"Feature","geometry":{"type":"Point","coordinates":[114.239052,30.614831]},"properties":{"name":"中铁快运（汉西营业部）","xiaolei":"9352008","address":"","zhonglei":"9352","dalei":"2","type":"ems"}},
{"type":"Feature","geometry":{"type":"Point","coordinates":[114.127317,30.621333]},"properties":{"name":"武汉远驰物流有限公司","xiaolei":"9352008","address":"六顺路157","zhonglei":"9352","dalei":"2","type":"ems"}},
{"type":"Feature","geometry":{"type":"Point","coordinates":[114.138263,30.621771]},"properties":{"name":"宇鑫物流（东西湖区物资行业管理办","xiaolei":"9352008","address":"田园中路38","zhonglei":"9352","dalei":"2","type":"ems"}},
{"type":"Feature","geometry":{"type":"Point","coordinates":[114.138274,30.62167]},"properties":{"name":"大道物流（东西湖区物资行业管理办","xiaolei":"9352008","address":"田园中路34","zhonglei":"9352","dalei":"2","type":"ems"}},
{"type":"Feature","geometry":{"type":"Point","coordinates":[114.136096,30.617231]},"properties":{"name":"武汉市大川物流有限公司（武汉市东","xiaolei":"9352008","address":"","zhonglei":"9352","dalei":"2","type":"ems"}},
{"type":"Feature","geometry":{"type":"Point","coordinates":[114.146506,30.620799]},"properties":{"name":"军安达物流","xiaolei":"9352008","address":"二雅路","zhonglei":"9352","dalei":"2","type":"ems"}},
{"type":"Feature","geometry":{"type":"Point","coordinates":[114.136046,30.617974]},"properties":{"name":"武汉捷祥物流有限公司","xiaolei":"9352008","address":"四明路39","zhonglei":"9352","dalei":"2","type":"ems"}},
{"type":"Feature","geometry":{"type":"Point","coordinates":[114.148474,30.62447]},"properties":{"name":"申通快递（吴家山服务部）","xiaolei":"9352008","address":"吴家山一清路富丽雅20号","zhonglei":"9352","dalei":"2","type":"ems"}},
{"type":"Feature","geometry":{"type":"Point","coordinates":[114.127456,30.619013]},"properties":{"name":"胜祥物流有限责任公司（蔡甸分公司","xiaolei":"9352008","address":"六顺路武汉市大道","zhonglei":"9352","dalei":"2","type":"ems"}},
{"type":"Feature","geometry":{"type":"Point","coordinates":[114.127454,30.619012]},"properties":{"name":"武汉市东西湖区盛大汽运有限公司","xiaolei":"9352008","address":"六顺路55","zhonglei":"9352","dalei":"2","type":"ems"}},
{"type":"Feature","geometry":{"type":"Point","coordinates":[114.138647,30.61121]},"properties":{"name":"武汉永康汽车运输有限公司","xiaolei":"9352008","address":"","zhonglei":"9352","dalei":"2","type":"ems"}},
{"type":"Feature","geometry":{"type":"Point","coordinates":[114.138647,30.61121]},"properties":{"name":"永康汽车运输有限公司（汉南分公司","xiaolei":"9352008","address":"","zhonglei":"9352","dalei":"2","type":"ems"}},
{"type":"Feature","geometry":{"type":"Point","coordinates":[114.138647,30.61121]},"properties":{"name":"武汉鑫顺畅物流有限公司","xiaolei":"9352008","address":"","zhonglei":"9352","dalei":"2","type":"ems"}},
{"type":"Feature","geometry":{"type":"Point","coordinates":[114.140507,30.612754]},"properties":{"name":"武汉市大兵物流有限公司","xiaolei":"9352008","address":"吴家山团结村三秀路","zhonglei":"9352","dalei":"2","type":"ems"}},
{"type":"Feature","geometry":{"type":"Point","coordinates":[114.132966,30.615612]},"properties":{"name":"川渝物流园","xiaolei":"9352008","address":"吴家山五支沟","zhonglei":"9352","dalei":"2","type":"ems"}},
{"type":"Feature","geometry":{"type":"Point","coordinates":[114.131589,30.619225]},"properties":{"name":"孝感首信运输有限公司","xiaolei":"9352008","address":"","zhonglei":"9352","dalei":"2","type":"ems"}},
{"type":"Feature","geometry":{"type":"Point","coordinates":[114.131589,30.619225]},"properties":{"name":"武汉诚信运输有限公司","xiaolei":"9352008","address":"","zhonglei":"9352","dalei":"2","type":"ems"}},
{"type":"Feature","geometry":{"type":"Point","coordinates":[114.146453,30.628776]},"properties":{"name":"武汉创利园物流有限公司","xiaolei":"9352008","address":"","zhonglei":"9352","dalei":"2","type":"ems"}},
{"type":"Feature","geometry":{"type":"Point","coordinates":[114.141289,30.625475]},"properties":{"name":"万通运输有限责任公司","xiaolei":"9352008","address":"东吴大道1166","zhonglei":"9352","dalei":"2","type":"ems"}},
{"type":"Feature","geometry":{"type":"Point","coordinates":[114.137459,30.637201]},"properties":{"name":"湖北鸿运通达物流有限公司（三店中","xiaolei":"9352008","address":"吴北路10","zhonglei":"9352","dalei":"2","type":"ems"}},
{"type":"Feature","geometry":{"type":"Point","coordinates":[114.13835,30.638408]},"properties":{"name":"汇通快运（三店中路）","xiaolei":"9352008","address":"","zhonglei":"9352","dalei":"2","type":"ems"}},
{"type":"Feature","geometry":{"type":"Point","coordinates":[114.12987,30.60258]},"properties":{"name":"武汉宝通运输有限公司","xiaolei":"9352008","address":"惠安大道817","zhonglei":"9352","dalei":"2","type":"ems"}},
{"type":"Feature","geometry":{"type":"Point","coordinates":[114.139874,30.601408]},"properties":{"name":"湖北银丰仓储物流有限责任公司","xiaolei":"9352008","address":"朝阳路102","zhonglei":"9352","dalei":"2","type":"ems"}},
{"type":"Feature","geometry":{"type":"Point","coordinates":[114.142051,30.603001]},"properties":{"name":"武汉诚通物流有限公司（朝阳路）","xiaolei":"9352008","address":"朝阳路111号","zhonglei":"9352","dalei":"2","type":"ems"}},
{"type":"Feature","geometry":{"type":"Point","coordinates":[114.230122,30.636516]},"properties":{"name":"汇通快运（常青花园公司）","xiaolei":"9352008","address":"吴家山二十一支沟高桥五路保税物流","zhonglei":"9352","dalei":"2","type":"ems"}},
{"type":"Feature","geometry":{"type":"Point","coordinates":[114.19902,30.629877]},"properties":{"name":"申通快递（金银湖分部）","xiaolei":"9352008","address":"","zhonglei":"9352","dalei":"2","type":"ems"}},
{"type":"Feature","geometry":{"type":"Point","coordinates":[114.199672,30.629828]},"properties":{"name":"全球邮政特快专递（金银湖南街）","xiaolei":"9352008","address":"","zhonglei":"9352","dalei":"2","type":"ems"}},
{"type":"Feature","geometry":{"type":"Point","coordinates":[114.201354,30.629782]},"properties":{"name":"中通快递（金银湖南街）","xiaolei":"9352008","address":"","zhonglei":"9352","dalei":"2","type":"ems"}},
{"type":"Feature","geometry":{"type":"Point","coordinates":[114.219202,30.634983]},"properties":{"name":"圆通速递（丽景东路）","xiaolei":"9352008","address":"金南一路","zhonglei":"9352","dalei":"2","type":"ems"}},
{"type":"Feature","geometry":{"type":"Point","coordinates":[114.222259,30.630383]},"properties":{"name":"圆通速递（金南一路）","xiaolei":"9352008","address":"","zhonglei":"9352","dalei":"2","type":"ems"}},
{"type":"Feature","geometry":{"type":"Point","coordinates":[114.222531,30.629991]},"properties":{"name":"武汉快递通物流有限公司","xiaolei":"9352008","address":"","zhonglei":"9352","dalei":"2","type":"ems"}},
{"type":"Feature","geometry":{"type":"Point","coordinates":[114.159707,30.615503]},"properties":{"name":"湖北汉正西物流中心","xiaolei":"9352008","address":"工农路9号老年公寓对面汉正西物流中","zhonglei":"9352","dalei":"2","type":"ems"}},
{"type":"Feature","geometry":{"type":"Point","coordinates":[114.245098,30.624678]},"properties":{"name":"圆通速递（汉口火车站分部）","xiaolei":"9352008","address":"","zhonglei":"9352","dalei":"2","type":"ems"}},
{"type":"Feature","geometry":{"type":"Point","coordinates":[114.242851,30.63179]},"properties":{"name":"顺丰速运（新湾三路）","xiaolei":"9352008","address":"长港路88号","zhonglei":"9352","dalei":"2","type":"ems"}},
{"type":"Feature","geometry":{"type":"Point","coordinates":[114.249672,30.634871]},"properties":{"name":"武汉安吉迅物流有限公司","xiaolei":"9352008","address":"长港路345附1","zhonglei":"9352","dalei":"2","type":"ems"}},
{"type":"Feature","geometry":{"type":"Point","coordinates":[114.224289,30.596085]},"properties":{"name":"金昌物流（汉西路）","xiaolei":"9352008","address":"汉西北路52号","zhonglei":"9352","dalei":"2","type":"ems"}},
{"type":"Feature","geometry":{"type":"Point","coordinates":[114.244943,30.585961]},"properties":{"name":"德邦物流（建设大道）","xiaolei":"9352008","address":"建设大道326附2","zhonglei":"9352","dalei":"2","type":"ems"}},
{"type":"Feature","geometry":{"type":"Point","coordinates":[114.190205,30.607258]},"properties":{"name":"古田中通","xiaolei":"9352008","address":"","zhonglei":"9352","dalei":"2","type":"ems"}},
{"type":"Feature","geometry":{"type":"Point","coordinates":[114.191476,30.606952]},"properties":{"name":"韵达快运（古田服务站）","xiaolei":"9352008","address":"","zhonglei":"9352","dalei":"2","type":"ems"}},
{"type":"Feature","geometry":{"type":"Point","coordinates":[114.203153,30.601926]},"properties":{"name":"新邦物流（南泥湾大道）","xiaolei":"9352008","address":"南泥湾大道104","zhonglei":"9352","dalei":"2","type":"ems"}},
{"type":"Feature","geometry":{"type":"Point","coordinates":[114.226278,30.626941]},"properties":{"name":"武汉顺顺达物流有限公责任公司","xiaolei":"9352008","address":"","zhonglei":"9352","dalei":"2","type":"ems"}},
{"type":"Feature","geometry":{"type":"Point","coordinates":[114.237019,30.615514]},"properties":{"name":"中航运通","xiaolei":"9352008","address":"","zhonglei":"9352","dalei":"2","type":"ems"}},
{"type":"Feature","geometry":{"type":"Point","coordinates":[114.237756,30.612378]},"properties":{"name":"鹰航快递（楚天都市花园东南）","xiaolei":"9352008","address":"常发里67号","zhonglei":"9352","dalei":"2","type":"ems"}},
{"type":"Feature","geometry":{"type":"Point","coordinates":[114.2303,30.611487]},"properties":{"name":"天友达物流","xiaolei":"9352008","address":"","zhonglei":"9352","dalei":"2","type":"ems"}},
{"type":"Feature","geometry":{"type":"Point","coordinates":[114.229953,30.611179]},"properties":{"name":"易航物流","xiaolei":"9352008","address":"","zhonglei":"9352","dalei":"2","type":"ems"}},
{"type":"Feature","geometry":{"type":"Point","coordinates":[114.183106,30.591668]},"properties":{"name":"武汉陆陆顺物流有限责任公司","xiaolei":"9352008","address":"","zhonglei":"9352","dalei":"2","type":"ems"}},
{"type":"Feature","geometry":{"type":"Point","coordinates":[114.170542,30.614517]},"properties":{"name":"明枫木业有限公司地板配货中心","xiaolei":"9352008","address":"长丰大道18号","zhonglei":"9352","dalei":"2","type":"ems"}},
{"type":"Feature","geometry":{"type":"Point","coordinates":[114.172547,30.614253]},"properties":{"name":"德邦（长丰大道）","xiaolei":"9352008","address":"","zhonglei":"9352","dalei":"2","type":"ems"}},
{"type":"Feature","geometry":{"type":"Point","coordinates":[114.172719,30.614241]},"properties":{"name":"新邦物流（长丰大道）","xiaolei":"9352008","address":"","zhonglei":"9352","dalei":"2","type":"ems"}},
{"type":"Feature","geometry":{"type":"Point","coordinates":[114.185487,30.616073]},"properties":{"name":"通成物流（长风路）","xiaolei":"9352008","address":"","zhonglei":"9352","dalei":"2","type":"ems"}},
{"type":"Feature","geometry":{"type":"Point","coordinates":[114.188255,30.615873]},"properties":{"name":"添溢物流","xiaolei":"9352008","address":"长丰万国汽车城西区10栋1-2号","zhonglei":"9352","dalei":"2","type":"ems"}},
{"type":"Feature","geometry":{"type":"Point","coordinates":[114.192488,30.615599]},"properties":{"name":"武汉猎豹快运","xiaolei":"9352008","address":"长丰万国汽车城东区7号楼A14","zhonglei":"9352","dalei":"2","type":"ems"}},
{"type":"Feature","geometry":{"type":"Point","coordinates":[114.195724,30.592225]},"properties":{"name":"海航天天快递（古田营业部）","xiaolei":"9352008","address":"","zhonglei":"9352","dalei":"2","type":"ems"}},
{"type":"Feature","geometry":{"type":"Point","coordinates":[114.196259,30.62474]},"properties":{"name":"武汉蓝焰物流基地","xiaolei":"9352008","address":"古田二路","zhonglei":"9352","dalei":"2","type":"ems"}},
{"type":"Feature","geometry":{"type":"Point","coordinates":[114.148805,30.618225]},"properties":{"name":"鑫安达快运","xiaolei":"9352008","address":"舵落口大市场18区B1栋9-10号沿河大道十","zhonglei":"9352","dalei":"2","type":"ems"}},
{"type":"Feature","geometry":{"type":"Point","coordinates":[114.148642,30.604252]},"properties":{"name":"武汉供销农资物流配送中心","xiaolei":"9352008","address":"朝阳路117","zhonglei":"9352","dalei":"2","type":"ems"}},
{"type":"Feature","geometry":{"type":"Point","coordinates":[114.13098,30.602621]},"properties":{"name":"正泰电器销售有限公司物流中心","xiaolei":"9352008","address":"惠安大道819","zhonglei":"9352","dalei":"2","type":"ems"}},
{"type":"Feature","geometry":{"type":"Point","coordinates":[114.130543,30.602178]},"properties":{"name":"益嘉物流配送中心","xiaolei":"9352008","address":"","zhonglei":"9352","dalei":"2","type":"ems"}},
{"type":"Feature","geometry":{"type":"Point","coordinates":[114.158949,30.594056]},"properties":{"name":"武汉凯泰物流有限公司","xiaolei":"9352008","address":"","zhonglei":"9352","dalei":"2","type":"ems"}},
{"type":"Feature","geometry":{"type":"Point","coordinates":[114.248237,30.651079]},"properties":{"name":"德邦（将军路）","xiaolei":"9352008","address":"将军路59号","zhonglei":"9352","dalei":"2","type":"ems"}},
{"type":"Feature","geometry":{"type":"Point","coordinates":[114.237033,30.64969]},"properties":{"name":"常青花园中通速递","xiaolei":"9352008","address":"","zhonglei":"9352","dalei":"2","type":"ems"}},
{"type":"Feature","geometry":{"type":"Point","coordinates":[114.135663,30.620283]},"properties":{"name":"武汉市东西湖国强运输有限公司（东","xiaolei":"9352008","address":"东西湖大道6187","zhonglei":"9352","dalei":"2","type":"ems"}},
{"type":"Feature","geometry":{"type":"Point","coordinates":[114.136747,30.622141]},"properties":{"name":"武汉程泰通物流有限公司","xiaolei":"9352008","address":"田园南路20","zhonglei":"9352","dalei":"2","type":"ems"}},
{"type":"Feature","geometry":{"type":"Point","coordinates":[114.136396,30.622114]},"properties":{"name":"武汉金鸿昌运输有限公司","xiaolei":"9352008","address":"田园南路4","zhonglei":"9352","dalei":"2","type":"ems"}},
{"type":"Feature","geometry":{"type":"Point","coordinates":[114.132886,30.624121]},"properties":{"name":"武汉诚迅达物流有限公司（东西湖区","xiaolei":"9352008","address":"","zhonglei":"9352","dalei":"2","type":"ems"}},
{"type":"Feature","geometry":{"type":"Point","coordinates":[114.184103,30.606982]},"properties":{"name":"中通速递（古田分部）","xiaolei":"9352008","address":"南泥湾大道10号","zhonglei":"9352","dalei":"2","type":"ems"}},
{"type":"Feature","geometry":{"type":"Point","coordinates":[114.194769,30.607221]},"properties":{"name":"天天快递（古田营业厅）","xiaolei":"9352008","address":"古田二路109","zhonglei":"9352","dalei":"2","type":"ems"}},
{"type":"Feature","geometry":{"type":"Point","coordinates":[114.189375,30.607533]},"properties":{"name":"全球邮政特快专递（长天路）","xiaolei":"9352008","address":"","zhonglei":"9352","dalei":"2","type":"ems"}},
{"type":"Feature","geometry":{"type":"Point","coordinates":[114.209101,30.596341]},"properties":{"name":"顺丰速运（古田四路）","xiaolei":"9352008","address":"","zhonglei":"9352","dalei":"2","type":"ems"}},
{"type":"Feature","geometry":{"type":"Point","coordinates":[114.210086,30.6002]},"properties":{"name":"韵达快运（武汉古田服务站）","xiaolei":"9352008","address":"","zhonglei":"9352","dalei":"2","type":"ems"}},
{"type":"Feature","geometry":{"type":"Point","coordinates":[114.218057,30.592695]},"properties":{"name":"湖北军安达物流有限公司","xiaolei":"9352008","address":"","zhonglei":"9352","dalei":"2","type":"ems"}},
{"type":"Feature","geometry":{"type":"Point","coordinates":[114.217996,30.592764]},"properties":{"name":"时代快运","xiaolei":"9352008","address":"","zhonglei":"9352","dalei":"2","type":"ems"}},
{"type":"Feature","geometry":{"type":"Point","coordinates":[114.217973,30.592793]},"properties":{"name":"京昌物流（汉西二路）","xiaolei":"9352008","address":"","zhonglei":"9352","dalei":"2","type":"ems"}},
{"type":"Feature","geometry":{"type":"Point","coordinates":[114.217874,30.592912]},"properties":{"name":"日月鑫物流","xiaolei":"9352008","address":"汉西三路89号","zhonglei":"9352","dalei":"2","type":"ems"}},
{"type":"Feature","geometry":{"type":"Point","coordinates":[114.217791,30.593002]},"properties":{"name":"联创方圆物流","xiaolei":"9352008","address":"古田四路","zhonglei":"9352","dalei":"2","type":"ems"}},
{"type":"Feature","geometry":{"type":"Point","coordinates":[114.216875,30.607418]},"properties":{"name":"圆通速递（东方现代花园东南）","xiaolei":"9352008","address":"汉西二路云鹤二村11附11","zhonglei":"9352","dalei":"2","type":"ems"}},
{"type":"Feature","geometry":{"type":"Point","coordinates":[114.242023,30.584564]},"properties":{"name":"韵达快运（宝丰汉西服务点）","xiaolei":"9352008","address":"","zhonglei":"9352","dalei":"2","type":"ems"}},
{"type":"Feature","geometry":{"type":"Point","coordinates":[114.243038,30.585547]},"properties":{"name":"顺丰速运（城发大厦南）","xiaolei":"9352008","address":"建设大道318号","zhonglei":"9352","dalei":"2","type":"ems"}},
{"type":"Feature","geometry":{"type":"Point","coordinates":[114.24791,30.615564]},"properties":{"name":"湖北公路客运（集团）有限公司大地","xiaolei":"9352008","address":"发展大道172号","zhonglei":"9352","dalei":"2","type":"ems"}},
{"type":"Feature","geometry":{"type":"Point","coordinates":[114.208889,30.599494]},"properties":{"name":"德邦（古田四路）","xiaolei":"9352008","address":"古田四路45附9","zhonglei":"9352","dalei":"2","type":"ems"}},
{"type":"Feature","geometry":{"type":"Point","coordinates":[114.204891,30.605013]},"properties":{"name":"申通快递（古田公司）","xiaolei":"9352008","address":"","zhonglei":"9352","dalei":"2","type":"ems"}},
{"type":"Feature","geometry":{"type":"Point","coordinates":[114.197286,30.599528]},"properties":{"name":"湖北省邮政速递物流有限公司（古田","xiaolei":"9352008","address":"","zhonglei":"9352","dalei":"2","type":"ems"}},
{"type":"Feature","geometry":{"type":"Point","coordinates":[114.200749,30.610871]},"properties":{"name":"武汉顺胜佳运物流有限公司","xiaolei":"9352008","address":"长丰大道丰美路特1号","zhonglei":"9352","dalei":"2","type":"ems"}},
{"type":"Feature","geometry":{"type":"Point","coordinates":[114.238507,30.60947]},"properties":{"name":"汇强快递（汉口分拨中心）","xiaolei":"9352008","address":"","zhonglei":"9352","dalei":"2","type":"ems"}},
{"type":"Feature","geometry":{"type":"Point","coordinates":[114.234068,30.608304]},"properties":{"name":"海航天天快递（复兴村营业部）","xiaolei":"9352008","address":"","zhonglei":"9352","dalei":"2","type":"ems"}},
{"type":"Feature","geometry":{"type":"Point","coordinates":[114.232618,30.607915]},"properties":{"name":"韵达快运（复兴新村服务站）","xiaolei":"9352008","address":"","zhonglei":"9352","dalei":"2","type":"ems"}},
{"type":"Feature","geometry":{"type":"Point","coordinates":[114.236547,30.607091]},"properties":{"name":"申通快递（复兴村合作住宅小区南）","xiaolei":"9352008","address":"振兴路12","zhonglei":"9352","dalei":"2","type":"ems"}},
{"type":"Feature","geometry":{"type":"Point","coordinates":[114.126452,30.620072]},"properties":{"name":"齐川物流（东西湖大道辅路）","xiaolei":"9352008","address":"舵落口大市场26区7栋42号","zhonglei":"9352","dalei":"2","type":"ems"}},
{"type":"Feature","geometry":{"type":"Point","coordinates":[114.138753,30.62643]},"properties":{"name":"全峰快递","xiaolei":"9352008","address":"","zhonglei":"9352","dalei":"2","type":"ems"}},
{"type":"Feature","geometry":{"type":"Point","coordinates":[114.141552,30.628361]},"properties":{"name":"明杰通达物流","xiaolei":"9352008","address":"","zhonglei":"9352","dalei":"2","type":"ems"}},
{"type":"Feature","geometry":{"type":"Point","coordinates":[114.143561,30.621769]},"properties":{"name":"圆通速递（开屏巷）","xiaolei":"9352008","address":"开屏巷74","zhonglei":"9352","dalei":"2","type":"ems"}},
{"type":"Feature","geometry":{"type":"Point","coordinates":[114.245626,30.618702]},"properties":{"name":"湖北省邮政速递物流有限公司（金家","xiaolei":"9352008","address":"","zhonglei":"9352","dalei":"2","type":"ems"}},
{"type":"Feature","geometry":{"type":"Point","coordinates":[114.248313,30.634665]},"properties":{"name":"杨汊湖中通","xiaolei":"9352008","address":"姑嫂树","zhonglei":"9352","dalei":"2","type":"ems"}},
{"type":"Feature","geometry":{"type":"Point","coordinates":[114.242264,30.63319]},"properties":{"name":"武汉永旺物流有限公司","xiaolei":"9352008","address":"新湾三路","zhonglei":"9352","dalei":"2","type":"ems"}},
{"type":"Feature","geometry":{"type":"Point","coordinates":[114.242969,30.630467]},"properties":{"name":"武汉市万程物流有限公司","xiaolei":"9352008","address":"江汉开发区对面常青五路与新湾三路","zhonglei":"9352","dalei":"2","type":"ems"}},
{"type":"Feature","geometry":{"type":"Point","coordinates":[114.239155,30.630827]},"properties":{"name":"祥宇航物流","xiaolei":"9352008","address":"","zhonglei":"9352","dalei":"2","type":"ems"}},
{"type":"Feature","geometry":{"type":"Point","coordinates":[114.239714,30.630979]},"properties":{"name":"德邦（长港路）","xiaolei":"9352008","address":"长港路88号","zhonglei":"9352","dalei":"2","type":"ems"}},
{"type":"Feature","geometry":{"type":"Point","coordinates":[114.248312,30.629199]},"properties":{"name":"金雁航空货运服务有限责任公司","xiaolei":"9352008","address":"常青三路71","zhonglei":"9352","dalei":"2","type":"ems"}},
{"type":"Feature","geometry":{"type":"Point","coordinates":[114.246377,30.628747]},"properties":{"name":"乘风快货","xiaolei":"9352008","address":"常青三路59","zhonglei":"9352","dalei":"2","type":"ems"}},
{"type":"Feature","geometry":{"type":"Point","coordinates":[114.245675,30.628538]},"properties":{"name":"申通快递（杨汊湖分部）","xiaolei":"9352008","address":"","zhonglei":"9352","dalei":"2","type":"ems"}},
{"type":"Feature","geometry":{"type":"Point","coordinates":[114.246434,30.627089]},"properties":{"name":"大道物流（顶琇国际公馆西北）","xiaolei":"9352008","address":"红旗渠路","zhonglei":"9352","dalei":"2","type":"ems"}},
{"type":"Feature","geometry":{"type":"Point","coordinates":[114.239374,30.626595]},"properties":{"name":"武汉宏达澳跃物流","xiaolei":"9352008","address":"","zhonglei":"9352","dalei":"2","type":"ems"}},
{"type":"Feature","geometry":{"type":"Point","coordinates":[114.136055,30.615991]},"properties":{"name":"广利物流园","xiaolei":"9352008","address":"","zhonglei":"9352","dalei":"2","type":"ems"}},
{"type":"Feature","geometry":{"type":"Point","coordinates":[114.133199,30.615637]},"properties":{"name":"汇通公路港营销中心","xiaolei":"9352008","address":"革新大道381号","zhonglei":"9352","dalei":"2","type":"ems"}},
{"type":"Feature","geometry":{"type":"Point","coordinates":[114.130286,30.615121]},"properties":{"name":"武汉光盈运输有限公司","xiaolei":"9352008","address":"","zhonglei":"9352","dalei":"2","type":"ems"}},
{"type":"Feature","geometry":{"type":"Point","coordinates":[114.141079,30.615584]},"properties":{"name":"远大物流（革新大道）","xiaolei":"9352008","address":"","zhonglei":"9352","dalei":"2","type":"ems"}},
{"type":"Feature","geometry":{"type":"Point","coordinates":[114.141492,30.615582]},"properties":{"name":"宏鹏物流","xiaolei":"9352008","address":"","zhonglei":"9352","dalei":"2","type":"ems"}},
{"type":"Feature","geometry":{"type":"Point","coordinates":[114.142039,30.615585]},"properties":{"name":"互通物流","xiaolei":"9352008","address":"","zhonglei":"9352","dalei":"2","type":"ems"}},
{"type":"Feature","geometry":{"type":"Point","coordinates":[114.140298,30.616034]},"properties":{"name":"星达物流","xiaolei":"9352008","address":"吴家山革新大道421号","zhonglei":"9352","dalei":"2","type":"ems"}},
{"type":"Feature","geometry":{"type":"Point","coordinates":[114.129637,30.61507]},"properties":{"name":"武汉方之圆物流","xiaolei":"9352008","address":"","zhonglei":"9352","dalei":"2","type":"ems"}},
{"type":"Feature","geometry":{"type":"Point","coordinates":[114.138905,30.615508]},"properties":{"name":"海航天天快递（革新大道）","xiaolei":"9352008","address":"","zhonglei":"9352","dalei":"2","type":"ems"}},
{"type":"Feature","geometry":{"type":"Point","coordinates":[114.148573,30.620829]},"properties":{"name":"安得物流","xiaolei":"9352008","address":"","zhonglei":"9352","dalei":"2","type":"ems"}},
{"type":"Feature","geometry":{"type":"Point","coordinates":[114.146504,30.620793]},"properties":{"name":"纵横达物流","xiaolei":"9352008","address":"","zhonglei":"9352","dalei":"2","type":"ems"}},
{"type":"Feature","geometry":{"type":"Point","coordinates":[114.182283,30.589054]},"properties":{"name":"武汉宏畅物流市场有限公司","xiaolei":"9352008","address":"","zhonglei":"9352","dalei":"2","type":"ems"}},
{"type":"Feature","geometry":{"type":"Point","coordinates":[114.168581,30.614789]},"properties":{"name":"武汉祥龙三正物流","xiaolei":"9352008","address":"","zhonglei":"9352","dalei":"2","type":"ems"}},
{"type":"Feature","geometry":{"type":"Point","coordinates":[114.169432,30.614655]},"properties":{"name":"创捷平安达物流有限公司（长丰大道","xiaolei":"9352008","address":"长丰大道","zhonglei":"9352","dalei":"2","type":"ems"}},
{"type":"Feature","geometry":{"type":"Point","coordinates":[114.171449,30.614412]},"properties":{"name":"金桥物流","xiaolei":"9352008","address":"长丰大道36号","zhonglei":"9352","dalei":"2","type":"ems"}},
{"type":"Feature","geometry":{"type":"Point","coordinates":[114.172492,30.614268]},"properties":{"name":"永宁龙翔物流","xiaolei":"9352008","address":"","zhonglei":"9352","dalei":"2","type":"ems"}},
{"type":"Feature","geometry":{"type":"Point","coordinates":[114.224021,30.620241]},"properties":{"name":"上海至争物流有限公司武汉天顺分公","xiaolei":"9352008","address":"","zhonglei":"9352","dalei":"2","type":"ems"}},
{"type":"Feature","geometry":{"type":"Point","coordinates":[114.224135,30.620278]},"properties":{"name":"韵达快运（江达路）","xiaolei":"9352008","address":"江达路","zhonglei":"9352","dalei":"2","type":"ems"}},
{"type":"Feature","geometry":{"type":"Point","coordinates":[114.224229,30.620312]},"properties":{"name":"武汉联盟汇平安达物流","xiaolei":"9352008","address":"","zhonglei":"9352","dalei":"2","type":"ems"}},
{"type":"Feature","geometry":{"type":"Point","coordinates":[114.2212,30.619714]},"properties":{"name":"上海卓航物流","xiaolei":"9352008","address":"","zhonglei":"9352","dalei":"2","type":"ems"}},
{"type":"Feature","geometry":{"type":"Point","coordinates":[114.221049,30.619674]},"properties":{"name":"立达物流","xiaolei":"9352008","address":"","zhonglei":"9352","dalei":"2","type":"ems"}},
{"type":"Feature","geometry":{"type":"Point","coordinates":[114.175241,30.598453]},"properties":{"name":"辉辉物流","xiaolei":"9352008","address":"","zhonglei":"9352","dalei":"2","type":"ems"}},
{"type":"Feature","geometry":{"type":"Point","coordinates":[114.174345,30.594623]},"properties":{"name":"武汉鑫升华物流有限公司","xiaolei":"9352008","address":"","zhonglei":"9352","dalei":"2","type":"ems"}},
{"type":"Feature","geometry":{"type":"Point","coordinates":[114.184013,30.616593]},"properties":{"name":"韵达快运（长风路）","xiaolei":"9352008","address":"","zhonglei":"9352","dalei":"2","type":"ems"}},
{"type":"Feature","geometry":{"type":"Point","coordinates":[114.130759,30.619474]},"properties":{"name":"佳吉快运（东西湖大道辅路）","xiaolei":"9352008","address":"东西湖大道6968号","zhonglei":"9352","dalei":"2","type":"ems"}},
{"type":"Feature","geometry":{"type":"Point","coordinates":[114.232654,30.613669]},"properties":{"name":"百世汇通","xiaolei":"9352008","address":"","zhonglei":"9352","dalei":"2","type":"ems"}},
{"type":"Feature","geometry":{"type":"Point","coordinates":[114.196416,30.592446]},"properties":{"name":"能达速递（古田路）","xiaolei":"9352008","address":"","zhonglei":"9352","dalei":"2","type":"ems"}},
{"type":"Feature","geometry":{"type":"Point","coordinates":[114.164504,30.634498]},"properties":{"name":"武汉牧业园生鲜快运有限公司","xiaolei":"9352008","address":"金山大道1292号","zhonglei":"9352","dalei":"2","type":"ems"}},
{"type":"Feature","geometry":{"type":"Point","coordinates":[114.140741,30.612009]},"properties":{"name":"海天物流园","xiaolei":"9352008","address":"","zhonglei":"9352","dalei":"2","type":"ems"}},
{"type":"Feature","geometry":{"type":"Point","coordinates":[114.140746,30.611895]},"properties":{"name":"奔腾物流有限公司","xiaolei":"9352008","address":"","zhonglei":"9352","dalei":"2","type":"ems"}},
{"type":"Feature","geometry":{"type":"Point","coordinates":[114.134391,30.658646]},"properties":{"name":"武汉诚迅达物流有限公司","xiaolei":"9352008","address":"","zhonglei":"9352","dalei":"2","type":"ems"}},
{"type":"Feature","geometry":{"type":"Point","coordinates":[114.208666,30.660627]},"properties":{"name":"中通速递市场部","xiaolei":"9352008","address":"","zhonglei":"9352","dalei":"2","type":"ems"}},
{"type":"Feature","geometry":{"type":"Point","coordinates":[114.146182,30.628408]},"properties":{"name":"伊利冰淇淋（吴家山配送中心）","xiaolei":"9352008","address":"","zhonglei":"9352","dalei":"2","type":"ems"}},
{"type":"Feature","geometry":{"type":"Point","coordinates":[114.187771,30.615589]},"properties":{"name":"上海云清快运（武汉办事处）","xiaolei":"9352008","address":"长丰万国汽配城西区1号楼A10号","zhonglei":"9352","dalei":"2","type":"ems"}},
{"type":"Feature","geometry":{"type":"Point","coordinates":[114.186012,30.591737]},"properties":{"name":"能达速递（古词路）","xiaolei":"9352008","address":"","zhonglei":"9352","dalei":"2","type":"ems"}},
{"type":"Feature","geometry":{"type":"Point","coordinates":[114.174037,30.606727]},"properties":{"name":"武昌火车站行包托运处","xiaolei":"9352008","address":"","zhonglei":"9352","dalei":"2","type":"ems"}},
{"type":"Feature","geometry":{"type":"Point","coordinates":[114.174032,30.606727]},"properties":{"name":"中原物流（联工路）","xiaolei":"9352008","address":"","zhonglei":"9352","dalei":"2","type":"ems"}},
{"type":"Feature","geometry":{"type":"Point","coordinates":[114.237102,30.615545]},"properties":{"name":"恒利物流","xiaolei":"9352008","address":"","zhonglei":"9352","dalei":"2","type":"ems"}},
{"type":"Feature","geometry":{"type":"Point","coordinates":[114.136095,30.617186]},"properties":{"name":"武汉市大川物流有限公司（四明路）","xiaolei":"9352008","address":"","zhonglei":"9352","dalei":"2","type":"ems"}},
{"type":"Feature","geometry":{"type":"Point","coordinates":[114.128074,30.608983]},"properties":{"name":"武汉市大道物流有限责任公司","xiaolei":"9352008","address":"","zhonglei":"9352","dalei":"2","type":"ems"}},
{"type":"Feature","geometry":{"type":"Point","coordinates":[114.166664,30.634044]},"properties":{"name":"武汉京昌物流有限公司","xiaolei":"9352008","address":"","zhonglei":"9352","dalei":"2","type":"ems"}},
{"type":"Feature","geometry":{"type":"Point","coordinates":[114.166406,30.634427]},"properties":{"name":"京昌物流（新桥卫生室南）","xiaolei":"9352008","address":"","zhonglei":"9352","dalei":"2","type":"ems"}},
{"type":"Feature","geometry":{"type":"Point","coordinates":[114.218717,30.651985]},"properties":{"name":"圆通速递（马池路）","xiaolei":"9352008","address":"","zhonglei":"9352","dalei":"2","type":"ems"}},
{"type":"Feature","geometry":{"type":"Point","coordinates":[114.182702,30.611798]},"properties":{"name":"湖北汽车运输总公司","xiaolei":"9352008","address":"","zhonglei":"9352","dalei":"2","type":"ems"}},
{"type":"Feature","geometry":{"type":"Point","coordinates":[114.190441,30.616197]},"properties":{"name":"湖北新华书店集团公司物流中心","xiaolei":"9352008","address":"","zhonglei":"9352","dalei":"2","type":"ems"}},
{"type":"Feature","geometry":{"type":"Point","coordinates":[114.146909,30.613137]},"properties":{"name":"非凡物流","xiaolei":"9352008","address":"","zhonglei":"9352","dalei":"2","type":"ems"}},
{"type":"Feature","geometry":{"type":"Point","coordinates":[114.149948,30.613268]},"properties":{"name":"大道物流舵落口分部","xiaolei":"9352008","address":"","zhonglei":"9352","dalei":"2","type":"ems"}},
{"type":"Feature","geometry":{"type":"Point","coordinates":[114.246591,30.615176]},"properties":{"name":"韵达快运武汉北湖服务站","xiaolei":"9352008","address":"","zhonglei":"9352","dalei":"2","type":"ems"}},
{"type":"Feature","geometry":{"type":"Point","coordinates":[114.246591,30.615176]},"properties":{"name":"邦尼国际货运代理公司","xiaolei":"9352008","address":"","zhonglei":"9352","dalei":"2","type":"ems"}},
{"type":"Feature","geometry":{"type":"Point","coordinates":[114.130046,30.617199]},"properties":{"name":"武汉市欣宇达运输公司","xiaolei":"9352008","address":"","zhonglei":"9352","dalei":"2","type":"ems"}},
{"type":"Feature","geometry":{"type":"Point","coordinates":[114.151903,30.61267]},"properties":{"name":"欣欣物流","xiaolei":"9352008","address":"","zhonglei":"9352","dalei":"2","type":"ems"}},
{"type":"Feature","geometry":{"type":"Point","coordinates":[114.227098,30.603974]},"properties":{"name":"武汉市大道物流公司","xiaolei":"9352008","address":"","zhonglei":"9352","dalei":"2","type":"ems"}},
{"type":"Feature","geometry":{"type":"Point","coordinates":[114.19133,30.630885]},"properties":{"name":"穗佳物流","xiaolei":"9352008","address":"","zhonglei":"9352","dalei":"2","type":"ems"}},
{"type":"Feature","geometry":{"type":"Point","coordinates":[114.131615,30.616897]},"properties":{"name":"东西湖中通","xiaolei":"9352008","address":"","zhonglei":"9352","dalei":"2","type":"ems"}},
{"type":"Feature","geometry":{"type":"Point","coordinates":[114.237889,30.616852]},"properties":{"name":"时代汇通快递服务公司","xiaolei":"9352008","address":"","zhonglei":"9352","dalei":"2","type":"ems"}},
{"type":"Feature","geometry":{"type":"Point","coordinates":[114.230416,30.627839]},"properties":{"name":"武汉中航联物流有限公司","xiaolei":"9352008","address":"江兴路69号","zhonglei":"9352","dalei":"2","type":"ems"}},
{"type":"Feature","geometry":{"type":"Point","coordinates":[114.146346,30.622114]},"properties":{"name":"新海新干线物流","xiaolei":"9352008","address":"广富巷38","zhonglei":"9352","dalei":"2","type":"ems"}},
{"type":"Feature","geometry":{"type":"Point","coordinates":[114.181746,30.597279]},"properties":{"name":"金甬星物流公司","xiaolei":"9352008","address":"古田路20","zhonglei":"9352","dalei":"2","type":"ems"}},
{"type":"Feature","geometry":{"type":"Point","coordinates":[114.12767,30.621896]},"properties":{"name":"中百物流配送公司（１号门）","xiaolei":"9352008","address":"六顺路40","zhonglei":"9352","dalei":"2","type":"ems"}},
{"type":"Feature","geometry":{"type":"Point","coordinates":[114.151939,30.613365]},"properties":{"name":"湖北鑫老贺物流有限公司","xiaolei":"9352008","address":"","zhonglei":"9352","dalei":"2","type":"ems"}},
{"type":"Feature","geometry":{"type":"Point","coordinates":[114.162819,30.614774]},"properties":{"name":"西大门物流中心（东门）","xiaolei":"9352008","address":"长丰大道1号","zhonglei":"9352","dalei":"2","type":"ems"}},
{"type":"Feature","geometry":{"type":"Point","coordinates":[114.135719,30.620802]},"properties":{"name":"武汉鑫武物流有限公司","xiaolei":"9352008","address":"四明路121","zhonglei":"9352","dalei":"2","type":"ems"}},
{"type":"Feature","geometry":{"type":"Point","coordinates":[114.229735,30.62564]},"properties":{"name":"武汉晟联物流有限公司","xiaolei":"9352008","address":"江兴路8附2","zhonglei":"9352","dalei":"2","type":"ems"}},
{"type":"Feature","geometry":{"type":"Point","coordinates":[114.223424,30.624464]},"properties":{"name":"上海天天快快递公司武汉分公司","xiaolei":"9352008","address":"江兴路22","zhonglei":"9352","dalei":"2","type":"ems"}},
{"type":"Feature","geometry":{"type":"Point","coordinates":[114.150182,30.614163]},"properties":{"name":"宏大物流","xiaolei":"9352008","address":"","zhonglei":"9352","dalei":"2","type":"ems"}},
{"type":"Feature","geometry":{"type":"Point","coordinates":[114.151702,30.613375]},"properties":{"name":"壹加壹物流","xiaolei":"9352008","address":"","zhonglei":"9352","dalei":"2","type":"ems"}},
{"type":"Feature","geometry":{"type":"Point","coordinates":[114.150196,30.613708]},"properties":{"name":"天地亿般物流有限公司","xiaolei":"9352008","address":"","zhonglei":"9352","dalei":"2","type":"ems"}},
{"type":"Feature","geometry":{"type":"Point","coordinates":[114.223827,30.598895]},"properties":{"name":"汉西储运","xiaolei":"9352008","address":"汉西北路76","zhonglei":"9352","dalei":"2","type":"ems"}},
{"type":"Feature","geometry":{"type":"Point","coordinates":[114.172798,30.609659]},"properties":{"name":"三江华宇物流古田分公司","xiaolei":"9352008","address":"工农路148号","zhonglei":"9352","dalei":"2","type":"ems"}},
{"type":"Feature","geometry":{"type":"Point","coordinates":[114.239229,30.614741]},"properties":{"name":"韵达快运（新汉口火车站店）","xiaolei":"9352008","address":"","zhonglei":"9352","dalei":"2","type":"ems"}},
{"type":"Feature","geometry":{"type":"Point","coordinates":[114.17024,30.614414]},"properties":{"name":"锦虹物流园","xiaolei":"9352008","address":"长丰大道28号","zhonglei":"9352","dalei":"2","type":"ems"}},
{"type":"Feature","geometry":{"type":"Point","coordinates":[114.132955,30.606105]},"properties":{"name":"中远物流（物流基地）","xiaolei":"9352008","address":"五环路20","zhonglei":"9352","dalei":"2","type":"ems"}},
{"type":"Feature","geometry":{"type":"Point","coordinates":[114.204627,30.589633]},"properties":{"name":"宇顺物流","xiaolei":"9352008","address":"古田四路9附8","zhonglei":"9352","dalei":"2","type":"ems"}},
{"type":"Feature","geometry":{"type":"Point","coordinates":[114.135173,30.61517]},"properties":{"name":"四方物流","xiaolei":"9352008","address":"革新大道578","zhonglei":"9352","dalei":"2","type":"ems"}},
{"type":"Feature","geometry":{"type":"Point","coordinates":[114.139476,30.619641]},"properties":{"name":"武汉市新形物流","xiaolei":"9352008","address":"东西湖大道7058","zhonglei":"9352","dalei":"2","type":"ems"}},
{"type":"Feature","geometry":{"type":"Point","coordinates":[114.231071,30.623241]},"properties":{"name":"武汉帝华诚物流公司","xiaolei":"9352008","address":"江达路1附1","zhonglei":"9352","dalei":"2","type":"ems"}},
{"type":"Feature","geometry":{"type":"Point","coordinates":[114.223424,30.624464]},"properties":{"name":"武汉汇通物流有限公司","xiaolei":"9352008","address":"江兴路22","zhonglei":"9352","dalei":"2","type":"ems"}},
{"type":"Feature","geometry":{"type":"Point","coordinates":[114.193153,30.636343]},"properties":{"name":"武汉烟草物流配送中心","xiaolei":"9352008","address":"","zhonglei":"9352","dalei":"2","type":"ems"}},
{"type":"Feature","geometry":{"type":"Point","coordinates":[114.192362,30.617326]},"properties":{"name":"新华书店集团公司物流中心（东门）","xiaolei":"9352008","address":"","zhonglei":"9352","dalei":"2","type":"ems"}},
{"type":"Feature","geometry":{"type":"Point","coordinates":[114.238907,30.614127]},"properties":{"name":"顺丰速运","xiaolei":"9352008","address":"","zhonglei":"9352","dalei":"2","type":"ems"}},
{"type":"Feature","geometry":{"type":"Point","coordinates":[114.23574,30.615086]},"properties":{"name":"三江华宇物流公司常码头分公司","xiaolei":"9352008","address":"","zhonglei":"9352","dalei":"2","type":"ems"}},
{"type":"Feature","geometry":{"type":"Point","coordinates":[114.146729,30.613113]},"properties":{"name":"鄂南永兴快运","xiaolei":"9352008","address":"","zhonglei":"9352","dalei":"2","type":"ems"}},
{"type":"Feature","geometry":{"type":"Point","coordinates":[114.147888,30.619217]},"properties":{"name":"武汉舵落口物流有限公司","xiaolei":"9352008","address":"","zhonglei":"9352","dalei":"2","type":"ems"}},
{"type":"Feature","geometry":{"type":"Point","coordinates":[114.130905,30.619235]},"properties":{"name":"德邦物流（东西湖大道门市部）","xiaolei":"9352008","address":"","zhonglei":"9352","dalei":"2","type":"ems"}},
{"type":"Feature","geometry":{"type":"Point","coordinates":[114.292234,30.59568]},"properties":{"name":"武汉市港埠运输有限公司","xiaolei":"9352008","address":"车站路119","zhonglei":"9352","dalei":"2","type":"ems"}},
{"type":"Feature","geometry":{"type":"Point","coordinates":[114.301831,30.598248]},"properties":{"name":"武汉长燃运输公司","xiaolei":"9352008","address":"三阳路1","zhonglei":"9352","dalei":"2","type":"ems"}},
{"type":"Feature","geometry":{"type":"Point","coordinates":[114.260673,30.59571]},"properties":{"name":"同成广场邮政服务点","xiaolei":"9352008","address":"万松园路281","zhonglei":"9352","dalei":"2","type":"ems"}},
{"type":"Feature","geometry":{"type":"Point","coordinates":[114.273754,30.592064]},"properties":{"name":"武汉安捷国际货运有限公司","xiaolei":"9352008","address":"江汉北路34号九运大厦8层D801","zhonglei":"9352","dalei":"2","type":"ems"}},
{"type":"Feature","geometry":{"type":"Point","coordinates":[114.273669,30.59205]},"properties":{"name":"远洋货运","xiaolei":"9352008","address":"江汉北路34号九运大厦B182","zhonglei":"9352","dalei":"2","type":"ems"}},
{"type":"Feature","geometry":{"type":"Point","coordinates":[114.273669,30.59205]},"properties":{"name":"佳顺物流","xiaolei":"9352008","address":"江汉北路34号九运大厦B213","zhonglei":"9352","dalei":"2","type":"ems"}},
{"type":"Feature","geometry":{"type":"Point","coordinates":[114.273669,30.59205]},"properties":{"name":"久盛物流","xiaolei":"9352008","address":"江汉北路34号九运大厦B216","zhonglei":"9352","dalei":"2","type":"ems"}},
{"type":"Feature","geometry":{"type":"Point","coordinates":[114.268546,30.595293]},"properties":{"name":"中海宏达国际储运（货运代理）有限","xiaolei":"9352008","address":"新华路316号良友大厦6层","zhonglei":"9352","dalei":"2","type":"ems"}},
{"type":"Feature","geometry":{"type":"Point","coordinates":[114.268546,30.595293]},"properties":{"name":"金运达国际物流有限公司武汉分公司","xiaolei":"9352008","address":"新华路316号良友大厦7层","zhonglei":"9352","dalei":"2","type":"ems"}},
{"type":"Feature","geometry":{"type":"Point","coordinates":[114.268546,30.595293]},"properties":{"name":"熙可物流有限公司武汉分公司","xiaolei":"9352008","address":"新华路316号良友大厦14层","zhonglei":"9352","dalei":"2","type":"ems"}},
{"type":"Feature","geometry":{"type":"Point","coordinates":[114.268591,30.594898]},"properties":{"name":"新宜储运有限公司武汉办事处","xiaolei":"9352008","address":"新华路314号登月大厦","zhonglei":"9352","dalei":"2","type":"ems"}},
{"type":"Feature","geometry":{"type":"Point","coordinates":[114.271271,30.598191]},"properties":{"name":"武汉中贸发国际货运代理有限公司","xiaolei":"9352008","address":"云林街31号中环大厦B座505","zhonglei":"9352","dalei":"2","type":"ems"}},
{"type":"Feature","geometry":{"type":"Point","coordinates":[114.271271,30.598191]},"properties":{"name":"华展国际物流有限公司武汉办事处","xiaolei":"9352008","address":"云林街31号中环大厦B座23层","zhonglei":"9352","dalei":"2","type":"ems"}},
{"type":"Feature","geometry":{"type":"Point","coordinates":[114.268343,30.599212]},"properties":{"name":"武汉市中海物流有限公司","xiaolei":"9352008","address":"建设大道618号武银大厦18层","zhonglei":"9352","dalei":"2","type":"ems"}},
{"type":"Feature","geometry":{"type":"Point","coordinates":[114.292882,30.583798]},"properties":{"name":"民生国际货物运输代理公司武汉分公","xiaolei":"9352008","address":"青岛路7号国际青年大厦10层","zhonglei":"9352","dalei":"2","type":"ems"}},
{"type":"Feature","geometry":{"type":"Point","coordinates":[114.250109,30.589774]},"properties":{"name":"南洋国际货运代理有限公司","xiaolei":"9352008","address":"航空路15附69号明珠大厦A座","zhonglei":"9352","dalei":"2","type":"ems"}},
{"type":"Feature","geometry":{"type":"Point","coordinates":[114.267494,30.59455]},"properties":{"name":"中大德威国际货运有限公司","xiaolei":"9352008","address":"新华路151号阳光新天地27层2701","zhonglei":"9352","dalei":"2","type":"ems"}},
{"type":"Feature","geometry":{"type":"Point","coordinates":[114.282218,30.603635]},"properties":{"name":"武汉市同城快递有限公司","xiaolei":"9352008","address":"香港路121号安和九龙阁C座15层","zhonglei":"9352","dalei":"2","type":"ems"}},
{"type":"Feature","geometry":{"type":"Point","coordinates":[114.294099,30.593466]},"properties":{"name":"锦廷国际货运代理有限公司武汉分公","xiaolei":"9352008","address":"中山大道1166号金源世界中心A座19层1903","zhonglei":"9352","dalei":"2","type":"ems"}},
{"type":"Feature","geometry":{"type":"Point","coordinates":[114.283471,30.604011]},"properties":{"name":"武汉中远物流有限公司","xiaolei":"9352008","address":"香港路145号远洋大厦8层","zhonglei":"9352","dalei":"2","type":"ems"}},
{"type":"Feature","geometry":{"type":"Point","coordinates":[114.283471,30.604011]},"properties":{"name":"武汉中远国际货运有限公司","xiaolei":"9352008","address":"香港路145号远洋大厦9层","zhonglei":"9352","dalei":"2","type":"ems"}},
{"type":"Feature","geometry":{"type":"Point","coordinates":[114.283471,30.604011]},"properties":{"name":"中远集运亚太部武汉分部","xiaolei":"9352008","address":"香港路145号远洋大厦9层","zhonglei":"9352","dalei":"2","type":"ems"}},
{"type":"Feature","geometry":{"type":"Point","coordinates":[114.350924,30.615787]},"properties":{"name":"佳吉快运（德平路）","xiaolei":"9352008","address":"德平路","zhonglei":"9352","dalei":"2","type":"ems"}},
{"type":"Feature","geometry":{"type":"Point","coordinates":[114.373575,30.636497]},"properties":{"name":"中江物流（南区）","xiaolei":"9352008","address":"建设四路2","zhonglei":"9352","dalei":"2","type":"ems"}},
{"type":"Feature","geometry":{"type":"Point","coordinates":[114.371827,30.635216]},"properties":{"name":"武钢（集团）储运公司物流延伸库","xiaolei":"9352008","address":"建设四路2","zhonglei":"9352","dalei":"2","type":"ems"}},
{"type":"Feature","geometry":{"type":"Point","coordinates":[114.373562,30.617441]},"properties":{"name":"武铁快运","xiaolei":"9352008","address":"祥丰路5","zhonglei":"9352","dalei":"2","type":"ems"}},
{"type":"Feature","geometry":{"type":"Point","coordinates":[114.333109,30.590596]},"properties":{"name":"阳光货运","xiaolei":"9352008","address":"徐家棚团结路15号","zhonglei":"9352","dalei":"2","type":"ems"}},
{"type":"Feature","geometry":{"type":"Point","coordinates":[114.335782,30.586399]},"properties":{"name":"武汉汉石石油运输有限公司","xiaolei":"9352008","address":"","zhonglei":"9352","dalei":"2","type":"ems"}},
{"type":"Feature","geometry":{"type":"Point","coordinates":[114.369419,30.634677]},"properties":{"name":"武汉铁路局八大家站货运室","xiaolei":"9352008","address":"建设三路1","zhonglei":"9352","dalei":"2","type":"ems"}},
{"type":"Feature","geometry":{"type":"Point","coordinates":[114.341857,30.590836]},"properties":{"name":"金海星船务","xiaolei":"9352008","address":"徐东路7号凯旋门广场A座20层2005","zhonglei":"9352","dalei":"2","type":"ems"}},
{"type":"Feature","geometry":{"type":"Point","coordinates":[114.326456,30.649932]},"properties":{"name":"湖北省商业仓储运输公司运输分公司","xiaolei":"9352008","address":"解放大道2022","zhonglei":"9352","dalei":"2","type":"ems"}},
{"type":"Feature","geometry":{"type":"Point","coordinates":[114.326456,30.649932]},"properties":{"name":"武汉世通物流股份有限公司（丹水池","xiaolei":"9352008","address":"解放大道2022","zhonglei":"9352","dalei":"2","type":"ems"}},
{"type":"Feature","geometry":{"type":"Point","coordinates":[114.326399,30.649731]},"properties":{"name":"中储发展股份有限公司汉口分公司６","xiaolei":"9352008","address":"解放大道2020号","zhonglei":"9352","dalei":"2","type":"ems"}},
{"type":"Feature","geometry":{"type":"Point","coordinates":[114.326283,30.649376]},"properties":{"name":"万达回头车货运中心","xiaolei":"9352008","address":"解放大道2012","zhonglei":"9352","dalei":"2","type":"ems"}},
{"type":"Feature","geometry":{"type":"Point","coordinates":[114.326041,30.64886]},"properties":{"name":"武汉市顺诚货运","xiaolei":"9352008","address":"","zhonglei":"9352","dalei":"2","type":"ems"}},
{"type":"Feature","geometry":{"type":"Point","coordinates":[114.32569,30.64792]},"properties":{"name":"弘信货运","xiaolei":"9352008","address":"","zhonglei":"9352","dalei":"2","type":"ems"}},
{"type":"Feature","geometry":{"type":"Point","coordinates":[114.325666,30.647864]},"properties":{"name":"武汉方明运输有限公司","xiaolei":"9352008","address":"","zhonglei":"9352","dalei":"2","type":"ems"}},
{"type":"Feature","geometry":{"type":"Point","coordinates":[114.325469,30.64746]},"properties":{"name":"武汉市江岸区运输五公司","xiaolei":"9352008","address":"解放大道1984号","zhonglei":"9352","dalei":"2","type":"ems"}},
{"type":"Feature","geometry":{"type":"Point","coordinates":[114.307548,30.630238]},"properties":{"name":"中国物资储运武汉江北公司","xiaolei":"9352008","address":"二七路224","zhonglei":"9352","dalei":"2","type":"ems"}},
{"type":"Feature","geometry":{"type":"Point","coordinates":[114.32548,30.649135]},"properties":{"name":"巍汉运输","xiaolei":"9352008","address":"解放大道2641号","zhonglei":"9352","dalei":"2","type":"ems"}},
{"type":"Feature","geometry":{"type":"Point","coordinates":[114.319736,30.649862]},"properties":{"name":"武汉畅鑫物流发展有限责任公司","xiaolei":"9352008","address":"百步亭16号","zhonglei":"9352","dalei":"2","type":"ems"}},
{"type":"Feature","geometry":{"type":"Point","coordinates":[114.256187,30.637317]},"properties":{"name":"武汉鸿昌货运有限公司","xiaolei":"9352008","address":"罗家嘴路12号","zhonglei":"9352","dalei":"2","type":"ems"}},
{"type":"Feature","geometry":{"type":"Point","coordinates":[114.256183,30.637322]},"properties":{"name":"易通交通信息发展有限公司北京物流","xiaolei":"9352008","address":"","zhonglei":"9352","dalei":"2","type":"ems"}},
{"type":"Feature","geometry":{"type":"Point","coordinates":[114.253044,30.620282]},"properties":{"name":"深圳市华铁物流有限公司","xiaolei":"9352008","address":"金墩路15号财神广场写字楼10层A32","zhonglei":"9352","dalei":"2","type":"ems"}},
{"type":"Feature","geometry":{"type":"Point","coordinates":[114.324849,30.643592]},"properties":{"name":"武汉市兴荣汽车运输有限公司","xiaolei":"9352008","address":"丹金路3","zhonglei":"9352","dalei":"2","type":"ems"}},
{"type":"Feature","geometry":{"type":"Point","coordinates":[114.277138,30.630109]},"properties":{"name":"运敦豪国际航空快件有限公司","xiaolei":"9352008","address":"石桥一路18号江岸经济开发区石桥工业","zhonglei":"9352","dalei":"2","type":"ems"}},
{"type":"Feature","geometry":{"type":"Point","coordinates":[114.270006,30.617825]},"properties":{"name":"诚功华人物流有限公司","xiaolei":"9352008","address":"香江里27附2","zhonglei":"9352","dalei":"2","type":"ems"}},
{"type":"Feature","geometry":{"type":"Point","coordinates":[114.300308,30.599778]},"properties":{"name":"中国物资储运武汉公司","xiaolei":"9352008","address":"","zhonglei":"9352","dalei":"2","type":"ems"}},
{"type":"Feature","geometry":{"type":"Point","coordinates":[114.302921,30.604333]},"properties":{"name":"武汉铁路局武汉中力物流公司","xiaolei":"9352008","address":"胜利街325","zhonglei":"9352","dalei":"2","type":"ems"}},
{"type":"Feature","geometry":{"type":"Point","coordinates":[114.302921,30.604333]},"properties":{"name":"中铁国际货运代理有限责任公司武汉","xiaolei":"9352008","address":"胜利街325","zhonglei":"9352","dalei":"2","type":"ems"}},
{"type":"Feature","geometry":{"type":"Point","coordinates":[114.284953,30.607867]},"properties":{"name":"当代南洋国际货运代理有限公司","xiaolei":"9352008","address":"澳门路232号金冠大厦517","zhonglei":"9352","dalei":"2","type":"ems"}},
{"type":"Feature","geometry":{"type":"Point","coordinates":[114.260644,30.609237]},"properties":{"name":"中铁快运（北湖营业部）","xiaolei":"9352008","address":"马场角路289附5","zhonglei":"9352","dalei":"2","type":"ems"}},
{"type":"Feature","geometry":{"type":"Point","coordinates":[114.267297,30.606712]},"properties":{"name":"佳吉快运（长江日报路）","xiaolei":"9352008","address":"长江日报路17","zhonglei":"9352","dalei":"2","type":"ems"}},
{"type":"Feature","geometry":{"type":"Point","coordinates":[114.251702,30.592701]},"properties":{"name":"中外运湖北有限责任公司","xiaolei":"9352008","address":"建设大道611号建设大厦","zhonglei":"9352","dalei":"2","type":"ems"}},
{"type":"Feature","geometry":{"type":"Point","coordinates":[114.265361,30.599145]},"properties":{"name":"东方海外货柜航运（中国）有限公司","xiaolei":"9352008","address":"建设大道709号建银大厦27层","zhonglei":"9352","dalei":"2","type":"ems"}},
{"type":"Feature","geometry":{"type":"Point","coordinates":[114.275809,30.60461]},"properties":{"name":"武汉金仓货运代理有限公司","xiaolei":"9352008","address":"建设大道847号瑞通广场8层","zhonglei":"9352","dalei":"2","type":"ems"}},
{"type":"Feature","geometry":{"type":"Point","coordinates":[114.275809,30.60461]},"properties":{"name":"金昌国际货运有限公司武汉办事处","xiaolei":"9352008","address":"建设大道847号瑞通广场8层","zhonglei":"9352","dalei":"2","type":"ems"}},
{"type":"Feature","geometry":{"type":"Point","coordinates":[114.266792,30.614805]},"properties":{"name":"武汉市升阳物流有限责任公司","xiaolei":"9352008","address":"唐家墩路46号阳光大厦1201","zhonglei":"9352","dalei":"2","type":"ems"}},
{"type":"Feature","geometry":{"type":"Point","coordinates":[114.275809,30.60461]},"properties":{"name":"武汉诚通物流有限公司（建设大道）","xiaolei":"9352008","address":"建设大道847号瑞通广场10层","zhonglei":"9352","dalei":"2","type":"ems"}},
{"type":"Feature","geometry":{"type":"Point","coordinates":[114.253944,30.599542]},"properties":{"name":"武汉市汉口大型物流有限公司","xiaolei":"9352008","address":"青年路239附3","zhonglei":"9352","dalei":"2","type":"ems"}},
{"type":"Feature","geometry":{"type":"Point","coordinates":[114.323644,30.659488]},"properties":{"name":"超凡物流","xiaolei":"9352008","address":"","zhonglei":"9352","dalei":"2","type":"ems"}},
{"type":"Feature","geometry":{"type":"Point","coordinates":[114.255993,30.661636]},"properties":{"name":"武汉启新汽车运输有限公司（金银潭","xiaolei":"9352008","address":"","zhonglei":"9352","dalei":"2","type":"ems"}},
{"type":"Feature","geometry":{"type":"Point","coordinates":[114.285641,30.598546]},"properties":{"name":"二航物流","xiaolei":"9352008","address":"香港路23","zhonglei":"9352","dalei":"2","type":"ems"}},
{"type":"Feature","geometry":{"type":"Point","coordinates":[114.275758,30.610637]},"properties":{"name":"武汉市江岸区运输六公司","xiaolei":"9352008","address":"香港路248","zhonglei":"9352","dalei":"2","type":"ems"}},
{"type":"Feature","geometry":{"type":"Point","coordinates":[114.272657,30.606107]},"properties":{"name":"武汉长江快递股份有限公司","xiaolei":"9352008","address":"长江日报路2附4","zhonglei":"9352","dalei":"2","type":"ems"}},
{"type":"Feature","geometry":{"type":"Point","coordinates":[114.265691,30.612519]},"properties":{"name":"宇鑫物流（唐家墩路）","xiaolei":"9352008","address":"唐家墩路18","zhonglei":"9352","dalei":"2","type":"ems"}},
{"type":"Feature","geometry":{"type":"Point","coordinates":[114.370372,30.633642]},"properties":{"name":"三江华宇物流有限公司青山分公司","xiaolei":"9352008","address":"建设三路9","zhonglei":"9352","dalei":"2","type":"ems"}},
{"type":"Feature","geometry":{"type":"Point","coordinates":[114.2575,30.608458]},"properties":{"name":"德邦物流（马场角路）","xiaolei":"9352008","address":"马场角路47附9","zhonglei":"9352","dalei":"2","type":"ems"}},
{"type":"Feature","geometry":{"type":"Point","coordinates":[114.255843,30.616092]},"properties":{"name":"佳运捷汉口武昌站行包快运代办点","xiaolei":"9352008","address":"马场路278","zhonglei":"9352","dalei":"2","type":"ems"}},
{"type":"Feature","geometry":{"type":"Point","coordinates":[114.253961,30.628061]},"properties":{"name":"奇安通物流","xiaolei":"9352008","address":"红旗渠路172附6","zhonglei":"9352","dalei":"2","type":"ems"}},
{"type":"Feature","geometry":{"type":"Point","coordinates":[114.350053,30.61543]},"properties":{"name":"万顺达快运中心","xiaolei":"9352008","address":"","zhonglei":"9352","dalei":"2","type":"ems"}},
{"type":"Feature","geometry":{"type":"Point","coordinates":[114.34713,30.59857]},"properties":{"name":"武汉思凯物流有限责任公司（纺织小","xiaolei":"9352008","address":"纺机路37","zhonglei":"9352","dalei":"2","type":"ems"}},
{"type":"Feature","geometry":{"type":"Point","coordinates":[114.343169,30.597526]},"properties":{"name":"德邦物流（友谊大道）","xiaolei":"9352008","address":"友谊大道526附23","zhonglei":"9352","dalei":"2","type":"ems"}},
{"type":"Feature","geometry":{"type":"Point","coordinates":[114.303902,30.625176]},"properties":{"name":"德邦物流（工农兵路）","xiaolei":"9352008","address":"工农兵路52","zhonglei":"9352","dalei":"2","type":"ems"}},
{"type":"Feature","geometry":{"type":"Point","coordinates":[114.303248,30.62505]},"properties":{"name":"湖北鑫惠丰物流有限公司","xiaolei":"9352008","address":"工农兵路81号","zhonglei":"9352","dalei":"2","type":"ems"}},
{"type":"Feature","geometry":{"type":"Point","coordinates":[114.325803,30.648261]},"properties":{"name":"为民物流货运中心","xiaolei":"9352008","address":"解放大道1998附1","zhonglei":"9352","dalei":"2","type":"ems"}},
{"type":"Feature","geometry":{"type":"Point","coordinates":[114.325643,30.647805]},"properties":{"name":"诚意货运","xiaolei":"9352008","address":"解放大道1988号-1层1号","zhonglei":"9352","dalei":"2","type":"ems"}},
{"type":"Feature","geometry":{"type":"Point","coordinates":[114.325564,30.647647]},"properties":{"name":"丹信物流有限公司","xiaolei":"9352008","address":"解放大道1986号","zhonglei":"9352","dalei":"2","type":"ems"}},
{"type":"Feature","geometry":{"type":"Point","coordinates":[114.325519,30.647553]},"properties":{"name":"武汉鑫瑞通运输有限公司","xiaolei":"9352008","address":"解放大道1984号","zhonglei":"9352","dalei":"2","type":"ems"}},
{"type":"Feature","geometry":{"type":"Point","coordinates":[114.303167,30.601699]},"properties":{"name":"武汉国际钢铁物流服务中心（汉口营","xiaolei":"9352008","address":"五福路4号","zhonglei":"9352","dalei":"2","type":"ems"}},
{"type":"Feature","geometry":{"type":"Point","coordinates":[114.299721,30.598196]},"properties":{"name":"湖北省电力公司物流服务中心","xiaolei":"9352008","address":"胜利街210","zhonglei":"9352","dalei":"2","type":"ems"}},
{"type":"Feature","geometry":{"type":"Point","coordinates":[114.330194,30.66048]},"properties":{"name":"北大门客货运输市场","xiaolei":"9352008","address":"新村街道解放大道2050号北大门","zhonglei":"9352","dalei":"2","type":"ems"}},
{"type":"Feature","geometry":{"type":"Point","coordinates":[114.251857,30.620996]},"properties":{"name":"中铁快运（汉口站营业部）","xiaolei":"9352008","address":"站北二村40号","zhonglei":"9352","dalei":"2","type":"ems"}},
{"type":"Feature","geometry":{"type":"Point","coordinates":[114.265612,30.649271]},"properties":{"name":"武汉市远宏仓储物流公司","xiaolei":"9352008","address":"","zhonglei":"9352","dalei":"2","type":"ems"}},
{"type":"Feature","geometry":{"type":"Point","coordinates":[114.307005,30.648501]},"properties":{"name":"武汉宏宇中通速递服务有限公司（怡","xiaolei":"9352008","address":"兴业路316附3","zhonglei":"9352","dalei":"2","type":"ems"}},
{"type":"Feature","geometry":{"type":"Point","coordinates":[114.250854,30.641258]},"properties":{"name":"佳吉快运（姑嫂树路）","xiaolei":"9352008","address":"长江日报路","zhonglei":"9352","dalei":"2","type":"ems"}},
{"type":"Feature","geometry":{"type":"Point","coordinates":[114.325562,30.647646]},"properties":{"name":"武汉兴展鸿物流有限公司","xiaolei":"9352008","address":"","zhonglei":"9352","dalei":"2","type":"ems"}},
{"type":"Feature","geometry":{"type":"Point","coordinates":[114.310103,30.633036]},"properties":{"name":"武汉市华隆物流有限责任公司","xiaolei":"9352008","address":"二七北路36","zhonglei":"9352","dalei":"2","type":"ems"}},
{"type":"Feature","geometry":{"type":"Point","coordinates":[114.31537,30.635196]},"properties":{"name":"韵达快运（武汉二七路服务站）","xiaolei":"9352008","address":"","zhonglei":"9352","dalei":"2","type":"ems"}},
{"type":"Feature","geometry":{"type":"Point","coordinates":[114.308923,30.641945]},"properties":{"name":"圆通快递（百步亭分部）","xiaolei":"9352008","address":"","zhonglei":"9352","dalei":"2","type":"ems"}},
{"type":"Feature","geometry":{"type":"Point","coordinates":[114.307548,30.630238]},"properties":{"name":"中铁快运（汉口配送中心）","xiaolei":"9352008","address":"二七路224","zhonglei":"9352","dalei":"2","type":"ems"}},
{"type":"Feature","geometry":{"type":"Point","coordinates":[114.330484,30.599934]},"properties":{"name":"武铁物流","xiaolei":"9352008","address":"徐家棚街武北村","zhonglei":"9352","dalei":"2","type":"ems"}},
{"type":"Feature","geometry":{"type":"Point","coordinates":[114.290769,30.644416]},"properties":{"name":"中国邮政（后湖发行投递站）","xiaolei":"9352008","address":"后湖南路8附6","zhonglei":"9352","dalei":"2","type":"ems"}},
{"type":"Feature","geometry":{"type":"Point","coordinates":[114.319345,30.653453]},"properties":{"name":"圆通速递百步亭公司","xiaolei":"9352008","address":"兴业路191附2","zhonglei":"9352","dalei":"2","type":"ems"}},
{"type":"Feature","geometry":{"type":"Point","coordinates":[114.265095,30.637687]},"properties":{"name":"韵达快运（翠柏路）","xiaolei":"9352008","address":"后湖大道","zhonglei":"9352","dalei":"2","type":"ems"}},
{"type":"Feature","geometry":{"type":"Point","coordinates":[114.264908,30.637991]},"properties":{"name":"德邦物流（翠柏路）","xiaolei":"9352008","address":"翠柏路14号","zhonglei":"9352","dalei":"2","type":"ems"}},
{"type":"Feature","geometry":{"type":"Point","coordinates":[114.288539,30.592175]},"properties":{"name":"圆通速递（武汉吉庆街分部）","xiaolei":"9352008","address":"交易横街17","zhonglei":"9352","dalei":"2","type":"ems"}},
{"type":"Feature","geometry":{"type":"Point","coordinates":[114.256,30.645827]},"properties":{"name":"中环物流市场","xiaolei":"9352008","address":"后湖乡跃进村","zhonglei":"9352","dalei":"2","type":"ems"}},
{"type":"Feature","geometry":{"type":"Point","coordinates":[114.336016,30.646808]},"properties":{"name":"武汉市宏福源物流有限公司","xiaolei":"9352008","address":"江岸路5","zhonglei":"9352","dalei":"2","type":"ems"}},
{"type":"Feature","geometry":{"type":"Point","coordinates":[114.289323,30.649026]},"properties":{"name":"大道物流（百胜．春天南）","xiaolei":"9352008","address":"","zhonglei":"9352","dalei":"2","type":"ems"}},
{"type":"Feature","geometry":{"type":"Point","coordinates":[114.289263,30.648844]},"properties":{"name":"金昌物流（百胜．春天南）","xiaolei":"9352008","address":"金山大道金海工业园1312号","zhonglei":"9352","dalei":"2","type":"ems"}},
{"type":"Feature","geometry":{"type":"Point","coordinates":[114.289192,30.648533]},"properties":{"name":"宇鑫物流（百胜．春天南）","xiaolei":"9352008","address":"后湖大道特1号","zhonglei":"9352","dalei":"2","type":"ems"}},
{"type":"Feature","geometry":{"type":"Point","coordinates":[114.264496,30.597363]},"properties":{"name":"华加国际货运代理有限公司武汉分公","xiaolei":"9352008","address":"建设大道568号新世界国贸大厦1110","zhonglei":"9352","dalei":"2","type":"ems"}},