{"type":"FeatureCollection", "features": [
{"type":"Feature","geometry":{"type":"Point","coordinates":[114.117955,30.731393]},"properties":{"name":"欢聚友网吧","xiaolei":"9378001","address":"","zhonglei":"9378","dalei":"6","type":"fun"}},
{"type":"Feature","geometry":{"type":"Point","coordinates":[114.11857,30.728036]},"properties":{"name":"星空网络会所","xiaolei":"9378001","address":"","zhonglei":"9378","dalei":"6","type":"fun"}},
{"type":"Feature","geometry":{"type":"Point","coordinates":[114.23084,30.730507]},"properties":{"name":"新天地网吧（佳海综合二路）","xiaolei":"9378001","address":"","zhonglei":"9378","dalei":"6","type":"fun"}},
{"type":"Feature","geometry":{"type":"Point","coordinates":[114.2471,30.714394]},"properties":{"name":"龙城休闲会所","xiaolei":"9378001","address":"","zhonglei":"9378","dalei":"6","type":"fun"}},
{"type":"Feature","geometry":{"type":"Point","coordinates":[114.248492,30.713676]},"properties":{"name":"龙城贵足","xiaolei":"9378005","address":"巨龙大道201号龙城天居园","zhonglei":"9378","dalei":"6","type":"fun"}},
{"type":"Feature","geometry":{"type":"Point","coordinates":[114.231635,30.734701]},"properties":{"name":"新天地网吧（宋岗三路）","xiaolei":"9378001","address":"宋岗三路5","zhonglei":"9378","dalei":"6","type":"fun"}},
{"type":"Feature","geometry":{"type":"Point","coordinates":[114.231193,30.734522]},"properties":{"name":"激情飞扬电玩","xiaolei":"9378001","address":"","zhonglei":"9378","dalei":"6","type":"fun"}},
{"type":"Feature","geometry":{"type":"Point","coordinates":[114.232002,30.734114]},"properties":{"name":"七彩欢乐谷","xiaolei":"9378001","address":"盘龙城宋岗三路步行街路佳海轻纺城","zhonglei":"9378","dalei":"6","type":"fun"}},
{"type":"Feature","geometry":{"type":"Point","coordinates":[114.232977,30.732801]},"properties":{"name":"酷海动漫城","xiaolei":"9378001","address":"","zhonglei":"9378","dalei":"6","type":"fun"}},
{"type":"Feature","geometry":{"type":"Point","coordinates":[114.233557,30.733171]},"properties":{"name":"绿野仙踪电玩城","xiaolei":"9378001","address":"","zhonglei":"9378","dalei":"6","type":"fun"}},
{"type":"Feature","geometry":{"type":"Point","coordinates":[114.233579,30.733819]},"properties":{"name":"爱尚动漫乐园","xiaolei":"9378001","address":"","zhonglei":"9378","dalei":"6","type":"fun"}},
{"type":"Feature","geometry":{"type":"Point","coordinates":[114.15678,30.680126]},"properties":{"name":"菁菁网吧","xiaolei":"9378001","address":"十字西街58","zhonglei":"9378","dalei":"6","type":"fun"}},
{"type":"Feature","geometry":{"type":"Point","coordinates":[114.233628,30.733033]},"properties":{"name":"熊宝宝网吧","xiaolei":"9378001","address":"","zhonglei":"9378","dalei":"6","type":"fun"}},
{"type":"Feature","geometry":{"type":"Point","coordinates":[114.248666,30.712589]},"properties":{"name":"进发棋牌茶座","xiaolei":"9378001","address":"","zhonglei":"9378","dalei":"6","type":"fun"}},
{"type":"Feature","geometry":{"type":"Point","coordinates":[114.236006,30.722275]},"properties":{"name":"恒居足馆","xiaolei":"9378005","address":"","zhonglei":"9378","dalei":"6","type":"fun"}},
{"type":"Feature","geometry":{"type":"Point","coordinates":[114.249072,30.71203]},"properties":{"name":"聚友轩","xiaolei":"9378001","address":"","zhonglei":"9378","dalei":"6","type":"fun"}},
{"type":"Feature","geometry":{"type":"Point","coordinates":[114.158419,30.681524]},"properties":{"name":"大家乐网吧","xiaolei":"9378001","address":"","zhonglei":"9378","dalei":"6","type":"fun"}},
{"type":"Feature","geometry":{"type":"Point","coordinates":[114.323056,30.669895]},"properties":{"name":"鑫中桥网吧","xiaolei":"9378001","address":"汉黄路46号","zhonglei":"9378","dalei":"6","type":"fun"}},
{"type":"Feature","geometry":{"type":"Point","coordinates":[114.250932,30.706706]},"properties":{"name":"盘龙健康中心","xiaolei":"9378005","address":"","zhonglei":"9378","dalei":"6","type":"fun"}},
{"type":"Feature","geometry":{"type":"Point","coordinates":[114.367294,30.69336]},"properties":{"name":"瞬通网吧","xiaolei":"9378001","address":"谌家矶新建村","zhonglei":"9378","dalei":"6","type":"fun"}},
{"type":"Feature","geometry":{"type":"Point","coordinates":[114.294867,30.69892]},"properties":{"name":"星宇宙网吧","xiaolei":"9378001","address":"","zhonglei":"9378","dalei":"6","type":"fun"}},
{"type":"Feature","geometry":{"type":"Point","coordinates":[114.303543,30.725265]},"properties":{"name":"后湖水乡超市棋牌室","xiaolei":"9378001","address":"","zhonglei":"9378","dalei":"6","type":"fun"}},
{"type":"Feature","geometry":{"type":"Point","coordinates":[114.256357,30.711801]},"properties":{"name":"龙城之星","xiaolei":"9378001","address":"","zhonglei":"9378","dalei":"6","type":"fun"}},
{"type":"Feature","geometry":{"type":"Point","coordinates":[114.334654,30.717962]},"properties":{"name":"大乐门棋牌","xiaolei":"9378001","address":"","zhonglei":"9378","dalei":"6","type":"fun"}},
{"type":"Feature","geometry":{"type":"Point","coordinates":[114.367817,30.694141]},"properties":{"name":"飞洋休闲吧","xiaolei":"9378001","address":"","zhonglei":"9378","dalei":"6","type":"fun"}},
{"type":"Feature","geometry":{"type":"Point","coordinates":[114.363536,30.677858]},"properties":{"name":"先锋村文化娱乐中心","xiaolei":"9378001","address":"","zhonglei":"9378","dalei":"6","type":"fun"}},
{"type":"Feature","geometry":{"type":"Point","coordinates":[114.324396,30.667806]},"properties":{"name":"舒心驿站","xiaolei":"9378005","address":"汉黄路18号","zhonglei":"9378","dalei":"6","type":"fun"}},
{"type":"Feature","geometry":{"type":"Point","coordinates":[114.323912,30.668529]},"properties":{"name":"晓敏盲人推拿足疗","xiaolei":"9378005","address":"","zhonglei":"9378","dalei":"6","type":"fun"}},
{"type":"Feature","geometry":{"type":"Point","coordinates":[114.335548,30.716948]},"properties":{"name":"家富富侨健康会所","xiaolei":"9378005","address":"","zhonglei":"9378","dalei":"6","type":"fun"}},
{"type":"Feature","geometry":{"type":"Point","coordinates":[114.349633,30.717228]},"properties":{"name":"窗叶兰网吧","xiaolei":"9378001","address":"","zhonglei":"9378","dalei":"6","type":"fun"}},
{"type":"Feature","geometry":{"type":"Point","coordinates":[114.367822,30.693941]},"properties":{"name":"新时尚网吧","xiaolei":"9378001","address":"","zhonglei":"9378","dalei":"6","type":"fun"}},
{"type":"Feature","geometry":{"type":"Point","coordinates":[114.269015,30.711495]},"properties":{"name":"家富富侨","xiaolei":"9378005","address":"","zhonglei":"9378","dalei":"6","type":"fun"}},
{"type":"Feature","geometry":{"type":"Point","coordinates":[114.366629,30.693818]},"properties":{"name":"久隆网吧","xiaolei":"9378001","address":"","zhonglei":"9378","dalei":"6","type":"fun"}},
{"type":"Feature","geometry":{"type":"Point","coordinates":[114.272655,30.712148]},"properties":{"name":"国良推拿","xiaolei":"9378005","address":"","zhonglei":"9378","dalei":"6","type":"fun"}},
{"type":"Feature","geometry":{"type":"Point","coordinates":[114.425043,30.708522]},"properties":{"name":"聚贤足道","xiaolei":"9378005","address":"","zhonglei":"9378","dalei":"6","type":"fun"}},
{"type":"Feature","geometry":{"type":"Point","coordinates":[114.374971,30.722889]},"properties":{"name":"家富富侨（汉口北大道）","xiaolei":"9378005","address":"巨龙大道特1号","zhonglei":"9378","dalei":"6","type":"fun"}},
{"type":"Feature","geometry":{"type":"Point","coordinates":[114.411768,30.702767]},"properties":{"name":"新概念网吧","xiaolei":"9378001","address":"","zhonglei":"9378","dalei":"6","type":"fun"}},
{"type":"Feature","geometry":{"type":"Point","coordinates":[114.410607,30.701859]},"properties":{"name":"足享人生","xiaolei":"9378005","address":"","zhonglei":"9378","dalei":"6","type":"fun"}},
{"type":"Feature","geometry":{"type":"Point","coordinates":[114.413621,30.703395]},"properties":{"name":"富泉足道馆","xiaolei":"9378005","address":"","zhonglei":"9378","dalei":"6","type":"fun"}},
{"type":"Feature","geometry":{"type":"Point","coordinates":[114.405585,30.698865]},"properties":{"name":"会友网吧","xiaolei":"9378001","address":"","zhonglei":"9378","dalei":"6","type":"fun"}},
{"type":"Feature","geometry":{"type":"Point","coordinates":[114.411365,30.706181]},"properties":{"name":"蓝海湾网吧","xiaolei":"9378001","address":"","zhonglei":"9378","dalei":"6","type":"fun"}},
{"type":"Feature","geometry":{"type":"Point","coordinates":[114.413144,30.704744]},"properties":{"name":"木兰故里网吧","xiaolei":"9378001","address":"","zhonglei":"9378","dalei":"6","type":"fun"}},
{"type":"Feature","geometry":{"type":"Point","coordinates":[114.527488,30.714761]},"properties":{"name":"深蓝网吧","xiaolei":"9378001","address":"","zhonglei":"9378","dalei":"6","type":"fun"}},
{"type":"Feature","geometry":{"type":"Point","coordinates":[114.535111,30.721344]},"properties":{"name":"山河新村Ｃ区文化娱乐中心","xiaolei":"9378001","address":"","zhonglei":"9378","dalei":"6","type":"fun"}},
{"type":"Feature","geometry":{"type":"Point","coordinates":[114.521442,30.710687]},"properties":{"name":"协和祥网吧","xiaolei":"9378001","address":"","zhonglei":"9378","dalei":"6","type":"fun"}},
{"type":"Feature","geometry":{"type":"Point","coordinates":[114.521705,30.710666]},"properties":{"name":"银兴网吧（汉施路辅路）","xiaolei":"9378001","address":"阳逻经济开发区","zhonglei":"9378","dalei":"6","type":"fun"}},
{"type":"Feature","geometry":{"type":"Point","coordinates":[114.518598,30.710836]},"properties":{"name":"新地球网吧","xiaolei":"9378001","address":"","zhonglei":"9378","dalei":"6","type":"fun"}},
{"type":"Feature","geometry":{"type":"Point","coordinates":[114.52759,30.714999]},"properties":{"name":"文志网吧","xiaolei":"9378001","address":"","zhonglei":"9378","dalei":"6","type":"fun"}},
{"type":"Feature","geometry":{"type":"Point","coordinates":[114.123427,30.625301]},"properties":{"name":"宁康盲人按摩","xiaolei":"9378005","address":"沁园街1-3","zhonglei":"9378","dalei":"6","type":"fun"}},
{"type":"Feature","geometry":{"type":"Point","coordinates":[114.123409,30.626063]},"properties":{"name":"天创网吧","xiaolei":"9378001","address":"南山路1","zhonglei":"9378","dalei":"6","type":"fun"}},
{"type":"Feature","geometry":{"type":"Point","coordinates":[114.125005,30.626118]},"properties":{"name":"火星村网吧","xiaolei":"9378001","address":"南山路33","zhonglei":"9378","dalei":"6","type":"fun"}},
{"type":"Feature","geometry":{"type":"Point","coordinates":[114.110356,30.627998]},"properties":{"name":"航天嘉园会所","xiaolei":"9378001","address":"九支沟","zhonglei":"9378","dalei":"6","type":"fun"}},
{"type":"Feature","geometry":{"type":"Point","coordinates":[114.12346,30.62643]},"properties":{"name":"米兰网吧","xiaolei":"9378001","address":"南山路2号","zhonglei":"9378","dalei":"6","type":"fun"}},
{"type":"Feature","geometry":{"type":"Point","coordinates":[114.124229,30.62609]},"properties":{"name":"慧慧网络","xiaolei":"9378001","address":"南山路17","zhonglei":"9378","dalei":"6","type":"fun"}},
{"type":"Feature","geometry":{"type":"Point","coordinates":[114.110698,30.612313]},"properties":{"name":"长征网吧","xiaolei":"9378001","address":"","zhonglei":"9378","dalei":"6","type":"fun"}},
{"type":"Feature","geometry":{"type":"Point","coordinates":[114.119864,30.614577]},"properties":{"name":"新银河网吧","xiaolei":"9378001","address":"革新大道536号","zhonglei":"9378","dalei":"6","type":"fun"}},
{"type":"Feature","geometry":{"type":"Point","coordinates":[114.122075,30.615084]},"properties":{"name":"满天星网吧","xiaolei":"9378001","address":"吴家山七雄路","zhonglei":"9378","dalei":"6","type":"fun"}},
{"type":"Feature","geometry":{"type":"Point","coordinates":[114.108458,30.637334]},"properties":{"name":"电犁社区人口学校老龄人活动中心","xiaolei":"9378001","address":"","zhonglei":"9378","dalei":"6","type":"fun"}},
{"type":"Feature","geometry":{"type":"Point","coordinates":[114.108447,30.637341]},"properties":{"name":"电犁社区居民健身休闲娱乐中心","xiaolei":"9378001","address":"","zhonglei":"9378","dalei":"6","type":"fun"}},
{"type":"Feature","geometry":{"type":"Point","coordinates":[114.123287,30.628179]},"properties":{"name":"家富富侨（吴家山店）","xiaolei":"9378005","address":"","zhonglei":"9378","dalei":"6","type":"fun"}},
{"type":"Feature","geometry":{"type":"Point","coordinates":[114.124507,30.62757]},"properties":{"name":"爱尔兰沐足城","xiaolei":"9378005","address":"吴家山东吴大道","zhonglei":"9378","dalei":"6","type":"fun"}},
{"type":"Feature","geometry":{"type":"Point","coordinates":[114.119938,30.598575]},"properties":{"name":"五福网吧","xiaolei":"9378001","address":"","zhonglei":"9378","dalei":"6","type":"fun"}},
{"type":"Feature","geometry":{"type":"Point","coordinates":[114.120956,30.597885]},"properties":{"name":"心蓝网吧","xiaolei":"9378001","address":"慈惠墩181号附近","zhonglei":"9378","dalei":"6","type":"fun"}},
{"type":"Feature","geometry":{"type":"Point","coordinates":[114.122596,30.615192]},"properties":{"name":"香格里拉足疗保健","xiaolei":"9378005","address":"","zhonglei":"9378","dalei":"6","type":"fun"}},
{"type":"Feature","geometry":{"type":"Point","coordinates":[114.10904,30.614523]},"properties":{"name":"友谊网吧","xiaolei":"9378001","address":"革新大道333号附近","zhonglei":"9378","dalei":"6","type":"fun"}},
{"type":"Feature","geometry":{"type":"Point","coordinates":[114.12377,30.621744]},"properties":{"name":"桑田牌馆","xiaolei":"9378001","address":"七雄路62","zhonglei":"9378","dalei":"6","type":"fun"}},
{"type":"Feature","geometry":{"type":"Point","coordinates":[114.113627,30.607904]},"properties":{"name":"极速网络","xiaolei":"9378001","address":"","zhonglei":"9378","dalei":"6","type":"fun"}},
{"type":"Feature","geometry":{"type":"Point","coordinates":[114.220445,30.634363]},"properties":{"name":"东方马城","xiaolei":"9378001","address":"金南一路特1号","zhonglei":"9378","dalei":"6","type":"fun"}},
{"type":"Feature","geometry":{"type":"Point","coordinates":[114.129077,30.637632]},"properties":{"name":"圣山欢乐世界","xiaolei":"9378001","address":"","zhonglei":"9378","dalei":"6","type":"fun"}},
{"type":"Feature","geometry":{"type":"Point","coordinates":[114.14101,30.625958]},"properties":{"name":"天翔网络","xiaolei":"9378001","address":"东吴大道1069","zhonglei":"9378","dalei":"6","type":"fun"}},
{"type":"Feature","geometry":{"type":"Point","coordinates":[114.132214,30.62407]},"properties":{"name":"福源沐足","xiaolei":"9378005","address":"五环大道148","zhonglei":"9378","dalei":"6","type":"fun"}},
{"type":"Feature","geometry":{"type":"Point","coordinates":[114.127441,30.628052]},"properties":{"name":"飞跃网吧","xiaolei":"9378001","address":"六顺路","zhonglei":"9378","dalei":"6","type":"fun"}},
{"type":"Feature","geometry":{"type":"Point","coordinates":[114.137866,30.630975]},"properties":{"name":"浩洋在线（吴中路）","xiaolei":"9378001","address":"吴中街462","zhonglei":"9378","dalei":"6","type":"fun"}},
{"type":"Feature","geometry":{"type":"Point","coordinates":[114.214089,30.609756]},"properties":{"name":"民乐园浴池","xiaolei":"9378005","address":"","zhonglei":"9378","dalei":"6","type":"fun"}},
{"type":"Feature","geometry":{"type":"Point","coordinates":[114.214052,30.609759]},"properties":{"name":"月亮网吧（发展大道）","xiaolei":"9378001","address":"","zhonglei":"9378","dalei":"6","type":"fun"}},
{"type":"Feature","geometry":{"type":"Point","coordinates":[114.213897,30.609743]},"properties":{"name":"中国电信绿色动力网吧（天顺园店）","xiaolei":"9378001","address":"","zhonglei":"9378","dalei":"6","type":"fun"}},
{"type":"Feature","geometry":{"type":"Point","coordinates":[114.225716,30.608637]},"properties":{"name":"社区拾伍元休闲","xiaolei":"9378001","address":"","zhonglei":"9378","dalei":"6","type":"fun"}},
{"type":"Feature","geometry":{"type":"Point","coordinates":[114.24229,30.616397]},"properties":{"name":"东方·不夜城休闲洗浴广场","xiaolei":"9378005","address":"常青路77号","zhonglei":"9378","dalei":"6","type":"fun"}},
{"type":"Feature","geometry":{"type":"Point","coordinates":[114.186783,30.594668]},"properties":{"name":"修脚屋","xiaolei":"9378005","address":"","zhonglei":"9378","dalei":"6","type":"fun"}},
{"type":"Feature","geometry":{"type":"Point","coordinates":[114.18797,30.593991]},"properties":{"name":"生活村浴池","xiaolei":"9378005","address":"古田路","zhonglei":"9378","dalei":"6","type":"fun"}},
{"type":"Feature","geometry":{"type":"Point","coordinates":[114.185729,30.594493]},"properties":{"name":"新滚石","xiaolei":"9378001","address":"","zhonglei":"9378","dalei":"6","type":"fun"}},
{"type":"Feature","geometry":{"type":"Point","coordinates":[114.185718,30.594469]},"properties":{"name":"百分百娱乐中心","xiaolei":"9378001","address":"","zhonglei":"9378","dalei":"6","type":"fun"}},
{"type":"Feature","geometry":{"type":"Point","coordinates":[114.185459,30.594092]},"properties":{"name":"讯达网吧","xiaolei":"9378001","address":"古田路32号","zhonglei":"9378","dalei":"6","type":"fun"}},
{"type":"Feature","geometry":{"type":"Point","coordinates":[114.185183,30.593716]},"properties":{"name":"水中花（梅艳新村东北）","xiaolei":"9378001","address":"","zhonglei":"9378","dalei":"6","type":"fun"}},
{"type":"Feature","geometry":{"type":"Point","coordinates":[114.184858,30.593397]},"properties":{"name":"蓝月亮休闲","xiaolei":"9378001","address":"","zhonglei":"9378","dalei":"6","type":"fun"}},
{"type":"Feature","geometry":{"type":"Point","coordinates":[114.184647,30.593192]},"properties":{"name":"阿芳休闲","xiaolei":"9378001","address":"","zhonglei":"9378","dalei":"6","type":"fun"}},
{"type":"Feature","geometry":{"type":"Point","coordinates":[114.184459,30.592972]},"properties":{"name":"九龙网吧","xiaolei":"9378001","address":"古田二路","zhonglei":"9378","dalei":"6","type":"fun"}},
{"type":"Feature","geometry":{"type":"Point","coordinates":[114.185674,30.593603]},"properties":{"name":"文阳网吧","xiaolei":"9378001","address":"","zhonglei":"9378","dalei":"6","type":"fun"}},
{"type":"Feature","geometry":{"type":"Point","coordinates":[114.206168,30.589969]},"properties":{"name":"中国电信绿色动力","xiaolei":"9378001","address":"","zhonglei":"9378","dalei":"6","type":"fun"}},
{"type":"Feature","geometry":{"type":"Point","coordinates":[114.21622,30.586268]},"properties":{"name":"惜缘休闲","xiaolei":"9378001","address":"","zhonglei":"9378","dalei":"6","type":"fun"}},
{"type":"Feature","geometry":{"type":"Point","coordinates":[114.21631,30.586204]},"properties":{"name":"红枫休闲","xiaolei":"9378001","address":"","zhonglei":"9378","dalei":"6","type":"fun"}},
{"type":"Feature","geometry":{"type":"Point","coordinates":[114.216327,30.586194]},"properties":{"name":"伊人休闲（解放大道）","xiaolei":"9378001","address":"","zhonglei":"9378","dalei":"6","type":"fun"}},
{"type":"Feature","geometry":{"type":"Point","coordinates":[114.135259,30.627427]},"properties":{"name":"福康泰养生堂","xiaolei":"9378005","address":"吴祁街62","zhonglei":"9378","dalei":"6","type":"fun"}},
{"type":"Feature","geometry":{"type":"Point","coordinates":[114.137854,30.628444]},"properties":{"name":"古月推拿","xiaolei":"9378005","address":"吴祁街93","zhonglei":"9378","dalei":"6","type":"fun"}},
{"type":"Feature","geometry":{"type":"Point","coordinates":[114.131069,30.632853]},"properties":{"name":"海天栈桥重庆足疗","xiaolei":"9378005","address":"五环大道308号","zhonglei":"9378","dalei":"6","type":"fun"}},
{"type":"Feature","geometry":{"type":"Point","coordinates":[114.126201,30.622834]},"properties":{"name":"星空间网吧（长江网点）","xiaolei":"9378001","address":"田园街7","zhonglei":"9378","dalei":"6","type":"fun"}},
{"type":"Feature","geometry":{"type":"Point","coordinates":[114.143604,30.6206]},"properties":{"name":"吴家山洗浴中心","xiaolei":"9378005","address":"","zhonglei":"9378","dalei":"6","type":"fun"}},
{"type":"Feature","geometry":{"type":"Point","coordinates":[114.135439,30.62957]},"properties":{"name":"柳氏盲人按摩","xiaolei":"9378005","address":"四明路206","zhonglei":"9378","dalei":"6","type":"fun"}},
{"type":"Feature","geometry":{"type":"Point","coordinates":[114.137552,30.613458]},"properties":{"name":"青红休闲屋","xiaolei":"9378001","address":"","zhonglei":"9378","dalei":"6","type":"fun"}},
{"type":"Feature","geometry":{"type":"Point","coordinates":[114.137396,30.613955]},"properties":{"name":"情缘休闲（华星花园西南）","xiaolei":"9378001","address":"","zhonglei":"9378","dalei":"6","type":"fun"}},
{"type":"Feature","geometry":{"type":"Point","coordinates":[114.229627,30.641799]},"properties":{"name":"凯丽减肥美容足疗中心","xiaolei":"9378005","address":"","zhonglei":"9378","dalei":"6","type":"fun"}},
{"type":"Feature","geometry":{"type":"Point","coordinates":[114.227822,30.6435]},"properties":{"name":"第二社区居民之家","xiaolei":"9378001","address":"","zhonglei":"9378","dalei":"6","type":"fun"}},
{"type":"Feature","geometry":{"type":"Point","coordinates":[114.242244,30.613148]},"properties":{"name":"云森养生馆","xiaolei":"9378005","address":"发展大道158号","zhonglei":"9378","dalei":"6","type":"fun"}},
{"type":"Feature","geometry":{"type":"Point","coordinates":[114.240492,30.608147]},"properties":{"name":"博才网吧","xiaolei":"9378001","address":"振兴路118","zhonglei":"9378","dalei":"6","type":"fun"}},
{"type":"Feature","geometry":{"type":"Point","coordinates":[114.237896,30.608684]},"properties":{"name":"精键专业修脚屋","xiaolei":"9378005","address":"","zhonglei":"9378","dalei":"6","type":"fun"}},
{"type":"Feature","geometry":{"type":"Point","coordinates":[114.237447,30.609331]},"properties":{"name":"胜胜专业康复按摩","xiaolei":"9378005","address":"复兴村合作小区37栋","zhonglei":"9378","dalei":"6","type":"fun"}},
{"type":"Feature","geometry":{"type":"Point","coordinates":[114.237028,30.609249]},"properties":{"name":"汉云盲人专业按摩","xiaolei":"9378005","address":"","zhonglei":"9378","dalei":"6","type":"fun"}},
{"type":"Feature","geometry":{"type":"Point","coordinates":[114.238898,30.611591]},"properties":{"name":"新合网吧","xiaolei":"9378001","address":"发展大道110","zhonglei":"9378","dalei":"6","type":"fun"}},
{"type":"Feature","geometry":{"type":"Point","coordinates":[114.190316,30.601176]},"properties":{"name":"聚友网吧（古田二路）","xiaolei":"9378001","address":"解放大道55附6","zhonglei":"9378","dalei":"6","type":"fun"}},
{"type":"Feature","geometry":{"type":"Point","coordinates":[114.195534,30.598474]},"properties":{"name":"春天网吧","xiaolei":"9378001","address":"解放大道109附52","zhonglei":"9378","dalei":"6","type":"fun"}},
{"type":"Feature","geometry":{"type":"Point","coordinates":[114.200595,30.595519]},"properties":{"name":"博慧网吧","xiaolei":"9378001","address":"解放大道145附2","zhonglei":"9378","dalei":"6","type":"fun"}},
{"type":"Feature","geometry":{"type":"Point","coordinates":[114.209218,30.600823]},"properties":{"name":"众友网吧","xiaolei":"9378001","address":"古田四路91","zhonglei":"9378","dalei":"6","type":"fun"}},
{"type":"Feature","geometry":{"type":"Point","coordinates":[114.19981,30.598341]},"properties":{"name":"肖家地浴池","xiaolei":"9378005","address":"肖家地66","zhonglei":"9378","dalei":"6","type":"fun"}},
{"type":"Feature","geometry":{"type":"Point","coordinates":[114.246924,30.626033]},"properties":{"name":"锦绣浴场","xiaolei":"9378005","address":"红旗渠路102附17","zhonglei":"9378","dalei":"6","type":"fun"}},
{"type":"Feature","geometry":{"type":"Point","coordinates":[114.249296,30.62719]},"properties":{"name":"湾港茶艺足乐中心","xiaolei":"9378005","address":"红旗渠路67","zhonglei":"9378","dalei":"6","type":"fun"}},
{"type":"Feature","geometry":{"type":"Point","coordinates":[114.248887,30.631076]},"properties":{"name":"熊盛堂盲人专业按摩","xiaolei":"9378005","address":"常青五路92","zhonglei":"9378","dalei":"6","type":"fun"}},
{"type":"Feature","geometry":{"type":"Point","coordinates":[114.246897,30.583698]},"properties":{"name":"日豪水都","xiaolei":"9378005","address":"宝丰路81附35","zhonglei":"9378","dalei":"6","type":"fun"}},
{"type":"Feature","geometry":{"type":"Point","coordinates":[114.242553,30.585255]},"properties":{"name":"万豪网吧","xiaolei":"9378001","address":"营房路199-15号","zhonglei":"9378","dalei":"6","type":"fun"}},
{"type":"Feature","geometry":{"type":"Point","coordinates":[114.223813,30.586208]},"properties":{"name":"金长城网吧","xiaolei":"9378001","address":"新合后街111号","zhonglei":"9378","dalei":"6","type":"fun"}},
{"type":"Feature","geometry":{"type":"Point","coordinates":[114.223458,30.586312]},"properties":{"name":"博雅网吧","xiaolei":"9378001","address":"","zhonglei":"9378","dalei":"6","type":"fun"}},
{"type":"Feature","geometry":{"type":"Point","coordinates":[114.220425,30.585812]},"properties":{"name":"自然网吧","xiaolei":"9378001","address":"宗关新合正街1-1","zhonglei":"9378","dalei":"6","type":"fun"}},
{"type":"Feature","geometry":{"type":"Point","coordinates":[114.223305,30.602725]},"properties":{"name":"星奇网吧","xiaolei":"9378001","address":"汉西北路209号","zhonglei":"9378","dalei":"6","type":"fun"}},
{"type":"Feature","geometry":{"type":"Point","coordinates":[114.214463,30.606303]},"properties":{"name":"星星盲人按摩院","xiaolei":"9378005","address":"云鹤一村103附1","zhonglei":"9378","dalei":"6","type":"fun"}},
{"type":"Feature","geometry":{"type":"Point","coordinates":[114.215698,30.587144]},"properties":{"name":"天宇网吧","xiaolei":"9378001","address":"解放大道359号","zhonglei":"9378","dalei":"6","type":"fun"}},
{"type":"Feature","geometry":{"type":"Point","coordinates":[114.223953,30.606356]},"properties":{"name":"小何专业按摩","xiaolei":"9378005","address":"发展二村26附1","zhonglei":"9378","dalei":"6","type":"fun"}},
{"type":"Feature","geometry":{"type":"Point","coordinates":[114.245514,30.619032]},"properties":{"name":"一品休闲会所","xiaolei":"9378001","address":"银墩路34号","zhonglei":"9378","dalei":"6","type":"fun"}},
{"type":"Feature","geometry":{"type":"Point","coordinates":[114.243937,30.586487]},"properties":{"name":"郑远元修脚房","xiaolei":"9378005","address":"建设大道427","zhonglei":"9378","dalei":"6","type":"fun"}},
{"type":"Feature","geometry":{"type":"Point","coordinates":[114.237094,30.620748]},"properties":{"name":"长城网络（复兴村店）","xiaolei":"9378001","address":"五村24号附近","zhonglei":"9378","dalei":"6","type":"fun"}},
{"type":"Feature","geometry":{"type":"Point","coordinates":[114.185448,30.59407]},"properties":{"name":"中青网络家园（讯达店）","xiaolei":"9378001","address":"古田路32号","zhonglei":"9378","dalei":"6","type":"fun"}},
{"type":"Feature","geometry":{"type":"Point","coordinates":[114.229159,30.640897]},"properties":{"name":"星网吧（常青店）","xiaolei":"9378001","address":"学府南路126","zhonglei":"9378","dalei":"6","type":"fun"}},
{"type":"Feature","geometry":{"type":"Point","coordinates":[114.125315,30.62613]},"properties":{"name":"翔宇网络会所","xiaolei":"9378001","address":"南山路45","zhonglei":"9378","dalei":"6","type":"fun"}},
{"type":"Feature","geometry":{"type":"Point","coordinates":[114.19711,30.611926]},"properties":{"name":"西元网络俱乐部","xiaolei":"9378001","address":"长丰村508-1号附近","zhonglei":"9378","dalei":"6","type":"fun"}},
{"type":"Feature","geometry":{"type":"Point","coordinates":[114.222103,30.630608]},"properties":{"name":"田园网络会所（马城店）","xiaolei":"9378001","address":"","zhonglei":"9378","dalei":"6","type":"fun"}},
{"type":"Feature","geometry":{"type":"Point","coordinates":[114.19142,30.630285]},"properties":{"name":"田园网络会所（翠堤店）","xiaolei":"9378001","address":"金银湖南街6附5","zhonglei":"9378","dalei":"6","type":"fun"}},
{"type":"Feature","geometry":{"type":"Point","coordinates":[114.244408,30.65095]},"properties":{"name":"天宫城","xiaolei":"9378001","address":"","zhonglei":"9378","dalei":"6","type":"fun"}},
{"type":"Feature","geometry":{"type":"Point","coordinates":[114.242496,30.61616]},"properties":{"name":"顺意康乐休闲洗浴广场","xiaolei":"9378005","address":"","zhonglei":"9378","dalei":"6","type":"fun"}},
{"type":"Feature","geometry":{"type":"Point","coordinates":[114.242413,30.616245]},"properties":{"name":"顺意康乐城","xiaolei":"9378005","address":"常青路77号","zhonglei":"9378","dalei":"6","type":"fun"}},
{"type":"Feature","geometry":{"type":"Point","coordinates":[114.23348,30.611291]},"properties":{"name":"顺业网吧","xiaolei":"9378001","address":"发展大道37号","zhonglei":"9378","dalei":"6","type":"fun"}},
{"type":"Feature","geometry":{"type":"Point","coordinates":[114.130561,30.615115]},"properties":{"name":"神风网吧","xiaolei":"9378001","address":"四明路89","zhonglei":"9378","dalei":"6","type":"fun"}},
{"type":"Feature","geometry":{"type":"Point","coordinates":[114.141096,30.62552]},"properties":{"name":"君悦足浴","xiaolei":"9378005","address":"东吴大道1164","zhonglei":"9378","dalei":"6","type":"fun"}},
{"type":"Feature","geometry":{"type":"Point","coordinates":[114.185609,30.593537]},"properties":{"name":"锦源洗脚休闲苑","xiaolei":"9378005","address":"","zhonglei":"9378","dalei":"6","type":"fun"}},
{"type":"Feature","geometry":{"type":"Point","coordinates":[114.246673,30.646995]},"properties":{"name":"健安盲人按摩","xiaolei":"9378005","address":"","zhonglei":"9378","dalei":"6","type":"fun"}},
{"type":"Feature","geometry":{"type":"Point","coordinates":[114.131875,30.614911]},"properties":{"name":"华坤洗浴城","xiaolei":"9378005","address":"五支沟九","zhonglei":"9378","dalei":"6","type":"fun"}},
{"type":"Feature","geometry":{"type":"Point","coordinates":[114.245857,30.64953]},"properties":{"name":"红日网吧","xiaolei":"9378001","address":"将军路4","zhonglei":"9378","dalei":"6","type":"fun"}},
{"type":"Feature","geometry":{"type":"Point","coordinates":[114.227785,30.608511]},"properties":{"name":"飞语网吧","xiaolei":"9378001","address":"","zhonglei":"9378","dalei":"6","type":"fun"}},
{"type":"Feature","geometry":{"type":"Point","coordinates":[114.140068,30.615579]},"properties":{"name":"长青街文化体育工作站","xiaolei":"9378001","address":"","zhonglei":"9378","dalei":"6","type":"fun"}},
{"type":"Feature","geometry":{"type":"Point","coordinates":[114.247569,30.650335]},"properties":{"name":"博亭网吧","xiaolei":"9378001","address":"将军路42","zhonglei":"9378","dalei":"6","type":"fun"}},
{"type":"Feature","geometry":{"type":"Point","coordinates":[114.186289,30.631058]},"properties":{"name":"ｅ时代网咖","xiaolei":"9378001","address":"金银湖南街1附21","zhonglei":"9378","dalei":"6","type":"fun"}},
{"type":"Feature","geometry":{"type":"Point","coordinates":[114.185672,30.612556]},"properties":{"name":"七鑫电玩动漫城","xiaolei":"9378001","address":"","zhonglei":"9378","dalei":"6","type":"fun"}},
{"type":"Feature","geometry":{"type":"Point","coordinates":[114.197217,30.597245]},"properties":{"name":"天子足道（古田店）","xiaolei":"9378005","address":"解放大道109附80","zhonglei":"9378","dalei":"6","type":"fun"}},
{"type":"Feature","geometry":{"type":"Point","coordinates":[114.206894,30.597129]},"properties":{"name":"日月星网吧","xiaolei":"9378001","address":"","zhonglei":"9378","dalei":"6","type":"fun"}},
{"type":"Feature","geometry":{"type":"Point","coordinates":[114.211582,30.60612]},"properties":{"name":"罕迹网吧","xiaolei":"9378001","address":"古田四路中商平价天泽一方旁","zhonglei":"9378","dalei":"6","type":"fun"}},
{"type":"Feature","geometry":{"type":"Point","coordinates":[114.200211,30.60267]},"properties":{"name":"康健网吧（南泥湾大道）","xiaolei":"9378001","address":"下铁路大厂1号附近","zhonglei":"9378","dalei":"6","type":"fun"}},
{"type":"Feature","geometry":{"type":"Point","coordinates":[114.210453,30.589564]},"properties":{"name":"旷奇网吧","xiaolei":"9378001","address":"解放大道329附5","zhonglei":"9378","dalei":"6","type":"fun"}},
{"type":"Feature","geometry":{"type":"Point","coordinates":[114.224451,30.59268]},"properties":{"name":"华大网吧","xiaolei":"9378001","address":"下双墩汉西北路","zhonglei":"9378","dalei":"6","type":"fun"}},
{"type":"Feature","geometry":{"type":"Point","coordinates":[114.224325,30.593249]},"properties":{"name":"荣冠花园网吧","xiaolei":"9378001","address":"汉西北路67","zhonglei":"9378","dalei":"6","type":"fun"}},
{"type":"Feature","geometry":{"type":"Point","coordinates":[114.225635,30.606695]},"properties":{"name":"森森网络","xiaolei":"9378001","address":"","zhonglei":"9378","dalei":"6","type":"fun"}},
{"type":"Feature","geometry":{"type":"Point","coordinates":[114.237704,30.607794]},"properties":{"name":"金艺网吧","xiaolei":"9378001","address":"振兴路25号","zhonglei":"9378","dalei":"6","type":"fun"}},
{"type":"Feature","geometry":{"type":"Point","coordinates":[114.243541,30.609681]},"properties":{"name":"港澳足道（振兴路）","xiaolei":"9378005","address":"振兴路288附7","zhonglei":"9378","dalei":"6","type":"fun"}},
{"type":"Feature","geometry":{"type":"Point","coordinates":[114.243763,30.61394]},"properties":{"name":"家富富侨（常青店）","xiaolei":"9378005","address":"汉口常青路65号","zhonglei":"9378","dalei":"6","type":"fun"}},
{"type":"Feature","geometry":{"type":"Point","coordinates":[114.248618,30.615331]},"properties":{"name":"东方足浴城","xiaolei":"9378005","address":"发展大道176号怡景商务大厦","zhonglei":"9378","dalei":"6","type":"fun"}},
{"type":"Feature","geometry":{"type":"Point","coordinates":[114.242594,30.617783]},"properties":{"name":"梅园网吧","xiaolei":"9378001","address":"","zhonglei":"9378","dalei":"6","type":"fun"}},
{"type":"Feature","geometry":{"type":"Point","coordinates":[114.2396,30.624437]},"properties":{"name":"星原棋牌","xiaolei":"9378001","address":"","zhonglei":"9378","dalei":"6","type":"fun"}},
{"type":"Feature","geometry":{"type":"Point","coordinates":[114.248807,30.631086]},"properties":{"name":"汇隆棋牌","xiaolei":"9378001","address":"常青五路90","zhonglei":"9378","dalei":"6","type":"fun"}},
{"type":"Feature","geometry":{"type":"Point","coordinates":[114.236912,30.632561]},"properties":{"name":"新影网吧","xiaolei":"9378001","address":"新湾路2-5号","zhonglei":"9378","dalei":"6","type":"fun"}},
{"type":"Feature","geometry":{"type":"Point","coordinates":[114.248567,30.63636]},"properties":{"name":"爱虫网吧","xiaolei":"9378001","address":"新湾路154","zhonglei":"9378","dalei":"6","type":"fun"}},
{"type":"Feature","geometry":{"type":"Point","coordinates":[114.138794,30.628528]},"properties":{"name":"浩洋在线（吴祁街）","xiaolei":"9378001","address":"吴祁街111","zhonglei":"9378","dalei":"6","type":"fun"}},
{"type":"Feature","geometry":{"type":"Point","coordinates":[114.128536,30.626786]},"properties":{"name":"浅水湾足疗洗浴休闲中心","xiaolei":"9378005","address":"吴家山东吴大道789号","zhonglei":"9378","dalei":"6","type":"fun"}},
{"type":"Feature","geometry":{"type":"Point","coordinates":[114.134578,30.627739]},"properties":{"name":"华洋新兴会所","xiaolei":"9378005","address":"吴家山吴祁街25号","zhonglei":"9378","dalei":"6","type":"fun"}},
{"type":"Feature","geometry":{"type":"Point","coordinates":[114.129663,30.624711]},"properties":{"name":"聚雅轩棋牌休闲","xiaolei":"9378001","address":"","zhonglei":"9378","dalei":"6","type":"fun"}},
{"type":"Feature","geometry":{"type":"Point","coordinates":[114.125747,30.624669]},"properties":{"name":"聚友棋牌（杏花路）","xiaolei":"9378001","address":"枫林路39","zhonglei":"9378","dalei":"6","type":"fun"}},
{"type":"Feature","geometry":{"type":"Point","coordinates":[114.147128,30.623818]},"properties":{"name":"额头湾社区多功能活动中心","xiaolei":"9378001","address":"吴家山","zhonglei":"9378","dalei":"6","type":"fun"}},
{"type":"Feature","geometry":{"type":"Point","coordinates":[114.135556,30.626305]},"properties":{"name":"新天地网咖","xiaolei":"9378001","address":"东吴大道895","zhonglei":"9378","dalei":"6","type":"fun"}},
{"type":"Feature","geometry":{"type":"Point","coordinates":[114.135366,30.626317]},"properties":{"name":"嘉华俱乐部","xiaolei":"9378001","address":"东吴大道895","zhonglei":"9378","dalei":"6","type":"fun"}},
{"type":"Feature","geometry":{"type":"Point","coordinates":[114.18023,30.641263]},"properties":{"name":"武汉市妇女儿童活动中心","xiaolei":"9378001","address":"","zhonglei":"9378","dalei":"6","type":"fun"}},
{"type":"Feature","geometry":{"type":"Point","coordinates":[114.136648,30.650946]},"properties":{"name":"三石至尊网友俱乐部","xiaolei":"9378001","address":"吴北路199附25","zhonglei":"9378","dalei":"6","type":"fun"}},
{"type":"Feature","geometry":{"type":"Point","coordinates":[114.13611,30.644903]},"properties":{"name":"流星网吧（武汉市东西湖区三店卫生","xiaolei":"9378001","address":"三店集25","zhonglei":"9378","dalei":"6","type":"fun"}},
{"type":"Feature","geometry":{"type":"Point","coordinates":[114.138785,30.640261]},"properties":{"name":"ＱＱ在线","xiaolei":"9378001","address":"吴北路144","zhonglei":"9378","dalei":"6","type":"fun"}},
{"type":"Feature","geometry":{"type":"Point","coordinates":[114.200562,30.635774]},"properties":{"name":"穿越网络","xiaolei":"9378001","address":"金银湖南三街3附3","zhonglei":"9378","dalei":"6","type":"fun"}},
{"type":"Feature","geometry":{"type":"Point","coordinates":[114.140714,30.612806]},"properties":{"name":"网城网吧","xiaolei":"9378001","address":"三秀路3","zhonglei":"9378","dalei":"6","type":"fun"}},
{"type":"Feature","geometry":{"type":"Point","coordinates":[114.139032,30.613567]},"properties":{"name":"团结网吧（华星花园东南）","xiaolei":"9378001","address":"团结村240","zhonglei":"9378","dalei":"6","type":"fun"}},
{"type":"Feature","geometry":{"type":"Point","coordinates":[114.142417,30.626321]},"properties":{"name":"新速龙网吧","xiaolei":"9378001","address":"梨花园路20","zhonglei":"9378","dalei":"6","type":"fun"}},
{"type":"Feature","geometry":{"type":"Point","coordinates":[114.14198,30.626174]},"properties":{"name":"城城棋牌","xiaolei":"9378001","address":"梨花园路15","zhonglei":"9378","dalei":"6","type":"fun"}},
{"type":"Feature","geometry":{"type":"Point","coordinates":[114.245798,30.625788]},"properties":{"name":"千叶红网吧","xiaolei":"9378001","address":"红旗渠路102附5","zhonglei":"9378","dalei":"6","type":"fun"}},
{"type":"Feature","geometry":{"type":"Point","coordinates":[114.247024,30.616106]},"properties":{"name":"四海足浴城","xiaolei":"9378005","address":"发展大道181号小中大厦","zhonglei":"9378","dalei":"6","type":"fun"}},
{"type":"Feature","geometry":{"type":"Point","coordinates":[114.236747,30.628494]},"properties":{"name":"聚贤阁","xiaolei":"9378001","address":"常青五路8号","zhonglei":"9378","dalei":"6","type":"fun"}},
{"type":"Feature","geometry":{"type":"Point","coordinates":[114.242708,30.629548]},"properties":{"name":"博澳足浴会所","xiaolei":"9378005","address":"常青五路","zhonglei":"9378","dalei":"6","type":"fun"}},
{"type":"Feature","geometry":{"type":"Point","coordinates":[114.248645,30.629247]},"properties":{"name":"中友棋牌","xiaolei":"9378001","address":"常青三路75","zhonglei":"9378","dalei":"6","type":"fun"}},
{"type":"Feature","geometry":{"type":"Point","coordinates":[114.249129,30.631127]},"properties":{"name":"富裕足浴","xiaolei":"9378005","address":"常青五路102","zhonglei":"9378","dalei":"6","type":"fun"}},
{"type":"Feature","geometry":{"type":"Point","coordinates":[114.239853,30.63101]},"properties":{"name":"家富富侨（金雅路贵族店）","xiaolei":"9378005","address":"金色雅园D区02栋1层1-2室","zhonglei":"9378","dalei":"6","type":"fun"}},
{"type":"Feature","geometry":{"type":"Point","coordinates":[114.234243,30.628666]},"properties":{"name":"重庆红郡","xiaolei":"9378005","address":"常青路1附2","zhonglei":"9378","dalei":"6","type":"fun"}},
{"type":"Feature","geometry":{"type":"Point","coordinates":[114.232606,30.629843]},"properties":{"name":"一健钟情足疗","xiaolei":"9378005","address":"","zhonglei":"9378","dalei":"6","type":"fun"}},
{"type":"Feature","geometry":{"type":"Point","coordinates":[114.23375,30.629221]},"properties":{"name":"尚美网吧","xiaolei":"9378001","address":"","zhonglei":"9378","dalei":"6","type":"fun"}},
{"type":"Feature","geometry":{"type":"Point","coordinates":[114.184673,30.612641]},"properties":{"name":"凤巢足道","xiaolei":"9378005","address":"","zhonglei":"9378","dalei":"6","type":"fun"}},
{"type":"Feature","geometry":{"type":"Point","coordinates":[114.196392,30.604738]},"properties":{"name":"星思路网吧","xiaolei":"9378001","address":"","zhonglei":"9378","dalei":"6","type":"fun"}},
{"type":"Feature","geometry":{"type":"Point","coordinates":[114.195685,30.604304]},"properties":{"name":"巧手理疗中心","xiaolei":"9378005","address":"南泥湾大道73","zhonglei":"9378","dalei":"6","type":"fun"}},
{"type":"Feature","geometry":{"type":"Point","coordinates":[114.195417,30.598388]},"properties":{"name":"富鑫沐足阁","xiaolei":"9378005","address":"解放大道109附54","zhonglei":"9378","dalei":"6","type":"fun"}},
{"type":"Feature","geometry":{"type":"Point","coordinates":[114.213895,30.6088]},"properties":{"name":"雷骏网盟（鑫圆第七分店）","xiaolei":"9378001","address":"云鹤一村313-7号附近","zhonglei":"9378","dalei":"6","type":"fun"}},
{"type":"Feature","geometry":{"type":"Point","coordinates":[114.233658,30.612086]},"properties":{"name":"丰足园大众修脚坊","xiaolei":"9378005","address":"","zhonglei":"9378","dalei":"6","type":"fun"}},
{"type":"Feature","geometry":{"type":"Point","coordinates":[114.223261,30.607071]},"properties":{"name":"逸飞网吧","xiaolei":"9378001","address":"常码头270","zhonglei":"9378","dalei":"6","type":"fun"}},
{"type":"Feature","geometry":{"type":"Point","coordinates":[114.213254,30.613692]},"properties":{"name":"一网情缘网吧","xiaolei":"9378001","address":"","zhonglei":"9378","dalei":"6","type":"fun"}},
{"type":"Feature","geometry":{"type":"Point","coordinates":[114.209443,30.614121]},"properties":{"name":"兄弟棋牌室（长风路）","xiaolei":"9378001","address":"","zhonglei":"9378","dalei":"6","type":"fun"}},
{"type":"Feature","geometry":{"type":"Point","coordinates":[114.209218,30.61415]},"properties":{"name":"玉成网吧","xiaolei":"9378001","address":"","zhonglei":"9378","dalei":"6","type":"fun"}},
{"type":"Feature","geometry":{"type":"Point","coordinates":[114.211168,30.613533]},"properties":{"name":"聚友阁棋牌室","xiaolei":"9378001","address":"","zhonglei":"9378","dalei":"6","type":"fun"}},
{"type":"Feature","geometry":{"type":"Point","coordinates":[114.213286,30.610775]},"properties":{"name":"阳光沐足养生堂","xiaolei":"9378005","address":"","zhonglei":"9378","dalei":"6","type":"fun"}},
{"type":"Feature","geometry":{"type":"Point","coordinates":[114.213026,30.609721]},"properties":{"name":"利群商务会所","xiaolei":"9378005","address":"黄家墩20号附近","zhonglei":"9378","dalei":"6","type":"fun"}},
{"type":"Feature","geometry":{"type":"Point","coordinates":[114.185708,30.593726]},"properties":{"name":"文苑网吧","xiaolei":"9378001","address":"古田二路37","zhonglei":"9378","dalei":"6","type":"fun"}},
{"type":"Feature","geometry":{"type":"Point","coordinates":[114.182959,30.592739]},"properties":{"name":"燕子棋牌室（田文街）","xiaolei":"9378001","address":"","zhonglei":"9378","dalei":"6","type":"fun"}},
{"type":"Feature","geometry":{"type":"Point","coordinates":[114.182107,30.593186]},"properties":{"name":"中青网络家园（双龙店）","xiaolei":"9378001","address":"","zhonglei":"9378","dalei":"6","type":"fun"}},
{"type":"Feature","geometry":{"type":"Point","coordinates":[114.1979,30.594515]},"properties":{"name":"舞尚品质","xiaolei":"9378001","address":"古田三路4-5号","zhonglei":"9378","dalei":"6","type":"fun"}},
{"type":"Feature","geometry":{"type":"Point","coordinates":[114.197845,30.594168]},"properties":{"name":"一杯花茶","xiaolei":"9378001","address":"","zhonglei":"9378","dalei":"6","type":"fun"}},
{"type":"Feature","geometry":{"type":"Point","coordinates":[114.195682,30.594452]},"properties":{"name":"旺旺专业推拿足疗馆","xiaolei":"9378005","address":"","zhonglei":"9378","dalei":"6","type":"fun"}},
{"type":"Feature","geometry":{"type":"Point","coordinates":[114.194889,30.594879]},"properties":{"name":"融润养身馆","xiaolei":"9378005","address":"","zhonglei":"9378","dalei":"6","type":"fun"}},
{"type":"Feature","geometry":{"type":"Point","coordinates":[114.197601,30.592912]},"properties":{"name":"蓝翔网吧（古田三路）","xiaolei":"9378001","address":"古田路41号东方花城9-1-1","zhonglei":"9378","dalei":"6","type":"fun"}},
{"type":"Feature","geometry":{"type":"Point","coordinates":[114.193621,30.591399]},"properties":{"name":"英姿足浴","xiaolei":"9378005","address":"","zhonglei":"9378","dalei":"6","type":"fun"}},
{"type":"Feature","geometry":{"type":"Point","coordinates":[114.180689,30.61613]},"properties":{"name":"蓝色梦想网吧","xiaolei":"9378001","address":"古田一路58号","zhonglei":"9378","dalei":"6","type":"fun"}},
{"type":"Feature","geometry":{"type":"Point","coordinates":[114.185195,30.61609]},"properties":{"name":"老刘棋牌室","xiaolei":"9378001","address":"","zhonglei":"9378","dalei":"6","type":"fun"}},
{"type":"Feature","geometry":{"type":"Point","coordinates":[114.239016,30.614109]},"properties":{"name":"福运来推拿中心","xiaolei":"9378005","address":"","zhonglei":"9378","dalei":"6","type":"fun"}},
{"type":"Feature","geometry":{"type":"Point","coordinates":[114.239719,30.613184]},"properties":{"name":"温州温港足浴","xiaolei":"9378005","address":"","zhonglei":"9378","dalei":"6","type":"fun"}},
{"type":"Feature","geometry":{"type":"Point","coordinates":[114.239995,30.613529]},"properties":{"name":"新知网吧","xiaolei":"9378001","address":"","zhonglei":"9378","dalei":"6","type":"fun"}},
{"type":"Feature","geometry":{"type":"Point","coordinates":[114.239567,30.614098]},"properties":{"name":"永盛网吧（常超街）","xiaolei":"9378001","address":"复兴二村常超街","zhonglei":"9378","dalei":"6","type":"fun"}},
{"type":"Feature","geometry":{"type":"Point","coordinates":[114.19585,30.596065]},"properties":{"name":"采金阁棋牌","xiaolei":"9378001","address":"","zhonglei":"9378","dalei":"6","type":"fun"}},
{"type":"Feature","geometry":{"type":"Point","coordinates":[114.195217,30.59761]},"properties":{"name":"狂想世界时尚动漫会所","xiaolei":"9378001","address":"","zhonglei":"9378","dalei":"6","type":"fun"}},
{"type":"Feature","geometry":{"type":"Point","coordinates":[114.129325,30.626079]},"properties":{"name":"新东方休闲","xiaolei":"9378005","address":"东吴大道758","zhonglei":"9378","dalei":"6","type":"fun"}},
{"type":"Feature","geometry":{"type":"Point","coordinates":[114.127391,30.626702]},"properties":{"name":"欢乐英豪电玩城","xiaolei":"9378001","address":"东吴大道682号2层","zhonglei":"9378","dalei":"6","type":"fun"}},
{"type":"Feature","geometry":{"type":"Point","coordinates":[114.127525,30.624198]},"properties":{"name":"馨怡棋牌室","xiaolei":"9378001","address":"六顺路114号2层","zhonglei":"9378","dalei":"6","type":"fun"}},
{"type":"Feature","geometry":{"type":"Point","coordinates":[114.133004,30.631039]},"properties":{"name":"３６１棋牌茶室","xiaolei":"9378001","address":"吴中街336","zhonglei":"9378","dalei":"6","type":"fun"}},
{"type":"Feature","geometry":{"type":"Point","coordinates":[114.135778,30.622146]},"properties":{"name":"成都天子（四明路）","xiaolei":"9378005","address":"四明路155号","zhonglei":"9378","dalei":"6","type":"fun"}},
{"type":"Feature","geometry":{"type":"Point","coordinates":[114.125601,30.627922]},"properties":{"name":"邹氏苗族独特推拿理疗馆","xiaolei":"9378005","address":"东吴大道751","zhonglei":"9378","dalei":"6","type":"fun"}},
{"type":"Feature","geometry":{"type":"Point","coordinates":[114.126983,30.622845]},"properties":{"name":"战神网络会所","xiaolei":"9378001","address":"","zhonglei":"9378","dalei":"6","type":"fun"}},
{"type":"Feature","geometry":{"type":"Point","coordinates":[114.143613,30.633968]},"properties":{"name":"万豪棋牌","xiaolei":"9378001","address":"海景北路34","zhonglei":"9378","dalei":"6","type":"fun"}},
{"type":"Feature","geometry":{"type":"Point","coordinates":[114.144209,30.624312]},"properties":{"name":"明珠棋牌娱乐中心","xiaolei":"9378001","address":"二雅路77","zhonglei":"9378","dalei":"6","type":"fun"}},
{"type":"Feature","geometry":{"type":"Point","coordinates":[114.139171,30.640465]},"properties":{"name":"圣达飞台球休闲会所","xiaolei":"9378006","address":"","zhonglei":"9378","dalei":"6","type":"fun"}},
{"type":"Feature","geometry":{"type":"Point","coordinates":[114.137201,30.644242]},"properties":{"name":"新贵族网吧","xiaolei":"9378001","address":"吴家山后","zhonglei":"9378","dalei":"6","type":"fun"}},
{"type":"Feature","geometry":{"type":"Point","coordinates":[114.240343,30.6446]},"properties":{"name":"常青阁棋牌馆","xiaolei":"9378001","address":"","zhonglei":"9378","dalei":"6","type":"fun"}},
{"type":"Feature","geometry":{"type":"Point","coordinates":[114.240029,30.644426]},"properties":{"name":"爱浪网吧","xiaolei":"9378001","address":"","zhonglei":"9378","dalei":"6","type":"fun"}},
{"type":"Feature","geometry":{"type":"Point","coordinates":[114.239932,30.644372]},"properties":{"name":"九九升棋牌","xiaolei":"9378001","address":"","zhonglei":"9378","dalei":"6","type":"fun"}},
{"type":"Feature","geometry":{"type":"Point","coordinates":[114.130131,30.602572]},"properties":{"name":"根聚地网络会所","xiaolei":"9378001","address":"惠安大道817号","zhonglei":"9378","dalei":"6","type":"fun"}},
{"type":"Feature","geometry":{"type":"Point","coordinates":[114.231255,30.647081]},"properties":{"name":"中青网络家园（有间店）","xiaolei":"9378001","address":"学府北路47号","zhonglei":"9378","dalei":"6","type":"fun"}},
{"type":"Feature","geometry":{"type":"Point","coordinates":[114.191127,30.630298]},"properties":{"name":"聚友轩","xiaolei":"9378001","address":"金银湖南街6附3","zhonglei":"9378","dalei":"6","type":"fun"}},
{"type":"Feature","geometry":{"type":"Point","coordinates":[114.137177,30.650526]},"properties":{"name":"鑫海·星网吧","xiaolei":"9378001","address":"吴北路200附30","zhonglei":"9378","dalei":"6","type":"fun"}},
{"type":"Feature","geometry":{"type":"Point","coordinates":[114.243752,30.625643]},"properties":{"name":"金鼎","xiaolei":"9378001","address":"","zhonglei":"9378","dalei":"6","type":"fun"}},
{"type":"Feature","geometry":{"type":"Point","coordinates":[114.243414,30.629308]},"properties":{"name":"品味棋牌","xiaolei":"9378001","address":"","zhonglei":"9378","dalei":"6","type":"fun"}},
{"type":"Feature","geometry":{"type":"Point","coordinates":[114.249466,30.63054]},"properties":{"name":"悠话网络会所（天合网吧店）","xiaolei":"9378001","address":"新湾五路143","zhonglei":"9378","dalei":"6","type":"fun"}},
{"type":"Feature","geometry":{"type":"Point","coordinates":[114.240017,30.630052]},"properties":{"name":"梦幻动感地带","xiaolei":"9378001","address":"","zhonglei":"9378","dalei":"6","type":"fun"}},
{"type":"Feature","geometry":{"type":"Point","coordinates":[114.246633,30.633748]},"properties":{"name":"聪赢萱阁","xiaolei":"9378001","address":"长港路305","zhonglei":"9378","dalei":"6","type":"fun"}},
{"type":"Feature","geometry":{"type":"Point","coordinates":[114.243065,30.613566]},"properties":{"name":"金箭网吧","xiaolei":"9378001","address":"发展大道296号","zhonglei":"9378","dalei":"6","type":"fun"}},
{"type":"Feature","geometry":{"type":"Point","coordinates":[114.232856,30.609076]},"properties":{"name":"名都会所","xiaolei":"9378001","address":"发展大道34号","zhonglei":"9378","dalei":"6","type":"fun"}},
{"type":"Feature","geometry":{"type":"Point","coordinates":[114.245411,30.5867]},"properties":{"name":"清水湾壹号公馆","xiaolei":"9378005","address":"建设大道439号湖北商业广场","zhonglei":"9378","dalei":"6","type":"fun"}},
{"type":"Feature","geometry":{"type":"Point","coordinates":[114.22278,30.5869]},"properties":{"name":"情感网吧","xiaolei":"9378001","address":"建设大道135号","zhonglei":"9378","dalei":"6","type":"fun"}},
{"type":"Feature","geometry":{"type":"Point","coordinates":[114.245066,30.586036]},"properties":{"name":"水云间洗浴","xiaolei":"9378005","address":"建设大道322","zhonglei":"9378","dalei":"6","type":"fun"}},
{"type":"Feature","geometry":{"type":"Point","coordinates":[114.246951,30.585954]},"properties":{"name":"玉指仙界（武汉云都店）","xiaolei":"9378005","address":"宝丰路105号","zhonglei":"9378","dalei":"6","type":"fun"}},
{"type":"Feature","geometry":{"type":"Point","coordinates":[114.194266,30.607742]},"properties":{"name":"玖零会所","xiaolei":"9378005","address":"长升路22","zhonglei":"9378","dalei":"6","type":"fun"}},
{"type":"Feature","geometry":{"type":"Point","coordinates":[114.208638,30.598965]},"properties":{"name":"雅阁棋牌会所","xiaolei":"9378001","address":"古田四路45附4","zhonglei":"9378","dalei":"6","type":"fun"}},
{"type":"Feature","geometry":{"type":"Point","coordinates":[114.211032,30.608344]},"properties":{"name":"手足情沐足","xiaolei":"9378005","address":"","zhonglei":"9378","dalei":"6","type":"fun"}},
{"type":"Feature","geometry":{"type":"Point","coordinates":[114.211413,30.609408]},"properties":{"name":"动力无限电玩城","xiaolei":"9378001","address":"","zhonglei":"9378","dalei":"6","type":"fun"}},
{"type":"Feature","geometry":{"type":"Point","coordinates":[114.211429,30.609443]},"properties":{"name":"动力无限网吧","xiaolei":"9378001","address":"","zhonglei":"9378","dalei":"6","type":"fun"}},
{"type":"Feature","geometry":{"type":"Point","coordinates":[114.197762,30.600163]},"properties":{"name":"丹丹网吧","xiaolei":"9378001","address":"解放大道109附106号2层","zhonglei":"9378","dalei":"6","type":"fun"}},
{"type":"Feature","geometry":{"type":"Point","coordinates":[114.222099,30.586832]},"properties":{"name":"时代网吧","xiaolei":"9378001","address":"桥口区建设大道85号","zhonglei":"9378","dalei":"6","type":"fun"}},
{"type":"Feature","geometry":{"type":"Point","coordinates":[114.223542,30.60324]},"properties":{"name":"波士堂","xiaolei":"9378005","address":"汉西北路213号","zhonglei":"9378","dalei":"6","type":"fun"}},
{"type":"Feature","geometry":{"type":"Point","coordinates":[114.224846,30.605563]},"properties":{"name":"红上天动漫城","xiaolei":"9378001","address":"","zhonglei":"9378","dalei":"6","type":"fun"}},
{"type":"Feature","geometry":{"type":"Point","coordinates":[114.238582,30.615577]},"properties":{"name":"青船网吧","xiaolei":"9378001","address":"常展里377","zhonglei":"9378","dalei":"6","type":"fun"}},
{"type":"Feature","geometry":{"type":"Point","coordinates":[114.196205,30.597098]},"properties":{"name":"加州撞球吧","xiaolei":"9378006","address":"","zhonglei":"9378","dalei":"6","type":"fun"}},
{"type":"Feature","geometry":{"type":"Point","coordinates":[114.183705,30.616231]},"properties":{"name":"优佳网盟（乘风店）","xiaolei":"9378001","address":"长风路10号","zhonglei":"9378","dalei":"6","type":"fun"}},
{"type":"Feature","geometry":{"type":"Point","coordinates":[114.211544,30.612043]},"properties":{"name":"莲满棋牌室","xiaolei":"9378001","address":"","zhonglei":"9378","dalei":"6","type":"fun"}},
{"type":"Feature","geometry":{"type":"Point","coordinates":[114.207957,30.610412]},"properties":{"name":"星光灿烂电玩城","xiaolei":"9378001","address":"长丰村96号附近","zhonglei":"9378","dalei":"6","type":"fun"}},
{"type":"Feature","geometry":{"type":"Point","coordinates":[114.185626,30.613126]},"properties":{"name":"双龙网吧","xiaolei":"9378001","address":"长丰大道东风村","zhonglei":"9378","dalei":"6","type":"fun"}},
{"type":"Feature","geometry":{"type":"Point","coordinates":[114.216744,30.585262]},"properties":{"name":"水晶网吧","xiaolei":"9378001","address":"简易路85号","zhonglei":"9378","dalei":"6","type":"fun"}},
{"type":"Feature","geometry":{"type":"Point","coordinates":[114.229159,30.640897]},"properties":{"name":"君禾星牌台球俱乐部","xiaolei":"9378006","address":"中环路","zhonglei":"9378","dalei":"6","type":"fun"}},
{"type":"Feature","geometry":{"type":"Point","coordinates":[114.152223,30.638287]},"properties":{"name":"赛洛健康会馆","xiaolei":"9378005","address":"","zhonglei":"9378","dalei":"6","type":"fun"}},
{"type":"Feature","geometry":{"type":"Point","coordinates":[114.212868,30.587905]},"properties":{"name":"家富富侨（解放大道）","xiaolei":"9378005","address":"解放大道172附17","zhonglei":"9378","dalei":"6","type":"fun"}},
{"type":"Feature","geometry":{"type":"Point","coordinates":[114.243155,30.627912]},"properties":{"name":"钰茗缘","xiaolei":"9378001","address":"","zhonglei":"9378","dalei":"6","type":"fun"}},
{"type":"Feature","geometry":{"type":"Point","coordinates":[114.224805,30.605493]},"properties":{"name":"威威时代网吧","xiaolei":"9378001","address":"常码头100号附近","zhonglei":"9378","dalei":"6","type":"fun"}},
{"type":"Feature","geometry":{"type":"Point","coordinates":[114.187687,30.596451]},"properties":{"name":"海飞网吧","xiaolei":"9378001","address":"古田二路54附5","zhonglei":"9378","dalei":"6","type":"fun"}},
{"type":"Feature","geometry":{"type":"Point","coordinates":[114.149992,30.604099]},"properties":{"name":"天地阳光网吧","xiaolei":"9378001","address":"朝阳路126","zhonglei":"9378","dalei":"6","type":"fun"}},
{"type":"Feature","geometry":{"type":"Point","coordinates":[114.135366,30.626313]},"properties":{"name":"嘉华电玩城","xiaolei":"9378001","address":"东吴大道895","zhonglei":"9378","dalei":"6","type":"fun"}},
{"type":"Feature","geometry":{"type":"Point","coordinates":[114.131391,30.630636]},"properties":{"name":"五环大澡堂","xiaolei":"9378005","address":"吴北路28","zhonglei":"9378","dalei":"6","type":"fun"}},
{"type":"Feature","geometry":{"type":"Point","coordinates":[114.131786,30.631161]},"properties":{"name":"今生缘足疗推拿馆","xiaolei":"9378005","address":"","zhonglei":"9378","dalei":"6","type":"fun"}},
{"type":"Feature","geometry":{"type":"Point","coordinates":[114.134893,30.620266]},"properties":{"name":"温泰港休闲会所","xiaolei":"9378005","address":"东西湖大道6155","zhonglei":"9378","dalei":"6","type":"fun"}},
{"type":"Feature","geometry":{"type":"Point","coordinates":[114.136235,30.624868]},"properties":{"name":"名仕","xiaolei":"9378006","address":"北冰洋城市广场","zhonglei":"9378","dalei":"6","type":"fun"}},
{"type":"Feature","geometry":{"type":"Point","coordinates":[114.139075,30.62303]},"properties":{"name":"时代电玩城（田园街）","xiaolei":"9378001","address":"吴家山三支沟田园街262号","zhonglei":"9378","dalei":"6","type":"fun"}},
{"type":"Feature","geometry":{"type":"Point","coordinates":[114.137014,30.622322]},"properties":{"name":"福康足疗养生馆","xiaolei":"9378005","address":"田园南路1","zhonglei":"9378","dalei":"6","type":"fun"}},
{"type":"Feature","geometry":{"type":"Point","coordinates":[114.137213,30.622346]},"properties":{"name":"木子韩式汗蒸","xiaolei":"9378005","address":"田园南路3","zhonglei":"9378","dalei":"6","type":"fun"}},
{"type":"Feature","geometry":{"type":"Point","coordinates":[114.207722,30.591086]},"properties":{"name":"长和蓝天足浴","xiaolei":"9378005","address":"古田四路","zhonglei":"9378","dalei":"6","type":"fun"}},
{"type":"Feature","geometry":{"type":"Point","coordinates":[114.215128,30.603088]},"properties":{"name":"风华养生足道","xiaolei":"9378005","address":"汉西二路特5号风华时尚酒店","zhonglei":"9378","dalei":"6","type":"fun"}},
{"type":"Feature","geometry":{"type":"Point","coordinates":[114.242008,30.58539]},"properties":{"name":"七代祖传膏贴（武汉市总店）","xiaolei":"9378005","address":"营房路199附9","zhonglei":"9378","dalei":"6","type":"fun"}},
{"type":"Feature","geometry":{"type":"Point","coordinates":[114.243212,30.584622]},"properties":{"name":"硚口区侨界人士活动中心","xiaolei":"9378001","address":"","zhonglei":"9378","dalei":"6","type":"fun"}},
{"type":"Feature","geometry":{"type":"Point","coordinates":[114.245371,30.586063]},"properties":{"name":"金池会所","xiaolei":"9378005","address":"","zhonglei":"9378","dalei":"6","type":"fun"}},
{"type":"Feature","geometry":{"type":"Point","coordinates":[114.227753,30.588329]},"properties":{"name":"硚口区台胞台属联谊会活动基地","xiaolei":"9378001","address":"汉西路210","zhonglei":"9378","dalei":"6","type":"fun"}},
{"type":"Feature","geometry":{"type":"Point","coordinates":[114.197644,30.600425]},"properties":{"name":"无极限","xiaolei":"9378001","address":"解放大道109附109","zhonglei":"9378","dalei":"6","type":"fun"}},
{"type":"Feature","geometry":{"type":"Point","coordinates":[114.247592,30.587525]},"properties":{"name":"唐人水会","xiaolei":"9378005","address":"建设大道455","zhonglei":"9378","dalei":"6","type":"fun"}},
{"type":"Feature","geometry":{"type":"Point","coordinates":[114.24682,30.587002]},"properties":{"name":"松滋会所","xiaolei":"9378001","address":"建设大道447","zhonglei":"9378","dalei":"6","type":"fun"}},
{"type":"Feature","geometry":{"type":"Point","coordinates":[114.2367,30.609148]},"properties":{"name":"京萍按摩中心","xiaolei":"9378005","address":"","zhonglei":"9378","dalei":"6","type":"fun"}},
{"type":"Feature","geometry":{"type":"Point","coordinates":[114.234915,30.60963]},"properties":{"name":"温の都ＳＰＡ休闲会所","xiaolei":"9378005","address":"","zhonglei":"9378","dalei":"6","type":"fun"}},
{"type":"Feature","geometry":{"type":"Point","coordinates":[114.127186,30.621539]},"properties":{"name":"六顺会所","xiaolei":"9378005","address":"六顺路378号","zhonglei":"9378","dalei":"6","type":"fun"}},
{"type":"Feature","geometry":{"type":"Point","coordinates":[114.127391,30.626702]},"properties":{"name":"大韩式汗蒸","xiaolei":"9378005","address":"东吴大道682号3层","zhonglei":"9378","dalei":"6","type":"fun"}},
{"type":"Feature","geometry":{"type":"Point","coordinates":[114.140231,30.626421]},"properties":{"name":"巨惠港台球棋牌俱乐部","xiaolei":"9378006","address":"","zhonglei":"9378","dalei":"6","type":"fun"}},
{"type":"Feature","geometry":{"type":"Point","coordinates":[114.143821,30.625387]},"properties":{"name":"雅轩足浴","xiaolei":"9378005","address":"东吴大道1143号","zhonglei":"9378","dalei":"6","type":"fun"}},
{"type":"Feature","geometry":{"type":"Point","coordinates":[114.247385,30.626159]},"properties":{"name":"茗雅居足浴馆","xiaolei":"9378005","address":"","zhonglei":"9378","dalei":"6","type":"fun"}},
{"type":"Feature","geometry":{"type":"Point","coordinates":[114.24828,30.636429]},"properties":{"name":"雅居足疗","xiaolei":"9378005","address":"新湾路150","zhonglei":"9378","dalei":"6","type":"fun"}},
{"type":"Feature","geometry":{"type":"Point","coordinates":[114.241882,30.632118]},"properties":{"name":"正源沐足","xiaolei":"9378005","address":"","zhonglei":"9378","dalei":"6","type":"fun"}},
{"type":"Feature","geometry":{"type":"Point","coordinates":[114.247441,30.635653]},"properties":{"name":"黛仙妮","xiaolei":"9378005","address":"新湾五路211","zhonglei":"9378","dalei":"6","type":"fun"}},
{"type":"Feature","geometry":{"type":"Point","coordinates":[114.241516,30.631615]},"properties":{"name":"雨露会","xiaolei":"9378005","address":"","zhonglei":"9378","dalei":"6","type":"fun"}},
{"type":"Feature","geometry":{"type":"Point","coordinates":[114.249581,30.629496]},"properties":{"name":"今生有约足疗","xiaolei":"9378005","address":"常青三路101","zhonglei":"9378","dalei":"6","type":"fun"}},
{"type":"Feature","geometry":{"type":"Point","coordinates":[114.249161,30.62941]},"properties":{"name":"富扬沐足养生馆","xiaolei":"9378005","address":"常青三路85-87","zhonglei":"9378","dalei":"6","type":"fun"}},
{"type":"Feature","geometry":{"type":"Point","coordinates":[114.242279,30.627746]},"properties":{"name":"红森林足道棋牌","xiaolei":"9378005","address":"","zhonglei":"9378","dalei":"6","type":"fun"}},
{"type":"Feature","geometry":{"type":"Point","coordinates":[114.241032,30.624853]},"properties":{"name":"超艺足浴","xiaolei":"9378005","address":"","zhonglei":"9378","dalei":"6","type":"fun"}},
{"type":"Feature","geometry":{"type":"Point","coordinates":[114.243162,30.627586]},"properties":{"name":"雅皮仕男士养生会所","xiaolei":"9378005","address":"常青三路","zhonglei":"9378","dalei":"6","type":"fun"}},
{"type":"Feature","geometry":{"type":"Point","coordinates":[114.136013,30.618371]},"properties":{"name":"金湖大浴场","xiaolei":"9378005","address":"吴家山四明路国道","zhonglei":"9378","dalei":"6","type":"fun"}},
{"type":"Feature","geometry":{"type":"Point","coordinates":[114.1313,30.615131]},"properties":{"name":"水云天商务会所","xiaolei":"9378005","address":"革新大道2号","zhonglei":"9378","dalei":"6","type":"fun"}},
{"type":"Feature","geometry":{"type":"Point","coordinates":[114.148446,30.620826]},"properties":{"name":"重庆富侨健康会所","xiaolei":"9378005","address":"","zhonglei":"9378","dalei":"6","type":"fun"}},
{"type":"Feature","geometry":{"type":"Point","coordinates":[114.198366,30.594229]},"properties":{"name":"银湖足浴会所","xiaolei":"9378005","address":"古田三路4号","zhonglei":"9378","dalei":"6","type":"fun"}},
{"type":"Feature","geometry":{"type":"Point","coordinates":[114.246189,30.649685]},"properties":{"name":"舒情阁足疗保健","xiaolei":"9378005","address":"","zhonglei":"9378","dalei":"6","type":"fun"}},
{"type":"Feature","geometry":{"type":"Point","coordinates":[114.217008,30.585213]},"properties":{"name":"浩翔动漫城","xiaolei":"9378001","address":"","zhonglei":"9378","dalei":"6","type":"fun"}},
{"type":"Feature","geometry":{"type":"Point","coordinates":[114.231812,30.641479]},"properties":{"name":"大唐贵足保健足浴","xiaolei":"9378005","address":"","zhonglei":"9378","dalei":"6","type":"fun"}},
{"type":"Feature","geometry":{"type":"Point","coordinates":[114.249949,30.650495]},"properties":{"name":"鑫雅轩","xiaolei":"9378005","address":"将军一路70","zhonglei":"9378","dalei":"6","type":"fun"}},
{"type":"Feature","geometry":{"type":"Point","coordinates":[114.135885,30.620993]},"properties":{"name":"龙源沐足","xiaolei":"9378005","address":"","zhonglei":"9378","dalei":"6","type":"fun"}},
{"type":"Feature","geometry":{"type":"Point","coordinates":[114.249777,30.650849]},"properties":{"name":"飞扬网吧","xiaolei":"9378001","address":"将军一路86","zhonglei":"9378","dalei":"6","type":"fun"}},
{"type":"Feature","geometry":{"type":"Point","coordinates":[114.213933,30.609702]},"properties":{"name":"天尊足浴城","xiaolei":"9378005","address":"","zhonglei":"9378","dalei":"6","type":"fun"}},
{"type":"Feature","geometry":{"type":"Point","coordinates":[114.237494,30.621294]},"properties":{"name":"银兴网吧（神奇分店）","xiaolei":"9378001","address":"","zhonglei":"9378","dalei":"6","type":"fun"}},
{"type":"Feature","geometry":{"type":"Point","coordinates":[114.139058,30.628715]},"properties":{"name":"长江网点网吧吴家山网城","xiaolei":"9378001","address":"吴祁街115","zhonglei":"9378","dalei":"6","type":"fun"}},
{"type":"Feature","geometry":{"type":"Point","coordinates":[114.132816,30.626631]},"properties":{"name":"骏宇网吧","xiaolei":"9378001","address":"东吴大道825","zhonglei":"9378","dalei":"6","type":"fun"}},
{"type":"Feature","geometry":{"type":"Point","coordinates":[114.229865,30.641087]},"properties":{"name":"云龙网吧","xiaolei":"9378001","address":"常青花园中路32附4","zhonglei":"9378","dalei":"6","type":"fun"}},
{"type":"Feature","geometry":{"type":"Point","coordinates":[114.23175,30.641375]},"properties":{"name":"女人花足疗休闲","xiaolei":"9378005","address":"常青花园中路50附6","zhonglei":"9378","dalei":"6","type":"fun"}},
{"type":"Feature","geometry":{"type":"Point","coordinates":[114.133895,30.631638]},"properties":{"name":"樱花足道","xiaolei":"9378005","address":"吴中街247","zhonglei":"9378","dalei":"6","type":"fun"}},
{"type":"Feature","geometry":{"type":"Point","coordinates":[114.229622,30.624398]},"properties":{"name":"江汉路网吧","xiaolei":"9378001","address":"江发路5附6","zhonglei":"9378","dalei":"6","type":"fun"}},
{"type":"Feature","geometry":{"type":"Point","coordinates":[114.232167,30.641354]},"properties":{"name":"八度空间网吧","xiaolei":"9378001","address":"常青花园中路52附9","zhonglei":"9378","dalei":"6","type":"fun"}},
{"type":"Feature","geometry":{"type":"Point","coordinates":[114.131566,30.630784]},"properties":{"name":"正元网吧","xiaolei":"9378001","address":"吴北路42","zhonglei":"9378","dalei":"6","type":"fun"}},
{"type":"Feature","geometry":{"type":"Point","coordinates":[114.133652,30.63086]},"properties":{"name":"莫愁港湾","xiaolei":"9378001","address":"吴中街350","zhonglei":"9378","dalei":"6","type":"fun"}},
{"type":"Feature","geometry":{"type":"Point","coordinates":[114.12564,30.623381]},"properties":{"name":"金顶糊","xiaolei":"9378001","address":"枫林路9","zhonglei":"9378","dalei":"6","type":"fun"}},
{"type":"Feature","geometry":{"type":"Point","coordinates":[114.141858,30.625971]},"properties":{"name":"快乐棋牌","xiaolei":"9378001","address":"梨花园路15","zhonglei":"9378","dalei":"6","type":"fun"}},
{"type":"Feature","geometry":{"type":"Point","coordinates":[114.248669,30.630868]},"properties":{"name":"广源棋牌","xiaolei":"9378001","address":"常青五路86","zhonglei":"9378","dalei":"6","type":"fun"}},
{"type":"Feature","geometry":{"type":"Point","coordinates":[114.19751,30.599755]},"properties":{"name":"鸿运发棋牌","xiaolei":"9378001","address":"解放大道109附91","zhonglei":"9378","dalei":"6","type":"fun"}},
{"type":"Feature","geometry":{"type":"Point","coordinates":[114.215192,30.586694]},"properties":{"name":"水晶阁","xiaolei":"9378005","address":"解放大道182附8","zhonglei":"9378","dalei":"6","type":"fun"}},
{"type":"Feature","geometry":{"type":"Point","coordinates":[114.208559,30.595615]},"properties":{"name":"转运棋牌简餐","xiaolei":"9378001","address":"古田四路32附27","zhonglei":"9378","dalei":"6","type":"fun"}},
{"type":"Feature","geometry":{"type":"Point","coordinates":[114.176189,30.614459]},"properties":{"name":"银河动力网吧","xiaolei":"9378001","address":"","zhonglei":"9378","dalei":"6","type":"fun"}},
{"type":"Feature","geometry":{"type":"Point","coordinates":[114.237138,30.607801]},"properties":{"name":"亦蒸足疗馆（复兴村店）","xiaolei":"9378005","address":"振兴路17","zhonglei":"9378","dalei":"6","type":"fun"}},
{"type":"Feature","geometry":{"type":"Point","coordinates":[114.131314,30.634721]},"properties":{"name":"春雨轩棋牌室","xiaolei":"9378001","address":"五环大道330","zhonglei":"9378","dalei":"6","type":"fun"}},
{"type":"Feature","geometry":{"type":"Point","coordinates":[114.210872,30.610255]},"properties":{"name":"通点顺网吧","xiaolei":"9378001","address":"","zhonglei":"9378","dalei":"6","type":"fun"}},
{"type":"Feature","geometry":{"type":"Point","coordinates":[114.127503,30.624256]},"properties":{"name":"常青棋牌室","xiaolei":"9378001","address":"六顺路110号附近","zhonglei":"9378","dalei":"6","type":"fun"}},
{"type":"Feature","geometry":{"type":"Point","coordinates":[114.145186,30.62738]},"properties":{"name":"汉宫足疗城","xiaolei":"9378005","address":"二雅路126号附近","zhonglei":"9378","dalei":"6","type":"fun"}},
{"type":"Feature","geometry":{"type":"Point","coordinates":[114.179173,30.613327]},"properties":{"name":"宾狮熊网吧","xiaolei":"9378001","address":"长丰大道86号附近","zhonglei":"9378","dalei":"6","type":"fun"}},
{"type":"Feature","geometry":{"type":"Point","coordinates":[114.194375,30.612284]},"properties":{"name":"亚飞网吧","xiaolei":"9378001","address":"","zhonglei":"9378","dalei":"6","type":"fun"}},
{"type":"Feature","geometry":{"type":"Point","coordinates":[114.130481,30.625635]},"properties":{"name":"星网吧（五环店）","xiaolei":"9378001","address":"","zhonglei":"9378","dalei":"6","type":"fun"}},
{"type":"Feature","geometry":{"type":"Point","coordinates":[114.227936,30.608696]},"properties":{"name":"丹丹网吧","xiaolei":"9378001","address":"发展大道7","zhonglei":"9378","dalei":"6","type":"fun"}},
{"type":"Feature","geometry":{"type":"Point","coordinates":[114.241491,30.615705]},"properties":{"name":"鑫华坤网吧（欧罗巴店）","xiaolei":"9378001","address":"","zhonglei":"9378","dalei":"6","type":"fun"}},
{"type":"Feature","geometry":{"type":"Point","coordinates":[114.127355,30.617613]},"properties":{"name":"飞跃网吧","xiaolei":"9378001","address":"","zhonglei":"9378","dalei":"6","type":"fun"}},
{"type":"Feature","geometry":{"type":"Point","coordinates":[114.211863,30.605691]},"properties":{"name":"新达网吧","xiaolei":"9378001","address":"古田四路280号附近","zhonglei":"9378","dalei":"6","type":"fun"}},
{"type":"Feature","geometry":{"type":"Point","coordinates":[114.197225,30.612309]},"properties":{"name":"西元网吧","xiaolei":"9378001","address":"","zhonglei":"9378","dalei":"6","type":"fun"}},
{"type":"Feature","geometry":{"type":"Point","coordinates":[114.224203,30.620227]},"properties":{"name":"聚友棋牌茶坊","xiaolei":"9378001","address":"江达路15号附近","zhonglei":"9378","dalei":"6","type":"fun"}},
{"type":"Feature","geometry":{"type":"Point","coordinates":[114.238249,30.612159]},"properties":{"name":"中青循礼门网吧","xiaolei":"9378001","address":"","zhonglei":"9378","dalei":"6","type":"fun"}},
{"type":"Feature","geometry":{"type":"Point","coordinates":[114.183265,30.613625]},"properties":{"name":"时代广场网吧","xiaolei":"9378001","address":"","zhonglei":"9378","dalei":"6","type":"fun"}},
{"type":"Feature","geometry":{"type":"Point","coordinates":[114.23163,30.641402]},"properties":{"name":"姐妹棋牌","xiaolei":"9378001","address":"常青花园中路48-1号附近","zhonglei":"9378","dalei":"6","type":"fun"}},
{"type":"Feature","geometry":{"type":"Point","coordinates":[114.164769,30.610796]},"properties":{"name":"新新代网吧","xiaolei":"9378001","address":"联谊路18-4号附近","zhonglei":"9378","dalei":"6","type":"fun"}},
{"type":"Feature","geometry":{"type":"Point","coordinates":[114.135386,30.625337]},"properties":{"name":"飞龙网吧","xiaolei":"9378001","address":"五丰街115号附近","zhonglei":"9378","dalei":"6","type":"fun"}},
{"type":"Feature","geometry":{"type":"Point","coordinates":[114.193042,30.612423]},"properties":{"name":"６·６休闲会所","xiaolei":"9378001","address":"","zhonglei":"9378","dalei":"6","type":"fun"}},
{"type":"Feature","geometry":{"type":"Point","coordinates":[114.148209,30.631271]},"properties":{"name":"人和牌友会所","xiaolei":"9378001","address":"吴中街594","zhonglei":"9378","dalei":"6","type":"fun"}},
{"type":"Feature","geometry":{"type":"Point","coordinates":[114.209641,30.600585]},"properties":{"name":"鑫乐棋牌","xiaolei":"9378001","address":"古田四路38附7","zhonglei":"9378","dalei":"6","type":"fun"}},
{"type":"Feature","geometry":{"type":"Point","coordinates":[114.190891,30.602312]},"properties":{"name":"新东方足浴保健","xiaolei":"9378005","address":"解放大道55附15","zhonglei":"9378","dalei":"6","type":"fun"}},
{"type":"Feature","geometry":{"type":"Point","coordinates":[114.207929,30.596373]},"properties":{"name":"宏祥棋牌","xiaolei":"9378001","address":"古田四路27附8","zhonglei":"9378","dalei":"6","type":"fun"}},
{"type":"Feature","geometry":{"type":"Point","coordinates":[114.206098,30.590391]},"properties":{"name":"莫名棋妙棋牌","xiaolei":"9378001","address":"古田四路9附39","zhonglei":"9378","dalei":"6","type":"fun"}},
{"type":"Feature","geometry":{"type":"Point","coordinates":[114.231344,30.641541]},"properties":{"name":"银雀棋牌","xiaolei":"9378001","address":"常青花园中路46附1","zhonglei":"9378","dalei":"6","type":"fun"}},
{"type":"Feature","geometry":{"type":"Point","coordinates":[114.205632,30.59162]},"properties":{"name":"温顺足浴","xiaolei":"9378005","address":"解放大道110附11","zhonglei":"9378","dalei":"6","type":"fun"}},
{"type":"Feature","geometry":{"type":"Point","coordinates":[114.195983,30.604321]},"properties":{"name":"正康足道","xiaolei":"9378005","address":"南泥湾大道77","zhonglei":"9378","dalei":"6","type":"fun"}},
{"type":"Feature","geometry":{"type":"Point","coordinates":[114.191389,30.603002]},"properties":{"name":"迎宾棋牌室","xiaolei":"9378001","address":"解放大道55-25号附近","zhonglei":"9378","dalei":"6","type":"fun"}},
{"type":"Feature","geometry":{"type":"Point","coordinates":[114.223442,30.586454]},"properties":{"name":"中青网络家园博雅网吧","xiaolei":"9378001","address":"新合后街105号附近","zhonglei":"9378","dalei":"6","type":"fun"}},
{"type":"Feature","geometry":{"type":"Point","coordinates":[114.220494,30.65554]},"properties":{"name":"新浩瀚网吧","xiaolei":"9378001","address":"马池路1-69号附近","zhonglei":"9378","dalei":"6","type":"fun"}},
{"type":"Feature","geometry":{"type":"Point","coordinates":[114.239875,30.644438]},"properties":{"name":"中青网络家园爱浪网吧","xiaolei":"9378001","address":"常青花园中路539","zhonglei":"9378","dalei":"6","type":"fun"}},
{"type":"Feature","geometry":{"type":"Point","coordinates":[114.233364,30.618948]},"properties":{"name":"沁园春网吧","xiaolei":"9378001","address":"","zhonglei":"9378","dalei":"6","type":"fun"}},
{"type":"Feature","geometry":{"type":"Point","coordinates":[114.24286,30.585701]},"properties":{"name":"新悦网吧","xiaolei":"9378001","address":"","zhonglei":"9378","dalei":"6","type":"fun"}},
{"type":"Feature","geometry":{"type":"Point","coordinates":[114.15418,30.651391]},"properties":{"name":"田园网络会所","xiaolei":"9378001","address":"","zhonglei":"9378","dalei":"6","type":"fun"}},
{"type":"Feature","geometry":{"type":"Point","coordinates":[114.183849,30.612707]},"properties":{"name":"长丰阁足疗","xiaolei":"9378005","address":"","zhonglei":"9378","dalei":"6","type":"fun"}},
{"type":"Feature","geometry":{"type":"Point","coordinates":[114.138924,30.62344]},"properties":{"name":"华欣韩式汗蒸馆","xiaolei":"9378005","address":"","zhonglei":"9378","dalei":"6","type":"fun"}},
{"type":"Feature","geometry":{"type":"Point","coordinates":[114.13197,30.6204]},"properties":{"name":"双龙韩式汉蒸生活馆","xiaolei":"9378005","address":"","zhonglei":"9378","dalei":"6","type":"fun"}},
{"type":"Feature","geometry":{"type":"Point","coordinates":[114.211297,30.613999]},"properties":{"name":"温顺阁沐足","xiaolei":"9378005","address":"","zhonglei":"9378","dalei":"6","type":"fun"}},
{"type":"Feature","geometry":{"type":"Point","coordinates":[114.209077,30.596127]},"properties":{"name":"圆梦棋牌","xiaolei":"9378001","address":"","zhonglei":"9378","dalei":"6","type":"fun"}},
{"type":"Feature","geometry":{"type":"Point","coordinates":[114.191389,30.60835]},"properties":{"name":"新云会所","xiaolei":"9378001","address":"","zhonglei":"9378","dalei":"6","type":"fun"}},
{"type":"Feature","geometry":{"type":"Point","coordinates":[114.208829,30.610508]},"properties":{"name":"温雅阁足浴","xiaolei":"9378005","address":"","zhonglei":"9378","dalei":"6","type":"fun"}},
{"type":"Feature","geometry":{"type":"Point","coordinates":[114.125433,30.627275]},"properties":{"name":"完美足疗棋牌休闲中心","xiaolei":"9378005","address":"","zhonglei":"9378","dalei":"6","type":"fun"}},
{"type":"Feature","geometry":{"type":"Point","coordinates":[114.197907,30.59597]},"properties":{"name":"路道足道（古田店）","xiaolei":"9378005","address":"","zhonglei":"9378","dalei":"6","type":"fun"}},
{"type":"Feature","geometry":{"type":"Point","coordinates":[114.208169,30.614424]},"properties":{"name":"张从贵中医推拿沐足","xiaolei":"9378005","address":"","zhonglei":"9378","dalei":"6","type":"fun"}},
{"type":"Feature","geometry":{"type":"Point","coordinates":[114.140556,30.613255]},"properties":{"name":"鑫东方网吧","xiaolei":"9378001","address":"","zhonglei":"9378","dalei":"6","type":"fun"}},
{"type":"Feature","geometry":{"type":"Point","coordinates":[114.208292,30.594325]},"properties":{"name":"温雅轩足浴","xiaolei":"9378005","address":"","zhonglei":"9378","dalei":"6","type":"fun"}},
{"type":"Feature","geometry":{"type":"Point","coordinates":[114.23733,30.630726]},"properties":{"name":"雅怡棋牌会所","xiaolei":"9378001","address":"","zhonglei":"9378","dalei":"6","type":"fun"}},
{"type":"Feature","geometry":{"type":"Point","coordinates":[114.185192,30.594099]},"properties":{"name":"讯达网络","xiaolei":"9378001","address":"","zhonglei":"9378","dalei":"6","type":"fun"}},
{"type":"Feature","geometry":{"type":"Point","coordinates":[114.241299,30.609306]},"properties":{"name":"星网咖","xiaolei":"9378001","address":"","zhonglei":"9378","dalei":"6","type":"fun"}},
{"type":"Feature","geometry":{"type":"Point","coordinates":[114.19467,30.597429]},"properties":{"name":"动漫网吧","xiaolei":"9378001","address":"","zhonglei":"9378","dalei":"6","type":"fun"}},
{"type":"Feature","geometry":{"type":"Point","coordinates":[114.234123,30.61876]},"properties":{"name":"中青网络家园（沁园春店）","xiaolei":"9378001","address":"","zhonglei":"9378","dalei":"6","type":"fun"}},
{"type":"Feature","geometry":{"type":"Point","coordinates":[114.242622,30.617906]},"properties":{"name":"梅雪网吧","xiaolei":"9378001","address":"","zhonglei":"9378","dalei":"6","type":"fun"}},
{"type":"Feature","geometry":{"type":"Point","coordinates":[114.280059,30.589719]},"properties":{"name":"天浪（解放大道）","xiaolei":"9378005","address":"","zhonglei":"9378","dalei":"6","type":"fun"}},
{"type":"Feature","geometry":{"type":"Point","coordinates":[114.279017,30.589031]},"properties":{"name":"银通网吧","xiaolei":"9378001","address":"解放大道1415号","zhonglei":"9378","dalei":"6","type":"fun"}},
{"type":"Feature","geometry":{"type":"Point","coordinates":[114.271137,30.592444]},"properties":{"name":"康源足浴","xiaolei":"9378005","address":"江汉北路167号","zhonglei":"9378","dalei":"6","type":"fun"}},
{"type":"Feature","geometry":{"type":"Point","coordinates":[114.270802,30.590771]},"properties":{"name":"家富富侨足浴","xiaolei":"9378005","address":"新华路186附22","zhonglei":"9378","dalei":"6","type":"fun"}},
{"type":"Feature","geometry":{"type":"Point","coordinates":[114.272561,30.591741]},"properties":{"name":"华纳网吧","xiaolei":"9378001","address":"","zhonglei":"9378","dalei":"6","type":"fun"}},
{"type":"Feature","geometry":{"type":"Point","coordinates":[114.268546,30.595293]},"properties":{"name":"食友商务会所","xiaolei":"9378001","address":"新华路316号良友大厦30层","zhonglei":"9378","dalei":"6","type":"fun"}},
{"type":"Feature","geometry":{"type":"Point","coordinates":[114.274553,30.595254]},"properties":{"name":"向氏按摩专科","xiaolei":"9378005","address":"台北一路78号","zhonglei":"9378","dalei":"6","type":"fun"}},
{"type":"Feature","geometry":{"type":"Point","coordinates":[114.274891,30.595129]},"properties":{"name":"宝岛网吧","xiaolei":"9378001","address":"台北一路云林街74号","zhonglei":"9378","dalei":"6","type":"fun"}},
{"type":"Feature","geometry":{"type":"Point","coordinates":[114.277623,30.596698]},"properties":{"name":"超超网络会所（台北一路）","xiaolei":"9378001","address":"台北路91附7","zhonglei":"9378","dalei":"6","type":"fun"}},
{"type":"Feature","geometry":{"type":"Point","coordinates":[114.273069,30.598883]},"properties":{"name":"台北按摩（台北二路）","xiaolei":"9378005","address":"","zhonglei":"9378","dalei":"6","type":"fun"}},
{"type":"Feature","geometry":{"type":"Point","coordinates":[114.274643,30.599468]},"properties":{"name":"台北海景休闲会所","xiaolei":"9378005","address":"台北路153号武汉影城大楼","zhonglei":"9378","dalei":"6","type":"fun"}},
{"type":"Feature","geometry":{"type":"Point","coordinates":[114.290152,30.594639]},"properties":{"name":"聚龙湾足浴","xiaolei":"9378005","address":"京汉街143附2","zhonglei":"9378","dalei":"6","type":"fun"}},
{"type":"Feature","geometry":{"type":"Point","coordinates":[114.290695,30.59506]},"properties":{"name":"雅仕会所","xiaolei":"9378005","address":"京汉街147附7","zhonglei":"9378","dalei":"6","type":"fun"}},
{"type":"Feature","geometry":{"type":"Point","coordinates":[114.289476,30.59311]},"properties":{"name":"易通网吧（大智路）","xiaolei":"9378001","address":"大智路70","zhonglei":"9378","dalei":"6","type":"fun"}},
{"type":"Feature","geometry":{"type":"Point","coordinates":[114.285484,30.588914]},"properties":{"name":"福人得足疗","xiaolei":"9378005","address":"","zhonglei":"9378","dalei":"6","type":"fun"}},
{"type":"Feature","geometry":{"type":"Point","coordinates":[114.288514,30.589008]},"properties":{"name":"触电网吧","xiaolei":"9378001","address":"吉庆街160号","zhonglei":"9378","dalei":"6","type":"fun"}},
{"type":"Feature","geometry":{"type":"Point","coordinates":[114.287443,30.587556]},"properties":{"name":"月牙泉棋牌","xiaolei":"9378001","address":"崇善路11附6号2层","zhonglei":"9378","dalei":"6","type":"fun"}},
{"type":"Feature","geometry":{"type":"Point","coordinates":[114.286716,30.587939]},"properties":{"name":"顺康推拿按摩","xiaolei":"9378005","address":"崇善路12","zhonglei":"9378","dalei":"6","type":"fun"}},
{"type":"Feature","geometry":{"type":"Point","coordinates":[114.292948,30.590143]},"properties":{"name":"凯威（总部）","xiaolei":"9378005","address":"胜利街163","zhonglei":"9378","dalei":"6","type":"fun"}},
{"type":"Feature","geometry":{"type":"Point","coordinates":[114.294743,30.588393]},"properties":{"name":"品味人生","xiaolei":"9378005","address":"洞庭街66","zhonglei":"9378","dalei":"6","type":"fun"}},
{"type":"Feature","geometry":{"type":"Point","coordinates":[114.294997,30.588841]},"properties":{"name":"楚星桌球","xiaolei":"9378006","address":"洞庭街74号3层","zhonglei":"9378","dalei":"6","type":"fun"}},
{"type":"Feature","geometry":{"type":"Point","coordinates":[114.294909,30.587915]},"properties":{"name":"爱琴海（洞庭社区北）","xiaolei":"9378001","address":"兰陵路6号","zhonglei":"9378","dalei":"6","type":"fun"}},
{"type":"Feature","geometry":{"type":"Point","coordinates":[114.291914,30.588515]},"properties":{"name":"丽都水岸商务会所","xiaolei":"9378005","address":"合作路38","zhonglei":"9378","dalei":"6","type":"fun"}},
{"type":"Feature","geometry":{"type":"Point","coordinates":[114.290653,30.588296]},"properties":{"name":"绿色动力网吧（天津路店）","xiaolei":"9378001","address":"天津路64","zhonglei":"9378","dalei":"6","type":"fun"}},
{"type":"Feature","geometry":{"type":"Point","coordinates":[114.289271,30.584985]},"properties":{"name":"中青网络家园（胜利街）","xiaolei":"9378001","address":"胜利街43号","zhonglei":"9378","dalei":"6","type":"fun"}},
{"type":"Feature","geometry":{"type":"Point","coordinates":[114.293766,30.585658]},"properties":{"name":"全速网吧","xiaolei":"9378001","address":"天津路5","zhonglei":"9378","dalei":"6","type":"fun"}},
{"type":"Feature","geometry":{"type":"Point","coordinates":[114.293979,30.584518]},"properties":{"name":"长航职工文体活动中心","xiaolei":"9378001","address":"沿江大道145","zhonglei":"9378","dalei":"6","type":"fun"}},
{"type":"Feature","geometry":{"type":"Point","coordinates":[114.252873,30.589386]},"properties":{"name":"桃园网吧","xiaolei":"9378001","address":"航空路17附8","zhonglei":"9378","dalei":"6","type":"fun"}},
{"type":"Feature","geometry":{"type":"Point","coordinates":[114.253019,30.589389]},"properties":{"name":"金枝足浴会所（航空路旗舰店）","xiaolei":"9378005","address":"航空路17附5","zhonglei":"9378","dalei":"6","type":"fun"}},
{"type":"Feature","geometry":{"type":"Point","coordinates":[114.253935,30.588715]},"properties":{"name":"尔多网吧","xiaolei":"9378001","address":"航空路15附52","zhonglei":"9378","dalei":"6","type":"fun"}},
{"type":"Feature","geometry":{"type":"Point","coordinates":[114.253548,30.587976]},"properties":{"name":"穗顺网吧","xiaolei":"9378001","address":"宝丰二路93、97","zhonglei":"9378","dalei":"6","type":"fun"}},
{"type":"Feature","geometry":{"type":"Point","coordinates":[114.253481,30.587869]},"properties":{"name":"天宇网上行网吧","xiaolei":"9378001","address":"宝丰二路95","zhonglei":"9378","dalei":"6","type":"fun"}},
{"type":"Feature","geometry":{"type":"Point","coordinates":[114.256839,30.586936]},"properties":{"name":"聚友网吧（建筑村南）","xiaolei":"9378001","address":"航空路24","zhonglei":"9378","dalei":"6","type":"fun"}},
{"type":"Feature","geometry":{"type":"Point","coordinates":[114.256486,30.587167]},"properties":{"name":"原猫和老鼠网吧","xiaolei":"9378001","address":"","zhonglei":"9378","dalei":"6","type":"fun"}},
{"type":"Feature","geometry":{"type":"Point","coordinates":[114.25545,30.590256]},"properties":{"name":"旺兴浴池","xiaolei":"9378005","address":"航空小路24","zhonglei":"9378","dalei":"6","type":"fun"}},
{"type":"Feature","geometry":{"type":"Point","coordinates":[114.256285,30.590429]},"properties":{"name":"心语足疗","xiaolei":"9378005","address":"万松横路39附5","zhonglei":"9378","dalei":"6","type":"fun"}},
{"type":"Feature","geometry":{"type":"Point","coordinates":[114.25643,30.593675]},"properties":{"name":"米老鼠网吧","xiaolei":"9378001","address":"妙墩路8号","zhonglei":"9378","dalei":"6","type":"fun"}},
{"type":"Feature","geometry":{"type":"Point","coordinates":[114.25567,30.59472]},"properties":{"name":"杜卡美健康广场","xiaolei":"9378001","address":"建设大道494","zhonglei":"9378","dalei":"6","type":"fun"}},
{"type":"Feature","geometry":{"type":"Point","coordinates":[114.25564,30.593998]},"properties":{"name":"鑫程沐足馆","xiaolei":"9378005","address":"","zhonglei":"9378","dalei":"6","type":"fun"}},
{"type":"Feature","geometry":{"type":"Point","coordinates":[114.254093,30.58907]},"properties":{"name":"雅点网吧","xiaolei":"9378001","address":"航空路108","zhonglei":"9378","dalei":"6","type":"fun"}},
{"type":"Feature","geometry":{"type":"Point","coordinates":[114.25343,30.58955]},"properties":{"name":"天际休闲网吧","xiaolei":"9378001","address":"航空路118号","zhonglei":"9378","dalei":"6","type":"fun"}},
{"type":"Feature","geometry":{"type":"Point","coordinates":[114.26105,30.589441]},"properties":{"name":"在水一方万松分公司","xiaolei":"9378005","address":"万松园路139","zhonglei":"9378","dalei":"6","type":"fun"}},
{"type":"Feature","geometry":{"type":"Point","coordinates":[114.262063,30.589209]},"properties":{"name":"月光樱花","xiaolei":"9378005","address":"万松园路133","zhonglei":"9378","dalei":"6","type":"fun"}},
{"type":"Feature","geometry":{"type":"Point","coordinates":[114.262312,30.588269]},"properties":{"name":"希望网吧","xiaolei":"9378001","address":"万松园路107","zhonglei":"9378","dalei":"6","type":"fun"}},
{"type":"Feature","geometry":{"type":"Point","coordinates":[114.265037,30.593041]},"properties":{"name":"国道保健馆","xiaolei":"9378005","address":"银松路65","zhonglei":"9378","dalei":"6","type":"fun"}},
{"type":"Feature","geometry":{"type":"Point","coordinates":[114.262005,30.592799]},"properties":{"name":"猫媚儿网吧","xiaolei":"9378001","address":"银松道5","zhonglei":"9378","dalei":"6","type":"fun"}},
{"type":"Feature","geometry":{"type":"Point","coordinates":[114.263662,30.594573]},"properties":{"name":"浩源网吧","xiaolei":"9378001","address":"","zhonglei":"9378","dalei":"6","type":"fun"}},
{"type":"Feature","geometry":{"type":"Point","coordinates":[114.261855,30.594813]},"properties":{"name":"光纪网吧","xiaolei":"9378001","address":"雪松路41","zhonglei":"9378","dalei":"6","type":"fun"}},
{"type":"Feature","geometry":{"type":"Point","coordinates":[114.263932,30.596556]},"properties":{"name":"圣龙沐浴馆","xiaolei":"9378005","address":"建设大道562附3","zhonglei":"9378","dalei":"6","type":"fun"}},
{"type":"Feature","geometry":{"type":"Point","coordinates":[114.288084,30.593864]},"properties":{"name":"荷塘月色","xiaolei":"9378005","address":"京汉大道899","zhonglei":"9378","dalei":"6","type":"fun"}},
{"type":"Feature","geometry":{"type":"Point","coordinates":[114.287205,30.59534]},"properties":{"name":"红卫浴池","xiaolei":"9378005","address":"解放南路50号","zhonglei":"9378","dalei":"6","type":"fun"}},
{"type":"Feature","geometry":{"type":"Point","coordinates":[114.280862,30.599062]},"properties":{"name":"健之家盲人按摩","xiaolei":"9378005","address":"高雄路57号","zhonglei":"9378","dalei":"6","type":"fun"}},
{"type":"Feature","geometry":{"type":"Point","coordinates":[114.280948,30.600649]},"properties":{"name":"译文网吧","xiaolei":"9378001","address":"高雄路87号","zhonglei":"9378","dalei":"6","type":"fun"}},
{"type":"Feature","geometry":{"type":"Point","coordinates":[114.279047,30.605157]},"properties":{"name":"再春堂保健","xiaolei":"9378005","address":"高雄路165","zhonglei":"9378","dalei":"6","type":"fun"}},
{"type":"Feature","geometry":{"type":"Point","coordinates":[114.281375,30.599084]},"properties":{"name":"半日闲网吧","xiaolei":"9378001","address":"马祖路2","zhonglei":"9378","dalei":"6","type":"fun"}},
{"type":"Feature","geometry":{"type":"Point","coordinates":[114.281349,30.597954]},"properties":{"name":"圣马诺沐足城","xiaolei":"9378005","address":"","zhonglei":"9378","dalei":"6","type":"fun"}},
{"type":"Feature","geometry":{"type":"Point","coordinates":[114.276516,30.60135]},"properties":{"name":"永康盲人按摩","xiaolei":"9378005","address":"台北二路","zhonglei":"9378","dalei":"6","type":"fun"}},
{"type":"Feature","geometry":{"type":"Point","coordinates":[114.27797,30.603301]},"properties":{"name":"中青网络家园（美龙店）","xiaolei":"9378001","address":"长江日报南路6","zhonglei":"9378","dalei":"6","type":"fun"}},
{"type":"Feature","geometry":{"type":"Point","coordinates":[114.276962,30.603236]},"properties":{"name":"长江在线网吧","xiaolei":"9378001","address":"长江日报南路32","zhonglei":"9378","dalei":"6","type":"fun"}},
{"type":"Feature","geometry":{"type":"Point","coordinates":[114.277022,30.60235]},"properties":{"name":"新视线网吧","xiaolei":"9378001","address":"台北二路47号","zhonglei":"9378","dalei":"6","type":"fun"}},
{"type":"Feature","geometry":{"type":"Point","coordinates":[114.275206,30.585365]},"properties":{"name":"单洞社区党委党员活动中心","xiaolei":"9378001","address":"单洞村14","zhonglei":"9378","dalei":"6","type":"fun"}},
{"type":"Feature","geometry":{"type":"Point","coordinates":[114.285477,30.584579]},"properties":{"name":"友情网吧","xiaolei":"9378001","address":"江汉一路59号二轻大楼2层","zhonglei":"9378","dalei":"6","type":"fun"}},
{"type":"Feature","geometry":{"type":"Point","coordinates":[114.284818,30.58483]},"properties":{"name":"维多利亚桑拿会所","xiaolei":"9378005","address":"江汉路118号港澳中心8层","zhonglei":"9378","dalei":"6","type":"fun"}},
{"type":"Feature","geometry":{"type":"Point","coordinates":[114.284818,30.58483]},"properties":{"name":"港澳中心商务酒店星空会所","xiaolei":"9378001","address":"江汉路118号港澳中心17-18层","zhonglei":"9378","dalei":"6","type":"fun"}},
{"type":"Feature","geometry":{"type":"Point","coordinates":[114.284994,30.585364]},"properties":{"name":"海天网吧","xiaolei":"9378001","address":"江汉二路96","zhonglei":"9378","dalei":"6","type":"fun"}},
{"type":"Feature","geometry":{"type":"Point","coordinates":[114.28468,30.585412]},"properties":{"name":"梦幻时空","xiaolei":"9378001","address":"江汉二路111附8","zhonglei":"9378","dalei":"6","type":"fun"}},
{"type":"Feature","geometry":{"type":"Point","coordinates":[114.284962,30.586669]},"properties":{"name":"唐人网吧","xiaolei":"9378001","address":"吉庆街66号建华大厦2层","zhonglei":"9378","dalei":"6","type":"fun"}},
{"type":"Feature","geometry":{"type":"Point","coordinates":[114.296994,30.594359]},"properties":{"name":"新悠幽网吧","xiaolei":"9378001","address":"胜利街190","zhonglei":"9378","dalei":"6","type":"fun"}},
{"type":"Feature","geometry":{"type":"Point","coordinates":[114.296607,30.594224]},"properties":{"name":"秋之爽（胜利街分店）","xiaolei":"9378005","address":"胜利街253号","zhonglei":"9378","dalei":"6","type":"fun"}},
{"type":"Feature","geometry":{"type":"Point","coordinates":[114.296725,30.59098]},"properties":{"name":"银兴网吧（洞庭小路）","xiaolei":"9378001","address":"洞庭街92","zhonglei":"9378","dalei":"6","type":"fun"}},
{"type":"Feature","geometry":{"type":"Point","coordinates":[114.297458,30.590651]},"properties":{"name":"洞庭壹号会所（洞庭小路）","xiaolei":"9378001","address":"沿江大道洞庭小路特1号","zhonglei":"9378","dalei":"6","type":"fun"}},
{"type":"Feature","geometry":{"type":"Point","coordinates":[114.296523,30.591111]},"properties":{"name":"腾飞网吧（洞庭街）","xiaolei":"9378001","address":"洞庭街97附3","zhonglei":"9378","dalei":"6","type":"fun"}},
{"type":"Feature","geometry":{"type":"Point","coordinates":[114.296695,30.591509]},"properties":{"name":"圣坤堂中医推拿足疗","xiaolei":"9378005","address":"","zhonglei":"9378","dalei":"6","type":"fun"}},
{"type":"Feature","geometry":{"type":"Point","coordinates":[114.297896,30.590695]},"properties":{"name":"欢乐城堡电玩","xiaolei":"9378001","address":"沿江大道169号鑫乐银兴电影城1楼","zhonglei":"9378","dalei":"6","type":"fun"}},
{"type":"Feature","geometry":{"type":"Point","coordinates":[114.297428,30.593529]},"properties":{"name":"何小明盲人按摩","xiaolei":"9378005","address":"","zhonglei":"9378","dalei":"6","type":"fun"}},
{"type":"Feature","geometry":{"type":"Point","coordinates":[114.288389,30.599873]},"properties":{"name":"锦城网吧","xiaolei":"9378001","address":"球场路31","zhonglei":"9378","dalei":"6","type":"fun"}},
{"type":"Feature","geometry":{"type":"Point","coordinates":[114.289793,30.602685]},"properties":{"name":"英英棋牌室","xiaolei":"9378001","address":"苗栗路147","zhonglei":"9378","dalei":"6","type":"fun"}},
{"type":"Feature","geometry":{"type":"Point","coordinates":[114.289998,30.602887]},"properties":{"name":"网缘网吧","xiaolei":"9378001","address":"苗栗路161","zhonglei":"9378","dalei":"6","type":"fun"}},
{"type":"Feature","geometry":{"type":"Point","coordinates":[114.287639,30.600975]},"properties":{"name":"俱进网吧","xiaolei":"9378001","address":"球场路85号","zhonglei":"9378","dalei":"6","type":"fun"}},
{"type":"Feature","geometry":{"type":"Point","coordinates":[114.293922,30.594962]},"properties":{"name":"雷骏网盟（友益街）","xiaolei":"9378001","address":"友益街62附1","zhonglei":"9378","dalei":"6","type":"fun"}},
{"type":"Feature","geometry":{"type":"Point","coordinates":[114.295461,30.595615]},"properties":{"name":"东华园浴池","xiaolei":"9378005","address":"友益街154","zhonglei":"9378","dalei":"6","type":"fun"}},
{"type":"Feature","geometry":{"type":"Point","coordinates":[114.298206,30.597832]},"properties":{"name":"康复盲人按摩","xiaolei":"9378005","address":"","zhonglei":"9378","dalei":"6","type":"fun"}},
{"type":"Feature","geometry":{"type":"Point","coordinates":[114.295712,30.597391]},"properties":{"name":"五星网吧","xiaolei":"9378001","address":"公安路2","zhonglei":"9378","dalei":"6","type":"fun"}},
{"type":"Feature","geometry":{"type":"Point","coordinates":[114.264038,30.596366]},"properties":{"name":"食尚福尔养生会馆","xiaolei":"9378005","address":"","zhonglei":"9378","dalei":"6","type":"fun"}},
{"type":"Feature","geometry":{"type":"Point","coordinates":[114.265522,30.596414]},"properties":{"name":"钦点","xiaolei":"9378001","address":"新华小路111附10","zhonglei":"9378","dalei":"6","type":"fun"}},
{"type":"Feature","geometry":{"type":"Point","coordinates":[114.268781,30.590434]},"properties":{"name":"五环会所","xiaolei":"9378005","address":"新华路19号","zhonglei":"9378","dalei":"6","type":"fun"}},
{"type":"Feature","geometry":{"type":"Point","coordinates":[114.250985,30.588387]},"properties":{"name":"中国地质大学大学生活动中心","xiaolei":"9378001","address":"校内大学生活动中心","zhonglei":"9378","dalei":"6","type":"fun"}},
{"type":"Feature","geometry":{"type":"Point","coordinates":[114.253407,30.593352]},"properties":{"name":"水上明珠国际俱乐部","xiaolei":"9378001","address":"建设大道434-438号中央华府","zhonglei":"9378","dalei":"6","type":"fun"}},
{"type":"Feature","geometry":{"type":"Point","coordinates":[114.254757,30.589826]},"properties":{"name":"马氏盲人按摩足疗","xiaolei":"9378005","address":"","zhonglei":"9378","dalei":"6","type":"fun"}},
{"type":"Feature","geometry":{"type":"Point","coordinates":[114.256926,30.59072]},"properties":{"name":"美美足浴","xiaolei":"9378005","address":"万松横路36","zhonglei":"9378","dalei":"6","type":"fun"}},
{"type":"Feature","geometry":{"type":"Point","coordinates":[114.255018,30.586826]},"properties":{"name":"教工俱乐部","xiaolei":"9378001","address":"","zhonglei":"9378","dalei":"6","type":"fun"}},
{"type":"Feature","geometry":{"type":"Point","coordinates":[114.272556,30.595321]},"properties":{"name":"Ｃｉｔｙ　Ｅｌｉｔｅ","xiaolei":"9378001","address":"","zhonglei":"9378","dalei":"6","type":"fun"}},
{"type":"Feature","geometry":{"type":"Point","coordinates":[114.276453,30.59085]},"properties":{"name":"新金茂棋牌桑拿健身会所","xiaolei":"9378005","address":"江汉北路渣家左路","zhonglei":"9378","dalei":"6","type":"fun"}},
{"type":"Feature","geometry":{"type":"Point","coordinates":[114.271271,30.598191]},"properties":{"name":"天一桑拿","xiaolei":"9378005","address":"云林街31号中环大厦B座","zhonglei":"9378","dalei":"6","type":"fun"}},
{"type":"Feature","geometry":{"type":"Point","coordinates":[114.294236,30.601349]},"properties":{"name":"秋之爽","xiaolei":"9378005","address":"解放南路356附2","zhonglei":"9378","dalei":"6","type":"fun"}},
{"type":"Feature","geometry":{"type":"Point","coordinates":[114.29116,30.595535]},"properties":{"name":"东方台球城","xiaolei":"9378006","address":"京汉街160","zhonglei":"9378","dalei":"6","type":"fun"}},
{"type":"Feature","geometry":{"type":"Point","coordinates":[114.33702,30.605312]},"properties":{"name":"星网吧（杨园店）","xiaolei":"9378001","address":"杨园街110附近","zhonglei":"9378","dalei":"6","type":"fun"}},
{"type":"Feature","geometry":{"type":"Point","coordinates":[114.343302,30.609014]},"properties":{"name":"楚信网吧","xiaolei":"9378001","address":"铁机路80附近","zhonglei":"9378","dalei":"6","type":"fun"}},
{"type":"Feature","geometry":{"type":"Point","coordinates":[114.350012,30.6164]},"properties":{"name":"中青网络家园（华胜店）","xiaolei":"9378001","address":"","zhonglei":"9378","dalei":"6","type":"fun"}},
{"type":"Feature","geometry":{"type":"Point","coordinates":[114.361593,30.623765]},"properties":{"name":"星星雨网吧","xiaolei":"9378001","address":"三弓路2附12","zhonglei":"9378","dalei":"6","type":"fun"}},
{"type":"Feature","geometry":{"type":"Point","coordinates":[114.363905,30.628143]},"properties":{"name":"友友网吧","xiaolei":"9378001","address":"旅大街与建设一路交叉处附近","zhonglei":"9378","dalei":"6","type":"fun"}},
{"type":"Feature","geometry":{"type":"Point","coordinates":[114.369032,30.628387]},"properties":{"name":"宏盛网络（宏茂店）","xiaolei":"9378001","address":"建设二路32附33附近","zhonglei":"9378","dalei":"6","type":"fun"}},
{"type":"Feature","geometry":{"type":"Point","coordinates":[114.341306,30.600914]},"properties":{"name":"杨园地区文体沙龙","xiaolei":"9378001","address":"杨园街变电社区","zhonglei":"9378","dalei":"6","type":"fun"}},
{"type":"Feature","geometry":{"type":"Point","coordinates":[114.357062,30.610034]},"properties":{"name":"ｅ度空间网吧（联盟路）","xiaolei":"9378001","address":"联盟路60","zhonglei":"9378","dalei":"6","type":"fun"}},
{"type":"Feature","geometry":{"type":"Point","coordinates":[114.351609,30.613661]},"properties":{"name":"传奇网吧（鹏程·帝景园东北）","xiaolei":"9378001","address":"和平大道1178附7","zhonglei":"9378","dalei":"6","type":"fun"}},
{"type":"Feature","geometry":{"type":"Point","coordinates":[114.345641,30.609018]},"properties":{"name":"皇苑芬兰浴","xiaolei":"9378005","address":"和平大道1150","zhonglei":"9378","dalei":"6","type":"fun"}},
{"type":"Feature","geometry":{"type":"Point","coordinates":[114.346664,30.605938]},"properties":{"name":"大丰元沐足","xiaolei":"9378005","address":"铁机路100附近","zhonglei":"9378","dalei":"6","type":"fun"}},
{"type":"Feature","geometry":{"type":"Point","coordinates":[114.357457,30.608234]},"properties":{"name":"江淮洗浴","xiaolei":"9378005","address":"友谊大道678附37","zhonglei":"9378","dalei":"6","type":"fun"}},
{"type":"Feature","geometry":{"type":"Point","coordinates":[114.343657,30.597946]},"properties":{"name":"天年沐足","xiaolei":"9378005","address":"友谊大道528号","zhonglei":"9378","dalei":"6","type":"fun"}},
{"type":"Feature","geometry":{"type":"Point","coordinates":[114.344129,30.59706]},"properties":{"name":"黄氏正宗推拿馆","xiaolei":"9378005","address":"友谊大道526附48-49","zhonglei":"9378","dalei":"6","type":"fun"}},
{"type":"Feature","geometry":{"type":"Point","coordinates":[114.343443,30.597641]},"properties":{"name":"新潮网吧","xiaolei":"9378001","address":"友谊大道526附28号2层","zhonglei":"9378","dalei":"6","type":"fun"}},
{"type":"Feature","geometry":{"type":"Point","coordinates":[114.342555,30.592693]},"properties":{"name":"新博大网吧","xiaolei":"9378001","address":"徐东大街35附近","zhonglei":"9378","dalei":"6","type":"fun"}},
{"type":"Feature","geometry":{"type":"Point","coordinates":[114.34267,30.590828]},"properties":{"name":"李振斌推拿馆（总店）","xiaolei":"9378005","address":"","zhonglei":"9378","dalei":"6","type":"fun"}},
{"type":"Feature","geometry":{"type":"Point","coordinates":[114.347394,30.588024]},"properties":{"name":"欢乐在线网吧","xiaolei":"9378001","address":"团结大道1001","zhonglei":"9378","dalei":"6","type":"fun"}},
{"type":"Feature","geometry":{"type":"Point","coordinates":[114.36593,30.611273]},"properties":{"name":"玉明堂","xiaolei":"9378005","address":"园林路73附3","zhonglei":"9378","dalei":"6","type":"fun"}},
{"type":"Feature","geometry":{"type":"Point","coordinates":[114.374725,30.611182]},"properties":{"name":"金手指推拿馆","xiaolei":"9378005","address":"","zhonglei":"9378","dalei":"6","type":"fun"}},
{"type":"Feature","geometry":{"type":"Point","coordinates":[114.368692,30.616372]},"properties":{"name":"维康按摩室","xiaolei":"9378005","address":"友谊大道765附1","zhonglei":"9378","dalei":"6","type":"fun"}},
{"type":"Feature","geometry":{"type":"Point","coordinates":[114.360604,30.61771]},"properties":{"name":"海浪网吧（园林路）","xiaolei":"9378001","address":"园林路62附近","zhonglei":"9378","dalei":"6","type":"fun"}},
{"type":"Feature","geometry":{"type":"Point","coordinates":[114.324452,30.589318]},"properties":{"name":"晨圆盲人按摩","xiaolei":"9378005","address":"","zhonglei":"9378","dalei":"6","type":"fun"}},