{"type":"FeatureCollection", "features": [
{"type":"Feature","geometry":{"type":"Point","coordinates":[114.117746,30.733736]},"properties":{"name":"明华加油站","xiaolei":"-9999","address":"","zhonglei":"7311","dalei":"1","type":"gas"}},
{"type":"Feature","geometry":{"type":"Point","coordinates":[114.121402,30.726635]},"properties":{"name":"加油站（中共柏泉办事处纪律检查工","xiaolei":"-9999","address":"","zhonglei":"7311","dalei":"1","type":"gas"}},
{"type":"Feature","geometry":{"type":"Point","coordinates":[114.132751,30.704398]},"properties":{"name":"加油站（张柏路）","xiaolei":"-9999","address":"张柏路东光工业园","zhonglei":"7311","dalei":"1","type":"gas"}},
{"type":"Feature","geometry":{"type":"Point","coordinates":[114.227796,30.733147]},"properties":{"name":"（服务区）加油站","xiaolei":"-9999","address":"","zhonglei":"7311","dalei":"1","type":"gas"}},
{"type":"Feature","geometry":{"type":"Point","coordinates":[114.168403,30.687272]},"properties":{"name":"加油站（柏银路）","xiaolei":"-9999","address":"","zhonglei":"7311","dalei":"1","type":"gas"}},
{"type":"Feature","geometry":{"type":"Point","coordinates":[114.228525,30.732185]},"properties":{"name":"加油站（世纪华联购物中心西南）","xiaolei":"-9999","address":"","zhonglei":"7311","dalei":"1","type":"gas"}},
{"type":"Feature","geometry":{"type":"Point","coordinates":[114.143249,30.697796]},"properties":{"name":"昆仑能源柏泉加油加气站","xiaolei":"-9999","address":"","zhonglei":"7311","dalei":"1","type":"gas"}},
{"type":"Feature","geometry":{"type":"Point","coordinates":[114.369137,30.680616]},"properties":{"name":"加油站（青年村）","xiaolei":"-9999","address":"","zhonglei":"7311","dalei":"1","type":"gas"}},
{"type":"Feature","geometry":{"type":"Point","coordinates":[114.353806,30.670184]},"properties":{"name":"加油站（汉施路）","xiaolei":"-9999","address":"","zhonglei":"7311","dalei":"1","type":"gas"}},
{"type":"Feature","geometry":{"type":"Point","coordinates":[114.372973,30.682024]},"properties":{"name":"加油站（谌家矶大道）","xiaolei":"-9999","address":"","zhonglei":"7311","dalei":"1","type":"gas"}},
{"type":"Feature","geometry":{"type":"Point","coordinates":[114.25426,30.723322]},"properties":{"name":"加油站（盘龙大道）","xiaolei":"-9999","address":"城经济开发区盘龙大道45号","zhonglei":"7311","dalei":"1","type":"gas"}},
{"type":"Feature","geometry":{"type":"Point","coordinates":[114.295283,30.699292]},"properties":{"name":"加油站（巨龙大道）","xiaolei":"-9999","address":"","zhonglei":"7311","dalei":"1","type":"gas"}},
{"type":"Feature","geometry":{"type":"Point","coordinates":[114.368312,30.695454]},"properties":{"name":"（服务区）加油站","xiaolei":"-9999","address":"","zhonglei":"7311","dalei":"1","type":"gas"}},
{"type":"Feature","geometry":{"type":"Point","coordinates":[114.370058,30.695955]},"properties":{"name":"（服务区）加油站","xiaolei":"-9999","address":"","zhonglei":"7311","dalei":"1","type":"gas"}},
{"type":"Feature","geometry":{"type":"Point","coordinates":[114.370811,30.721984]},"properties":{"name":"加油站（华中企业城东北）","xiaolei":"-9999","address":"","zhonglei":"7311","dalei":"1","type":"gas"}},
{"type":"Feature","geometry":{"type":"Point","coordinates":[114.336861,30.716312]},"properties":{"name":"荣中石油加油站","xiaolei":"-9999","address":"","zhonglei":"7311","dalei":"1","type":"gas"}},
{"type":"Feature","geometry":{"type":"Point","coordinates":[114.274887,30.709364]},"properties":{"name":"加油站（龙城花园西）","xiaolei":"-9999","address":"","zhonglei":"7311","dalei":"1","type":"gas"}},
{"type":"Feature","geometry":{"type":"Point","coordinates":[114.343602,30.718783]},"properties":{"name":"加油站（横滠路）","xiaolei":"-9999","address":"","zhonglei":"7311","dalei":"1","type":"gas"}},
{"type":"Feature","geometry":{"type":"Point","coordinates":[114.360217,30.676928]},"properties":{"name":"加油站（江岸区人民政府谌家矶街办","xiaolei":"-9999","address":"","zhonglei":"7311","dalei":"1","type":"gas"}},
{"type":"Feature","geometry":{"type":"Point","coordinates":[114.371041,30.681846]},"properties":{"name":"谌家矶农机加油站","xiaolei":"-9999","address":"","zhonglei":"7311","dalei":"1","type":"gas"}},
{"type":"Feature","geometry":{"type":"Point","coordinates":[114.418264,30.705913]},"properties":{"name":"武湖加油站","xiaolei":"-9999","address":"","zhonglei":"7311","dalei":"1","type":"gas"}},
{"type":"Feature","geometry":{"type":"Point","coordinates":[114.389744,30.722738]},"properties":{"name":"加油站（汉口北大道）","xiaolei":"-9999","address":"滠口街汉口北大道","zhonglei":"7311","dalei":"1","type":"gas"}},
{"type":"Feature","geometry":{"type":"Point","coordinates":[114.395333,30.723156]},"properties":{"name":"加油站","xiaolei":"-9999","address":"","zhonglei":"7311","dalei":"1","type":"gas"}},
{"type":"Feature","geometry":{"type":"Point","coordinates":[114.480984,30.714458]},"properties":{"name":"加油站（肖家庙）","xiaolei":"-9999","address":"","zhonglei":"7311","dalei":"1","type":"gas"}},
{"type":"Feature","geometry":{"type":"Point","coordinates":[114.467621,30.712509]},"properties":{"name":"广润石油加油站","xiaolei":"-9999","address":"","zhonglei":"7311","dalei":"1","type":"gas"}},
{"type":"Feature","geometry":{"type":"Point","coordinates":[114.505096,30.713797]},"properties":{"name":"加油站（五大队）","xiaolei":"-9999","address":"","zhonglei":"7311","dalei":"1","type":"gas"}},
{"type":"Feature","geometry":{"type":"Point","coordinates":[114.505373,30.712808]},"properties":{"name":"春风加油站","xiaolei":"-9999","address":"","zhonglei":"7311","dalei":"1","type":"gas"}},
{"type":"Feature","geometry":{"type":"Point","coordinates":[114.122945,30.619639]},"properties":{"name":"加油站（博大学府花园西南）","xiaolei":"-9999","address":"","zhonglei":"7311","dalei":"1","type":"gas"}},
{"type":"Feature","geometry":{"type":"Point","coordinates":[114.236691,30.587358]},"properties":{"name":"王家墩加气站","xiaolei":"-9999","address":"","zhonglei":"7311","dalei":"1","type":"gas"}},
{"type":"Feature","geometry":{"type":"Point","coordinates":[114.247503,30.646534]},"properties":{"name":"加油站（姑李公路）","xiaolei":"-9999","address":"","zhonglei":"7311","dalei":"1","type":"gas"}},
{"type":"Feature","geometry":{"type":"Point","coordinates":[114.141401,30.625866]},"properties":{"name":"加油站（东吴大道）","xiaolei":"-9999","address":"吴家山东吴大道1075号","zhonglei":"7311","dalei":"1","type":"gas"}},
{"type":"Feature","geometry":{"type":"Point","coordinates":[114.139894,30.619904]},"properties":{"name":"加油站（东西湖大道辅路）","xiaolei":"-9999","address":"","zhonglei":"7311","dalei":"1","type":"gas"}},
{"type":"Feature","geometry":{"type":"Point","coordinates":[114.168936,30.611223]},"properties":{"name":"加油站（易家街舵落口社区卫生服务","xiaolei":"-9999","address":"汉口解放大道","zhonglei":"7311","dalei":"1","type":"gas"}},
{"type":"Feature","geometry":{"type":"Point","coordinates":[114.195262,30.591945]},"properties":{"name":"加油站（东方花城南）","xiaolei":"-9999","address":"","zhonglei":"7311","dalei":"1","type":"gas"}},
{"type":"Feature","geometry":{"type":"Point","coordinates":[114.167242,30.611628]},"properties":{"name":"加油站（易家街工农社区卫生服务站","xiaolei":"-9999","address":"","zhonglei":"7311","dalei":"1","type":"gas"}},
{"type":"Feature","geometry":{"type":"Point","coordinates":[114.161892,30.61331]},"properties":{"name":"加油站（长丰大道）","xiaolei":"-9999","address":"长丰大道特1号","zhonglei":"7311","dalei":"1","type":"gas"}},
{"type":"Feature","geometry":{"type":"Point","coordinates":[114.153907,30.620622]},"properties":{"name":"加油站（额头湾邮政所东）","xiaolei":"-9999","address":"","zhonglei":"7311","dalei":"1","type":"gas"}},
{"type":"Feature","geometry":{"type":"Point","coordinates":[114.158516,30.616232]},"properties":{"name":"加油站（长宜路）","xiaolei":"-9999","address":"","zhonglei":"7311","dalei":"1","type":"gas"}},
{"type":"Feature","geometry":{"type":"Point","coordinates":[114.243503,30.610289]},"properties":{"name":"智立加油站","xiaolei":"-9999","address":"","zhonglei":"7311","dalei":"1","type":"gas"}},
{"type":"Feature","geometry":{"type":"Point","coordinates":[114.231971,30.608872]},"properties":{"name":"加油站（武汉市硚口区崇仁路小学南","xiaolei":"-9999","address":"发展大道30号","zhonglei":"7311","dalei":"1","type":"gas"}},
{"type":"Feature","geometry":{"type":"Point","coordinates":[114.223836,30.598076]},"properties":{"name":"加油站（汉西路）","xiaolei":"-9999","address":"汉西北路66","zhonglei":"7311","dalei":"1","type":"gas"}},
{"type":"Feature","geometry":{"type":"Point","coordinates":[114.230285,30.589111]},"properties":{"name":"加油站（金阳社区东）","xiaolei":"-9999","address":"","zhonglei":"7311","dalei":"1","type":"gas"}},
{"type":"Feature","geometry":{"type":"Point","coordinates":[114.236021,30.587662]},"properties":{"name":"凌云加油站","xiaolei":"-9999","address":"","zhonglei":"7311","dalei":"1","type":"gas"}},
{"type":"Feature","geometry":{"type":"Point","coordinates":[114.237766,30.588374]},"properties":{"name":"加油站（凌云电子大厦西）","xiaolei":"-9999","address":"","zhonglei":"7311","dalei":"1","type":"gas"}},
{"type":"Feature","geometry":{"type":"Point","coordinates":[114.248681,30.609173]},"properties":{"name":"加油站（武汉ＣＢＤ西）","xiaolei":"-9999","address":"常青路35号","zhonglei":"7311","dalei":"1","type":"gas"}},
{"type":"Feature","geometry":{"type":"Point","coordinates":[114.196017,30.609522]},"properties":{"name":"加油站（古田二路）","xiaolei":"-9999","address":"古田二路","zhonglei":"7311","dalei":"1","type":"gas"}},
{"type":"Feature","geometry":{"type":"Point","coordinates":[114.184812,30.602473]},"properties":{"name":"辛家地加油站（易家街古一社区东南","xiaolei":"-9999","address":"","zhonglei":"7311","dalei":"1","type":"gas"}},
{"type":"Feature","geometry":{"type":"Point","coordinates":[114.18313,30.603286]},"properties":{"name":"鸿兴加油站","xiaolei":"-9999","address":"解放大道16号","zhonglei":"7311","dalei":"1","type":"gas"}},
{"type":"Feature","geometry":{"type":"Point","coordinates":[114.237225,30.624003]},"properties":{"name":"加油站（常青路）","xiaolei":"-9999","address":"","zhonglei":"7311","dalei":"1","type":"gas"}},
{"type":"Feature","geometry":{"type":"Point","coordinates":[114.225318,30.606427]},"properties":{"name":"加油站（汉西路）","xiaolei":"-9999","address":"","zhonglei":"7311","dalei":"1","type":"gas"}},
{"type":"Feature","geometry":{"type":"Point","coordinates":[114.225967,30.607257]},"properties":{"name":"加油站（二环线）","xiaolei":"-9999","address":"","zhonglei":"7311","dalei":"1","type":"gas"}},
{"type":"Feature","geometry":{"type":"Point","coordinates":[114.24229,30.586401]},"properties":{"name":"海工加油站","xiaolei":"-9999","address":"建设大道248号","zhonglei":"7311","dalei":"1","type":"gas"}},
{"type":"Feature","geometry":{"type":"Point","coordinates":[114.22834,30.589008]},"properties":{"name":"双墩加油站","xiaolei":"-9999","address":"建设大道144","zhonglei":"7311","dalei":"1","type":"gas"}},
{"type":"Feature","geometry":{"type":"Point","coordinates":[114.181386,30.612996]},"properties":{"name":"江钻长丰乡天然气加气站","xiaolei":"-9999","address":"长丰大道92","zhonglei":"7311","dalei":"1","type":"gas"}},
{"type":"Feature","geometry":{"type":"Point","coordinates":[114.186788,30.610364]},"properties":{"name":"加油站（天勤花园东）","xiaolei":"-9999","address":"","zhonglei":"7311","dalei":"1","type":"gas"}},
{"type":"Feature","geometry":{"type":"Point","coordinates":[114.242618,30.586207]},"properties":{"name":"宝丰加气站","xiaolei":"-9999","address":"","zhonglei":"7311","dalei":"1","type":"gas"}},
{"type":"Feature","geometry":{"type":"Point","coordinates":[114.161346,30.586312]},"properties":{"name":"（服务区）加油站","xiaolei":"-9999","address":"","zhonglei":"7311","dalei":"1","type":"gas"}},
{"type":"Feature","geometry":{"type":"Point","coordinates":[114.170528,30.628603]},"properties":{"name":"（服务区）加油站","xiaolei":"-9999","address":"","zhonglei":"7311","dalei":"1","type":"gas"}},
{"type":"Feature","geometry":{"type":"Point","coordinates":[114.183816,30.62681]},"properties":{"name":"（服务区）加油站","xiaolei":"-9999","address":"","zhonglei":"7311","dalei":"1","type":"gas"}},
{"type":"Feature","geometry":{"type":"Point","coordinates":[114.196492,30.621788]},"properties":{"name":"蓝焰油气古田二路加注站","xiaolei":"-9999","address":"","zhonglei":"7311","dalei":"1","type":"gas"}},
{"type":"Feature","geometry":{"type":"Point","coordinates":[114.232298,30.628264]},"properties":{"name":"加油加气站","xiaolei":"-9999","address":"","zhonglei":"7311","dalei":"1","type":"gas"}},
{"type":"Feature","geometry":{"type":"Point","coordinates":[114.160704,30.586175]},"properties":{"name":"（服务区）加油站","xiaolei":"-9999","address":"","zhonglei":"7311","dalei":"1","type":"gas"}},
{"type":"Feature","geometry":{"type":"Point","coordinates":[114.137323,30.636408]},"properties":{"name":"加油站（三店中路）","xiaolei":"-9999","address":"","zhonglei":"7311","dalei":"1","type":"gas"}},
{"type":"Feature","geometry":{"type":"Point","coordinates":[114.209985,30.583639]},"properties":{"name":"加油站（崔家墩路）","xiaolei":"-9999","address":"","zhonglei":"7311","dalei":"1","type":"gas"}},
{"type":"Feature","geometry":{"type":"Point","coordinates":[114.177744,30.613644]},"properties":{"name":"长丰加气站","xiaolei":"-9999","address":"长丰大道66号","zhonglei":"7311","dalei":"1","type":"gas"}},
{"type":"Feature","geometry":{"type":"Point","coordinates":[114.186828,30.616337]},"properties":{"name":"加油站（长风路）","xiaolei":"-9999","address":"","zhonglei":"7311","dalei":"1","type":"gas"}},
{"type":"Feature","geometry":{"type":"Point","coordinates":[114.246654,30.617862]},"properties":{"name":"加油站（银墩路）","xiaolei":"-9999","address":"","zhonglei":"7311","dalei":"1","type":"gas"}},
{"type":"Feature","geometry":{"type":"Point","coordinates":[114.154048,30.650502]},"properties":{"name":"加油站（东西湖区城市管理局严家渡","xiaolei":"-9999","address":"","zhonglei":"7311","dalei":"1","type":"gas"}},
{"type":"Feature","geometry":{"type":"Point","coordinates":[114.180784,30.6055]},"properties":{"name":"武汉公交石油加油站（解放大道）","xiaolei":"-9999","address":"古田一路","zhonglei":"7311","dalei":"1","type":"gas"}},
{"type":"Feature","geometry":{"type":"Point","coordinates":[114.190505,30.586046]},"properties":{"name":"联勤加油站","xiaolei":"-9999","address":"罗家墩122号","zhonglei":"7311","dalei":"1","type":"gas"}},
{"type":"Feature","geometry":{"type":"Point","coordinates":[114.171852,30.614365]},"properties":{"name":"加油站","xiaolei":"-9999","address":"长丰大道46号","zhonglei":"7311","dalei":"1","type":"gas"}},
{"type":"Feature","geometry":{"type":"Point","coordinates":[114.17972,30.610099]},"properties":{"name":"广东大隆武汉古田一路加油加气站","xiaolei":"-9999","address":"古田一路30号大隆加气站背后","zhonglei":"7311","dalei":"1","type":"gas"}},
{"type":"Feature","geometry":{"type":"Point","coordinates":[114.181818,30.597352]},"properties":{"name":"加油加气站","xiaolei":"-9999","address":"","zhonglei":"7311","dalei":"1","type":"gas"}},
{"type":"Feature","geometry":{"type":"Point","coordinates":[114.181929,30.597296]},"properties":{"name":"加油站（陈家社区制瓶小区西北）","xiaolei":"-9999","address":"","zhonglei":"7311","dalei":"1","type":"gas"}},
{"type":"Feature","geometry":{"type":"Point","coordinates":[114.233884,30.61]},"properties":{"name":"加油站（武汉市福惠医院西南）","xiaolei":"-9999","address":"","zhonglei":"7311","dalei":"1","type":"gas"}},
{"type":"Feature","geometry":{"type":"Point","coordinates":[114.22834,30.589008]},"properties":{"name":"江钻双墩天然气加气站","xiaolei":"-9999","address":"建设大道144","zhonglei":"7311","dalei":"1","type":"gas"}},
{"type":"Feature","geometry":{"type":"Point","coordinates":[114.347604,30.621392]},"properties":{"name":"加油站（临江大道）","xiaolei":"-9999","address":"","zhonglei":"7311","dalei":"1","type":"gas"}},
{"type":"Feature","geometry":{"type":"Point","coordinates":[114.360075,30.620855]},"properties":{"name":"加油站（民族新村东北）","xiaolei":"-9999","address":"和平大道939附4","zhonglei":"7311","dalei":"1","type":"gas"}},
{"type":"Feature","geometry":{"type":"Point","coordinates":[114.341464,30.595519]},"properties":{"name":"加油站（友谊大道）","xiaolei":"-9999","address":"友谊大道508号","zhonglei":"7311","dalei":"1","type":"gas"}},
{"type":"Feature","geometry":{"type":"Point","coordinates":[114.344642,30.588049]},"properties":{"name":"加油站（徐东四期公寓西南）","xiaolei":"-9999","address":"","zhonglei":"7311","dalei":"1","type":"gas"}},
{"type":"Feature","geometry":{"type":"Point","coordinates":[114.367315,30.615053]},"properties":{"name":"大洲加油站","xiaolei":"-9999","address":"友谊大道816","zhonglei":"7311","dalei":"1","type":"gas"}},
{"type":"Feature","geometry":{"type":"Point","coordinates":[114.369166,30.608408]},"properties":{"name":"广东大隆武汉园林路加气站","xiaolei":"-9999","address":"","zhonglei":"7311","dalei":"1","type":"gas"}},
{"type":"Feature","geometry":{"type":"Point","coordinates":[114.322824,30.587499]},"properties":{"name":"武昌车辆厂加油站","xiaolei":"-9999","address":"和平大道601","zhonglei":"7311","dalei":"1","type":"gas"}},
{"type":"Feature","geometry":{"type":"Point","coordinates":[114.33528,30.58532]},"properties":{"name":"加油站（秦园路）","xiaolei":"-9999","address":"秦园东路秦园路","zhonglei":"7311","dalei":"1","type":"gas"}},
{"type":"Feature","geometry":{"type":"Point","coordinates":[114.337077,30.592128]},"properties":{"name":"加油站（逸居苑南）","xiaolei":"-9999","address":"","zhonglei":"7311","dalei":"1","type":"gas"}},
{"type":"Feature","geometry":{"type":"Point","coordinates":[114.327314,30.662499]},"properties":{"name":"加油站（汉黄路）","xiaolei":"-9999","address":"汉黄路3号","zhonglei":"7311","dalei":"1","type":"gas"}},
{"type":"Feature","geometry":{"type":"Point","coordinates":[114.287207,30.650366]},"properties":{"name":"加油站（金桥大道）","xiaolei":"-9999","address":"","zhonglei":"7311","dalei":"1","type":"gas"}},
{"type":"Feature","geometry":{"type":"Point","coordinates":[114.26054,30.627754]},"properties":{"name":"中化道达尔加油站（姑嫂树路）","xiaolei":"-9999","address":"","zhonglei":"7311","dalei":"1","type":"gas"}},
{"type":"Feature","geometry":{"type":"Point","coordinates":[114.328973,30.656807]},"properties":{"name":"加油站（华森佳园东）","xiaolei":"-9999","address":"","zhonglei":"7311","dalei":"1","type":"gas"}},
{"type":"Feature","geometry":{"type":"Point","coordinates":[114.311256,30.61455]},"properties":{"name":"加油站（武汉市人大常委会汽车队北","xiaolei":"-9999","address":"沿江大道250","zhonglei":"7311","dalei":"1","type":"gas"}},
{"type":"Feature","geometry":{"type":"Point","coordinates":[114.307543,30.607482]},"properties":{"name":"加油站（临江苑东南）","xiaolei":"-9999","address":"沿江大道240附2","zhonglei":"7311","dalei":"1","type":"gas"}},
{"type":"Feature","geometry":{"type":"Point","coordinates":[114.284302,30.620371]},"properties":{"name":"中化道达尔加油站（江大路）","xiaolei":"-9999","address":"江大路53附1","zhonglei":"7311","dalei":"1","type":"gas"}},
{"type":"Feature","geometry":{"type":"Point","coordinates":[114.284238,30.620296]},"properties":{"name":"武汉公交九万方加油站","xiaolei":"-9999","address":"江大路45号","zhonglei":"7311","dalei":"1","type":"gas"}},
{"type":"Feature","geometry":{"type":"Point","coordinates":[114.280735,30.623358]},"properties":{"name":"竹叶山加油站","xiaolei":"-9999","address":"黄孝河路160","zhonglei":"7311","dalei":"1","type":"gas"}},
{"type":"Feature","geometry":{"type":"Point","coordinates":[114.309689,30.622948]},"properties":{"name":"加油站（昌盛小区东南）","xiaolei":"-9999","address":"","zhonglei":"7311","dalei":"1","type":"gas"}},
{"type":"Feature","geometry":{"type":"Point","coordinates":[114.280141,30.634126]},"properties":{"name":"竹叶山加气站","xiaolei":"-9999","address":"淌湖四村97","zhonglei":"7311","dalei":"1","type":"gas"}},
{"type":"Feature","geometry":{"type":"Point","coordinates":[114.251491,30.592393]},"properties":{"name":"加油站（建设大道）","xiaolei":"-9999","address":"建设大道603","zhonglei":"7311","dalei":"1","type":"gas"}},
{"type":"Feature","geometry":{"type":"Point","coordinates":[114.262624,30.606113]},"properties":{"name":"北湖西路加油站","xiaolei":"-9999","address":"汉口马场角横路近北湖西路20号七味农","zhonglei":"7311","dalei":"1","type":"gas"}},
{"type":"Feature","geometry":{"type":"Point","coordinates":[114.268759,30.60202]},"properties":{"name":"北湖加油站","xiaolei":"-9999","address":"黄孝北路5","zhonglei":"7311","dalei":"1","type":"gas"}},
{"type":"Feature","geometry":{"type":"Point","coordinates":[114.329444,30.65766]},"properties":{"name":"加油站（堤角小区南）","xiaolei":"-9999","address":"","zhonglei":"7311","dalei":"1","type":"gas"}},
{"type":"Feature","geometry":{"type":"Point","coordinates":[114.281725,30.632773]},"properties":{"name":"加油站（七一中学教工社区西）","xiaolei":"-9999","address":"","zhonglei":"7311","dalei":"1","type":"gas"}},
{"type":"Feature","geometry":{"type":"Point","coordinates":[114.276507,30.665983]},"properties":{"name":"加油站（宏图路）","xiaolei":"-9999","address":"","zhonglei":"7311","dalei":"1","type":"gas"}},
{"type":"Feature","geometry":{"type":"Point","coordinates":[114.27668,30.611925]},"properties":{"name":"加油站（三眼桥路）","xiaolei":"-9999","address":"","zhonglei":"7311","dalei":"1","type":"gas"}},
{"type":"Feature","geometry":{"type":"Point","coordinates":[114.265226,30.611718]},"properties":{"name":"加油站（唐家墩路）","xiaolei":"-9999","address":"汉口马场角横路20号","zhonglei":"7311","dalei":"1","type":"gas"}},
{"type":"Feature","geometry":{"type":"Point","coordinates":[114.262106,30.627193]},"properties":{"name":"加油站（盛丰花园小区东）","xiaolei":"-9999","address":"","zhonglei":"7311","dalei":"1","type":"gas"}},
{"type":"Feature","geometry":{"type":"Point","coordinates":[114.346812,30.585326]},"properties":{"name":"蓝焰油气（徐东路加注站）","xiaolei":"-9999","address":"","zhonglei":"7311","dalei":"1","type":"gas"}},
{"type":"Feature","geometry":{"type":"Point","coordinates":[114.328289,30.58431]},"properties":{"name":"加油站（大湖公寓东南）","xiaolei":"-9999","address":"","zhonglei":"7311","dalei":"1","type":"gas"}},
{"type":"Feature","geometry":{"type":"Point","coordinates":[114.350144,30.612554]},"properties":{"name":"加油站（武汉和平嘉仁医院东）","xiaolei":"-9999","address":"","zhonglei":"7311","dalei":"1","type":"gas"}},
{"type":"Feature","geometry":{"type":"Point","coordinates":[114.254035,30.636032]},"properties":{"name":"加油站（罗家嘴路）","xiaolei":"-9999","address":"姑嫂树路","zhonglei":"7311","dalei":"1","type":"gas"}},
{"type":"Feature","geometry":{"type":"Point","coordinates":[114.326804,30.652847]},"properties":{"name":"加油站（丹航小区东北）","xiaolei":"-9999","address":"解放大道2659","zhonglei":"7311","dalei":"1","type":"gas"}},
{"type":"Feature","geometry":{"type":"Point","coordinates":[114.262711,30.629658]},"properties":{"name":"加油站（新华锦绣公寓北）","xiaolei":"-9999","address":"","zhonglei":"7311","dalei":"1","type":"gas"}},
{"type":"Feature","geometry":{"type":"Point","coordinates":[114.260193,30.632321]},"properties":{"name":"加气站","xiaolei":"-9999","address":"","zhonglei":"7311","dalei":"1","type":"gas"}},
{"type":"Feature","geometry":{"type":"Point","coordinates":[114.31762,30.588772]},"properties":{"name":"加油加气站（临江大道）","xiaolei":"-9999","address":"","zhonglei":"7311","dalei":"1","type":"gas"}},
{"type":"Feature","geometry":{"type":"Point","coordinates":[114.285997,30.627682]},"properties":{"name":"加油站（晟蓝花园南）","xiaolei":"-9999","address":"","zhonglei":"7311","dalei":"1","type":"gas"}},
{"type":"Feature","geometry":{"type":"Point","coordinates":[114.326614,30.590587]},"properties":{"name":"徐家棚加油站","xiaolei":"-9999","address":"和平大道910","zhonglei":"7311","dalei":"1","type":"gas"}},
{"type":"Feature","geometry":{"type":"Point","coordinates":[114.362438,30.621439]},"properties":{"name":"加油站（武钢宾馆南）","xiaolei":"-9999","address":"","zhonglei":"7311","dalei":"1","type":"gas"}},
{"type":"Feature","geometry":{"type":"Point","coordinates":[114.326354,30.665423]},"properties":{"name":"加气站","xiaolei":"-9999","address":"","zhonglei":"7311","dalei":"1","type":"gas"}},
{"type":"Feature","geometry":{"type":"Point","coordinates":[114.322961,30.587625]},"properties":{"name":"车辆厂ＬＰＧ加气站","xiaolei":"-9999","address":"和平大道603","zhonglei":"7311","dalei":"1","type":"gas"}},
{"type":"Feature","geometry":{"type":"Point","coordinates":[114.288129,30.647468]},"properties":{"name":"加油加气站（后湖大道）","xiaolei":"-9999","address":"","zhonglei":"7311","dalei":"1","type":"gas"}},
{"type":"Feature","geometry":{"type":"Point","coordinates":[114.324762,30.655244]},"properties":{"name":"加油加气站","xiaolei":"-9999","address":"兴业路338","zhonglei":"7311","dalei":"1","type":"gas"}},
{"type":"Feature","geometry":{"type":"Point","coordinates":[114.326071,30.665667]},"properties":{"name":"加油站（机电园路）","xiaolei":"-9999","address":"","zhonglei":"7311","dalei":"1","type":"gas"}},
{"type":"Feature","geometry":{"type":"Point","coordinates":[114.323931,30.643483]},"properties":{"name":"军基加油站","xiaolei":"-9999","address":"","zhonglei":"7311","dalei":"1","type":"gas"}},
{"type":"Feature","geometry":{"type":"Point","coordinates":[114.31542,30.652138]},"properties":{"name":"加油加气站","xiaolei":"-9999","address":"","zhonglei":"7311","dalei":"1","type":"gas"}},
{"type":"Feature","geometry":{"type":"Point","coordinates":[114.327808,30.65566]},"properties":{"name":"金湖加油站","xiaolei":"-9999","address":"解放大道2693","zhonglei":"7311","dalei":"1","type":"gas"}},
{"type":"Feature","geometry":{"type":"Point","coordinates":[114.281146,30.64294]},"properties":{"name":"幸福大道ＣＮＧ油气合建站","xiaolei":"-9999","address":"","zhonglei":"7311","dalei":"1","type":"gas"}},
{"type":"Feature","geometry":{"type":"Point","coordinates":[114.290664,30.600672]},"properties":{"name":"百步亭加油站","xiaolei":"-9999","address":"解放大道1705号","zhonglei":"7311","dalei":"1","type":"gas"}},
{"type":"Feature","geometry":{"type":"Point","coordinates":[114.372879,30.6031]},"properties":{"name":"加油站","xiaolei":"-9999","address":"","zhonglei":"7311","dalei":"1","type":"gas"}},
{"type":"Feature","geometry":{"type":"Point","coordinates":[114.401715,30.632499]},"properties":{"name":"加油站（冶金大道）","xiaolei":"-9999","address":"白玉山喻家大湾","zhonglei":"7311","dalei":"1","type":"gas"}},
{"type":"Feature","geometry":{"type":"Point","coordinates":[114.432342,30.649609]},"properties":{"name":"凤凰山加油站","xiaolei":"-9999","address":"","zhonglei":"7311","dalei":"1","type":"gas"}},
{"type":"Feature","geometry":{"type":"Point","coordinates":[114.464813,30.598256]},"properties":{"name":"加油站（青化路）","xiaolei":"-9999","address":"","zhonglei":"7311","dalei":"1","type":"gas"}},
{"type":"Feature","geometry":{"type":"Point","coordinates":[114.474353,30.603393]},"properties":{"name":"加油站（青山区城管执法局白玉山中","xiaolei":"-9999","address":"","zhonglei":"7311","dalei":"1","type":"gas"}},
{"type":"Feature","geometry":{"type":"Point","coordinates":[114.470522,30.616988]},"properties":{"name":"加油站（攀建新苑西北）","xiaolei":"-9999","address":"","zhonglei":"7311","dalei":"1","type":"gas"}},
{"type":"Feature","geometry":{"type":"Point","coordinates":[114.404375,30.621291]},"properties":{"name":"加油站（现代花园社区卫生服务站东","xiaolei":"-9999","address":"","zhonglei":"7311","dalei":"1","type":"gas"}},
{"type":"Feature","geometry":{"type":"Point","coordinates":[114.434688,30.590499]},"properties":{"name":"加油站（东湖生态旅游风景区第一社","xiaolei":"-9999","address":"","zhonglei":"7311","dalei":"1","type":"gas"}},
{"type":"Feature","geometry":{"type":"Point","coordinates":[114.433605,30.601132]},"properties":{"name":"加油站","xiaolei":"-9999","address":"","zhonglei":"7311","dalei":"1","type":"gas"}},
{"type":"Feature","geometry":{"type":"Point","coordinates":[114.404795,30.646088]},"properties":{"name":"建十加油站","xiaolei":"-9999","address":"和平大道建设十路","zhonglei":"7311","dalei":"1","type":"gas"}},
{"type":"Feature","geometry":{"type":"Point","coordinates":[114.418531,30.645032]},"properties":{"name":"加油站（工人村路）","xiaolei":"-9999","address":"工人村路154-156号","zhonglei":"7311","dalei":"1","type":"gas"}},
{"type":"Feature","geometry":{"type":"Point","coordinates":[114.413747,30.631009]},"properties":{"name":"武汉民生冶金大道加气站","xiaolei":"-9999","address":"","zhonglei":"7311","dalei":"1","type":"gas"}},
{"type":"Feature","geometry":{"type":"Point","coordinates":[114.412408,30.63063]},"properties":{"name":"加油站（武汉市公路规费江南征收中","xiaolei":"-9999","address":"冶金大道51号","zhonglei":"7311","dalei":"1","type":"gas"}},
{"type":"Feature","geometry":{"type":"Point","coordinates":[114.421021,30.628287]},"properties":{"name":"加油站（苏家咀）","xiaolei":"-9999","address":"","zhonglei":"7311","dalei":"1","type":"gas"}},
{"type":"Feature","geometry":{"type":"Point","coordinates":[114.382251,30.609771]},"properties":{"name":"加油站（景胜花园东）","xiaolei":"-9999","address":"","zhonglei":"7311","dalei":"1","type":"gas"}},
{"type":"Feature","geometry":{"type":"Point","coordinates":[114.456553,30.657044]},"properties":{"name":"加油站（中共八吉府街工作委员会南","xiaolei":"-9999","address":"","zhonglei":"7311","dalei":"1","type":"gas"}},
{"type":"Feature","geometry":{"type":"Point","coordinates":[114.492136,30.605333]},"properties":{"name":"加油站","xiaolei":"-9999","address":"","zhonglei":"7311","dalei":"1","type":"gas"}},
{"type":"Feature","geometry":{"type":"Point","coordinates":[114.42952,30.64923]},"properties":{"name":"加油站（二十一号公路）","xiaolei":"-9999","address":"","zhonglei":"7311","dalei":"1","type":"gas"}},
{"type":"Feature","geometry":{"type":"Point","coordinates":[114.465555,30.632473]},"properties":{"name":"加油站（白玉路）","xiaolei":"-9999","address":"","zhonglei":"7311","dalei":"1","type":"gas"}},
{"type":"Feature","geometry":{"type":"Point","coordinates":[114.456365,30.655036]},"properties":{"name":"加油站（武汉化学工业区建设卫生院","xiaolei":"-9999","address":"","zhonglei":"7311","dalei":"1","type":"gas"}},
{"type":"Feature","geometry":{"type":"Point","coordinates":[114.494976,30.606132]},"properties":{"name":"加油站（八吉鑫府小区东南）","xiaolei":"-9999","address":"","zhonglei":"7311","dalei":"1","type":"gas"}},
{"type":"Feature","geometry":{"type":"Point","coordinates":[114.432935,30.609849]},"properties":{"name":"武冶加油站","xiaolei":"-9999","address":"厂前路","zhonglei":"7311","dalei":"1","type":"gas"}},
{"type":"Feature","geometry":{"type":"Point","coordinates":[114.428416,30.589273]},"properties":{"name":"（服务区）加油站","xiaolei":"-9999","address":"","zhonglei":"7311","dalei":"1","type":"gas"}},
{"type":"Feature","geometry":{"type":"Point","coordinates":[114.409746,30.631749]},"properties":{"name":"加油站（青山区城市管理《执法》局","xiaolei":"-9999","address":"","zhonglei":"7311","dalei":"1","type":"gas"}},
{"type":"Feature","geometry":{"type":"Point","coordinates":[114.409792,30.631934]},"properties":{"name":"中能燃气加气站","xiaolei":"-9999","address":"","zhonglei":"7311","dalei":"1","type":"gas"}},
{"type":"Feature","geometry":{"type":"Point","coordinates":[114.425931,30.613237]},"properties":{"name":"加油站（武汉火车站综合管理办公楼","xiaolei":"-9999","address":"","zhonglei":"7311","dalei":"1","type":"gas"}},
{"type":"Feature","geometry":{"type":"Point","coordinates":[114.475878,30.603918]},"properties":{"name":"江钻白玉山天然气加气站","xiaolei":"-9999","address":"","zhonglei":"7311","dalei":"1","type":"gas"}},
{"type":"Feature","geometry":{"type":"Point","coordinates":[114.514935,30.646325]},"properties":{"name":"加油站（八吉府大街）","xiaolei":"-9999","address":"","zhonglei":"7311","dalei":"1","type":"gas"}},
{"type":"Feature","geometry":{"type":"Point","coordinates":[114.192154,30.542804]},"properties":{"name":"加油站（龙阳大道）","xiaolei":"-9999","address":"龙阳大道114","zhonglei":"7311","dalei":"1","type":"gas"}},
{"type":"Feature","geometry":{"type":"Point","coordinates":[114.189887,30.539279]},"properties":{"name":"龙阳湖加油站","xiaolei":"-9999","address":"龙阳大道132号","zhonglei":"7311","dalei":"1","type":"gas"}},
{"type":"Feature","geometry":{"type":"Point","coordinates":[114.185163,30.533819]},"properties":{"name":"升官渡加油站","xiaolei":"-9999","address":"","zhonglei":"7311","dalei":"1","type":"gas"}},
{"type":"Feature","geometry":{"type":"Point","coordinates":[114.163778,30.567337]},"properties":{"name":"加油站（汉阳大道）","xiaolei":"-9999","address":"","zhonglei":"7311","dalei":"1","type":"gas"}},
{"type":"Feature","geometry":{"type":"Point","coordinates":[114.193865,30.567077]},"properties":{"name":"加油站（华福苑东北）","xiaolei":"-9999","address":"","zhonglei":"7311","dalei":"1","type":"gas"}},
{"type":"Feature","geometry":{"type":"Point","coordinates":[114.173143,30.567325]},"properties":{"name":"加油站（仙山创业中心观湖星座东南","xiaolei":"-9999","address":"永丰乡仙山村","zhonglei":"7311","dalei":"1","type":"gas"}},
{"type":"Feature","geometry":{"type":"Point","coordinates":[114.165051,30.546021]},"properties":{"name":"（服务区）加油站","xiaolei":"-9999","address":"","zhonglei":"7311","dalei":"1","type":"gas"}},
{"type":"Feature","geometry":{"type":"Point","coordinates":[114.230689,30.553962]},"properties":{"name":"加油站（墨水湖北路）","xiaolei":"-9999","address":"墨水湖北路","zhonglei":"7311","dalei":"1","type":"gas"}},
{"type":"Feature","geometry":{"type":"Point","coordinates":[114.200229,30.553186]},"properties":{"name":"加油站（龙阳村卫生所西）","xiaolei":"-9999","address":"","zhonglei":"7311","dalei":"1","type":"gas"}},
{"type":"Feature","geometry":{"type":"Point","coordinates":[114.248718,30.574271]},"properties":{"name":"加油站（京汉大道）","xiaolei":"-9999","address":"京汉大道362","zhonglei":"7311","dalei":"1","type":"gas"}},
{"type":"Feature","geometry":{"type":"Point","coordinates":[114.2465,30.576686]},"properties":{"name":"中化道达尔加油站（硚口路）","xiaolei":"-9999","address":"硚口路164号","zhonglei":"7311","dalei":"1","type":"gas"}},
{"type":"Feature","geometry":{"type":"Point","coordinates":[114.240551,30.561086]},"properties":{"name":"月湖桥加油站","xiaolei":"-9999","address":"","zhonglei":"7311","dalei":"1","type":"gas"}},
{"type":"Feature","geometry":{"type":"Point","coordinates":[114.241998,30.554529]},"properties":{"name":"加油站（琴台颖园西南）","xiaolei":"-9999","address":"","zhonglei":"7311","dalei":"1","type":"gas"}},
{"type":"Feature","geometry":{"type":"Point","coordinates":[114.239262,30.554723]},"properties":{"name":"加油站（汉阳大道）","xiaolei":"-9999","address":"","zhonglei":"7311","dalei":"1","type":"gas"}},
{"type":"Feature","geometry":{"type":"Point","coordinates":[114.224514,30.566208]},"properties":{"name":"加油站（罗七路）","xiaolei":"-9999","address":"","zhonglei":"7311","dalei":"1","type":"gas"}},
{"type":"Feature","geometry":{"type":"Point","coordinates":[114.238824,30.553314]},"properties":{"name":"加油站（动物园路）","xiaolei":"-9999","address":"","zhonglei":"7311","dalei":"1","type":"gas"}},
{"type":"Feature","geometry":{"type":"Point","coordinates":[114.228447,30.579179]},"properties":{"name":"加油站（同济来福康医院西）","xiaolei":"-9999","address":"解放大道543","zhonglei":"7311","dalei":"1","type":"gas"}},
{"type":"Feature","geometry":{"type":"Point","coordinates":[114.233648,30.578683]},"properties":{"name":"加油站（中共汉水桥街工作委员会东","xiaolei":"-9999","address":"解放大道671","zhonglei":"7311","dalei":"1","type":"gas"}},
{"type":"Feature","geometry":{"type":"Point","coordinates":[114.24463,30.518873]},"properties":{"name":"加油站（鹦鹉大道）","xiaolei":"-9999","address":"鹦鹉大道481号","zhonglei":"7311","dalei":"1","type":"gas"}},
{"type":"Feature","geometry":{"type":"Point","coordinates":[114.24312,30.518044]},"properties":{"name":"加油站（湖北路桥青年公寓北）","xiaolei":"-9999","address":"","zhonglei":"7311","dalei":"1","type":"gas"}},
{"type":"Feature","geometry":{"type":"Point","coordinates":[114.177017,30.500821]},"properties":{"name":"蓝焰油气沌口加气站","xiaolei":"-9999","address":"车城东路1","zhonglei":"7311","dalei":"1","type":"gas"}},
{"type":"Feature","geometry":{"type":"Point","coordinates":[114.23918,30.533141]},"properties":{"name":"加油加气站","xiaolei":"-9999","address":"","zhonglei":"7311","dalei":"1","type":"gas"}},
{"type":"Feature","geometry":{"type":"Point","coordinates":[114.166247,30.546115]},"properties":{"name":"（服务区）加油站","xiaolei":"-9999","address":"永丰乡罗家嘴工业园三环线","zhonglei":"7311","dalei":"1","type":"gas"}},
{"type":"Feature","geometry":{"type":"Point","coordinates":[114.231324,30.575622]},"properties":{"name":"加油站（沿河大道）","xiaolei":"-9999","address":"沿河大道349附1","zhonglei":"7311","dalei":"1","type":"gas"}},
{"type":"Feature","geometry":{"type":"Point","coordinates":[114.215945,30.571529]},"properties":{"name":"加油站（琴台大道）","xiaolei":"-9999","address":"琴台大道与赫山路交汇处","zhonglei":"7311","dalei":"1","type":"gas"}},
{"type":"Feature","geometry":{"type":"Point","coordinates":[114.244982,30.558139]},"properties":{"name":"加油站（五琴里社区西北）","xiaolei":"-9999","address":"","zhonglei":"7311","dalei":"1","type":"gas"}},
{"type":"Feature","geometry":{"type":"Point","coordinates":[114.2124,30.519137]},"properties":{"name":"加油站（江城大道）","xiaolei":"-9999","address":"","zhonglei":"7311","dalei":"1","type":"gas"}},
{"type":"Feature","geometry":{"type":"Point","coordinates":[114.177829,30.56709]},"properties":{"name":"加油站（仙山村）","xiaolei":"-9999","address":"","zhonglei":"7311","dalei":"1","type":"gas"}},
{"type":"Feature","geometry":{"type":"Point","coordinates":[114.223153,30.533206]},"properties":{"name":"加油站（研墨亭西南）","xiaolei":"-9999","address":"","zhonglei":"7311","dalei":"1","type":"gas"}},
{"type":"Feature","geometry":{"type":"Point","coordinates":[114.197081,30.575105]},"properties":{"name":"武汉大隆汉江村加气站","xiaolei":"-9999","address":"","zhonglei":"7311","dalei":"1","type":"gas"}},
{"type":"Feature","geometry":{"type":"Point","coordinates":[114.215204,30.565292]},"properties":{"name":"十里铺加气站","xiaolei":"-9999","address":"赫山路","zhonglei":"7311","dalei":"1","type":"gas"}},
{"type":"Feature","geometry":{"type":"Point","coordinates":[114.225417,30.559514]},"properties":{"name":"加油站（七里香苑东）","xiaolei":"-9999","address":"","zhonglei":"7311","dalei":"1","type":"gas"}},
{"type":"Feature","geometry":{"type":"Point","coordinates":[114.242406,30.538794]},"properties":{"name":"中化道达尔加油站（江堤中路）","xiaolei":"-9999","address":"","zhonglei":"7311","dalei":"1","type":"gas"}},
{"type":"Feature","geometry":{"type":"Point","coordinates":[114.222049,30.533771]},"properties":{"name":"加油站（小洲新村）","xiaolei":"-9999","address":"","zhonglei":"7311","dalei":"1","type":"gas"}},
{"type":"Feature","geometry":{"type":"Point","coordinates":[114.162692,30.553078]},"properties":{"name":"（服务区）加油站","xiaolei":"-9999","address":"","zhonglei":"7311","dalei":"1","type":"gas"}},
{"type":"Feature","geometry":{"type":"Point","coordinates":[114.197081,30.575105]},"properties":{"name":"加油站（永开商住楼北）","xiaolei":"-9999","address":"","zhonglei":"7311","dalei":"1","type":"gas"}},
{"type":"Feature","geometry":{"type":"Point","coordinates":[114.215173,30.565188]},"properties":{"name":"加油站（汉阳区城市管理执法局执法","xiaolei":"-9999","address":"","zhonglei":"7311","dalei":"1","type":"gas"}},
{"type":"Feature","geometry":{"type":"Point","coordinates":[114.143863,30.560667]},"properties":{"name":"董家店加油站","xiaolei":"-9999","address":"","zhonglei":"7311","dalei":"1","type":"gas"}},
{"type":"Feature","geometry":{"type":"Point","coordinates":[114.136796,30.561574]},"properties":{"name":"快活岭加油站","xiaolei":"-9999","address":"","zhonglei":"7311","dalei":"1","type":"gas"}},
{"type":"Feature","geometry":{"type":"Point","coordinates":[114.220332,30.55538]},"properties":{"name":"蓝焰油气（麒麟路加注站）","xiaolei":"-9999","address":"墨水湖北路","zhonglei":"7311","dalei":"1","type":"gas"}},
{"type":"Feature","geometry":{"type":"Point","coordinates":[114.193752,30.567212]},"properties":{"name":"邹家湾加气站","xiaolei":"-9999","address":"汉阳大道","zhonglei":"7311","dalei":"1","type":"gas"}},
{"type":"Feature","geometry":{"type":"Point","coordinates":[114.183176,30.51218]},"properties":{"name":"加油站（武汉市汉阳区政协东北）","xiaolei":"-9999","address":"","zhonglei":"7311","dalei":"1","type":"gas"}},
{"type":"Feature","geometry":{"type":"Point","coordinates":[114.249658,30.552492]},"properties":{"name":"武汉大隆翠微加气站","xiaolei":"-9999","address":"","zhonglei":"7311","dalei":"1","type":"gas"}},
{"type":"Feature","geometry":{"type":"Point","coordinates":[114.215432,30.567584]},"properties":{"name":"加油站（赫山路）","xiaolei":"-9999","address":"","zhonglei":"7311","dalei":"1","type":"gas"}},
{"type":"Feature","geometry":{"type":"Point","coordinates":[114.210483,30.559103]},"properties":{"name":"墨水湖油气站","xiaolei":"-9999","address":"十里铺5号墨水湖","zhonglei":"7311","dalei":"1","type":"gas"}},
{"type":"Feature","geometry":{"type":"Point","coordinates":[114.246205,30.540377]},"properties":{"name":"加油站（马鹦路）","xiaolei":"-9999","address":"马鹦路","zhonglei":"7311","dalei":"1","type":"gas"}},
{"type":"Feature","geometry":{"type":"Point","coordinates":[114.246205,30.540377]},"properties":{"name":"江钻邓甲村天然气加气站","xiaolei":"-9999","address":"马鹦路199号","zhonglei":"7311","dalei":"1","type":"gas"}},
{"type":"Feature","geometry":{"type":"Point","coordinates":[114.170949,30.566868]},"properties":{"name":"武汉大隆加油站","xiaolei":"-9999","address":"","zhonglei":"7311","dalei":"1","type":"gas"}},
{"type":"Feature","geometry":{"type":"Point","coordinates":[114.261834,30.538327]},"properties":{"name":"加油站（新民社区南）","xiaolei":"-9999","address":"","zhonglei":"7311","dalei":"1","type":"gas"}},
{"type":"Feature","geometry":{"type":"Point","coordinates":[114.262862,30.545639]},"properties":{"name":"捷达加油站","xiaolei":"-9999","address":"拦江路201","zhonglei":"7311","dalei":"1","type":"gas"}},
{"type":"Feature","geometry":{"type":"Point","coordinates":[114.309435,30.556782]},"properties":{"name":"中山路加油站","xiaolei":"-9999","address":"中山路233号","zhonglei":"7311","dalei":"1","type":"gas"}},
{"type":"Feature","geometry":{"type":"Point","coordinates":[114.346801,30.569361]},"properties":{"name":"加油站（中油大厦西）","xiaolei":"-9999","address":"","zhonglei":"7311","dalei":"1","type":"gas"}},
{"type":"Feature","geometry":{"type":"Point","coordinates":[114.339306,30.559959]},"properties":{"name":"加油站（中北路）","xiaolei":"-9999","address":"","zhonglei":"7311","dalei":"1","type":"gas"}},
{"type":"Feature","geometry":{"type":"Point","coordinates":[114.351563,30.571782]},"properties":{"name":"黄鹂路加气站","xiaolei":"-9999","address":"","zhonglei":"7311","dalei":"1","type":"gas"}},
{"type":"Feature","geometry":{"type":"Point","coordinates":[114.309433,30.556779]},"properties":{"name":"江钻中山路天然气加气站","xiaolei":"-9999","address":"中山路","zhonglei":"7311","dalei":"1","type":"gas"}},
{"type":"Feature","geometry":{"type":"Point","coordinates":[114.346802,30.512217]},"properties":{"name":"加油站（雄楚大道）","xiaolei":"-9999","address":"","zhonglei":"7311","dalei":"1","type":"gas"}},
{"type":"Feature","geometry":{"type":"Point","coordinates":[114.327284,30.519222]},"properties":{"name":"江夏加油站","xiaolei":"-9999","address":"雄楚大道230","zhonglei":"7311","dalei":"1","type":"gas"}},
{"type":"Feature","geometry":{"type":"Point","coordinates":[114.295253,30.519442]},"properties":{"name":"加油站（白沙洲大道高架）","xiaolei":"-9999","address":"","zhonglei":"7311","dalei":"1","type":"gas"}},
{"type":"Feature","geometry":{"type":"Point","coordinates":[114.357728,30.511188]},"properties":{"name":"加油站（新竹苑西）","xiaolei":"-9999","address":"","zhonglei":"7311","dalei":"1","type":"gas"}},
{"type":"Feature","geometry":{"type":"Point","coordinates":[114.335174,30.504421]},"properties":{"name":"加油站（丽岛花园西北）","xiaolei":"-9999","address":"","zhonglei":"7311","dalei":"1","type":"gas"}},
{"type":"Feature","geometry":{"type":"Point","coordinates":[114.287354,30.544573]},"properties":{"name":"武汉生物所平湖门加油站","xiaolei":"-9999","address":"临江大道9号","zhonglei":"7311","dalei":"1","type":"gas"}},
{"type":"Feature","geometry":{"type":"Point","coordinates":[114.285801,30.518669]},"properties":{"name":"加油站（武金堤公路）","xiaolei":"-9999","address":"","zhonglei":"7311","dalei":"1","type":"gas"}},
{"type":"Feature","geometry":{"type":"Point","coordinates":[114.281416,30.514439]},"properties":{"name":"中国武汉五环加油站","xiaolei":"-9999","address":"","zhonglei":"7311","dalei":"1","type":"gas"}},
{"type":"Feature","geometry":{"type":"Point","coordinates":[114.29347,30.514103]},"properties":{"name":"加油站（烽火村东北）","xiaolei":"-9999","address":"","zhonglei":"7311","dalei":"1","type":"gas"}},
{"type":"Feature","geometry":{"type":"Point","coordinates":[114.28806,30.505785]},"properties":{"name":"湖北乔木湾加油站","xiaolei":"-9999","address":"烽火村","zhonglei":"7311","dalei":"1","type":"gas"}},
{"type":"Feature","geometry":{"type":"Point","coordinates":[114.317412,30.530811]},"properties":{"name":"加油站（波光园东）","xiaolei":"-9999","address":"静安路20","zhonglei":"7311","dalei":"1","type":"gas"}},
{"type":"Feature","geometry":{"type":"Point","coordinates":[114.313877,30.523293]},"properties":{"name":"加油站（武铁电务公司晒湖小区南）","xiaolei":"-9999","address":"","zhonglei":"7311","dalei":"1","type":"gas"}},
{"type":"Feature","geometry":{"type":"Point","coordinates":[114.297401,30.557253]},"properties":{"name":"积玉桥加油站","xiaolei":"-9999","address":"中山路88号","zhonglei":"7311","dalei":"1","type":"gas"}},
{"type":"Feature","geometry":{"type":"Point","coordinates":[114.340861,30.553518]},"properties":{"name":"加油站（天永公寓西）","xiaolei":"-9999","address":"东湖路84","zhonglei":"7311","dalei":"1","type":"gas"}},
{"type":"Feature","geometry":{"type":"Point","coordinates":[114.370666,30.533084]},"properties":{"name":"加油站（卓刀泉北路）","xiaolei":"-9999","address":"东湖南路19号","zhonglei":"7311","dalei":"1","type":"gas"}},
{"type":"Feature","geometry":{"type":"Point","coordinates":[114.344938,30.538431]},"properties":{"name":"加油站（小洪山中区南）","xiaolei":"-9999","address":"八一路106号","zhonglei":"7311","dalei":"1","type":"gas"}},
{"type":"Feature","geometry":{"type":"Point","coordinates":[114.367748,30.530702]},"properties":{"name":"加油站（风光苑西北）","xiaolei":"-9999","address":"","zhonglei":"7311","dalei":"1","type":"gas"}},
{"type":"Feature","geometry":{"type":"Point","coordinates":[114.355344,30.512448]},"properties":{"name":"加油站（雄楚国际大酒店西）","xiaolei":"-9999","address":"","zhonglei":"7311","dalei":"1","type":"gas"}},
{"type":"Feature","geometry":{"type":"Point","coordinates":[114.348381,30.512923]},"properties":{"name":"加油站（汉飞精英青年城西南）","xiaolei":"-9999","address":"雄楚大道259","zhonglei":"7311","dalei":"1","type":"gas"}},
{"type":"Feature","geometry":{"type":"Point","coordinates":[114.32855,30.532442]},"properties":{"name":"加油站（丁字桥路）","xiaolei":"-9999","address":"丁字桥路9","zhonglei":"7311","dalei":"1","type":"gas"}},
{"type":"Feature","geometry":{"type":"Point","coordinates":[114.312621,30.535152]},"properties":{"name":"加油站（紫阳东路）","xiaolei":"-9999","address":"武珞路","zhonglei":"7311","dalei":"1","type":"gas"}},
{"type":"Feature","geometry":{"type":"Point","coordinates":[114.373953,30.507802]},"properties":{"name":"加油站（五环社区西）","xiaolei":"-9999","address":"雄楚大道535","zhonglei":"7311","dalei":"1","type":"gas"}},
{"type":"Feature","geometry":{"type":"Point","coordinates":[114.352836,30.553679]},"properties":{"name":"中化道达尔加油站（秀水公寓东北）","xiaolei":"-9999","address":"","zhonglei":"7311","dalei":"1","type":"gas"}},
{"type":"Feature","geometry":{"type":"Point","coordinates":[114.262129,30.558392]},"properties":{"name":"加油站（龟山北路）","xiaolei":"-9999","address":"","zhonglei":"7311","dalei":"1","type":"gas"}},
{"type":"Feature","geometry":{"type":"Point","coordinates":[114.316684,30.522593]},"properties":{"name":"雄楚ＣＮＧ加气站","xiaolei":"-9999","address":"","zhonglei":"7311","dalei":"1","type":"gas"}},
{"type":"Feature","geometry":{"type":"Point","coordinates":[114.316296,30.522673]},"properties":{"name":"加油站（中南路街晒湖社区卫生服务","xiaolei":"-9999","address":"雄楚大街55","zhonglei":"7311","dalei":"1","type":"gas"}},
{"type":"Feature","geometry":{"type":"Point","coordinates":[114.342083,30.577817]},"properties":{"name":"加油站（秦园东路）","xiaolei":"-9999","address":"秦园东路","zhonglei":"7311","dalei":"1","type":"gas"}},
{"type":"Feature","geometry":{"type":"Point","coordinates":[114.323365,30.521696]},"properties":{"name":"天欣花园加气站","xiaolei":"-9999","address":"","zhonglei":"7311","dalei":"1","type":"gas"}},
{"type":"Feature","geometry":{"type":"Point","coordinates":[114.25281,30.523669]},"properties":{"name":"宏港石化加油站","xiaolei":"-9999","address":"建港两湖路","zhonglei":"7311","dalei":"1","type":"gas"}},
{"type":"Feature","geometry":{"type":"Point","coordinates":[114.355416,30.559844]},"properties":{"name":"加油站（东湖宾馆西北）","xiaolei":"-9999","address":"","zhonglei":"7311","dalei":"1","type":"gas"}},
{"type":"Feature","geometry":{"type":"Point","coordinates":[114.304262,30.506597]},"properties":{"name":"加油站（南湖安六小区西）","xiaolei":"-9999","address":"","zhonglei":"7311","dalei":"1","type":"gas"}},
{"type":"Feature","geometry":{"type":"Point","coordinates":[114.312332,30.563287]},"properties":{"name":"琪琳沙湖加油站","xiaolei":"-9999","address":"友谊大道特1号","zhonglei":"7311","dalei":"1","type":"gas"}},
{"type":"Feature","geometry":{"type":"Point","coordinates":[114.26134,30.537641]},"properties":{"name":"加油站（雅居苑小区东）","xiaolei":"-9999","address":"鹦鹉大道鹦鹉路","zhonglei":"7311","dalei":"1","type":"gas"}},
{"type":"Feature","geometry":{"type":"Point","coordinates":[114.284102,30.500518]},"properties":{"name":"加油站（张家湾社区东北）","xiaolei":"-9999","address":"","zhonglei":"7311","dalei":"1","type":"gas"}},
{"type":"Feature","geometry":{"type":"Point","coordinates":[114.309024,30.532373]},"properties":{"name":"武汉公交石油加油站（中山路）","xiaolei":"-9999","address":"","zhonglei":"7311","dalei":"1","type":"gas"}},
{"type":"Feature","geometry":{"type":"Point","coordinates":[114.29932,30.522008]},"properties":{"name":"武泰闸加气站","xiaolei":"-9999","address":"","zhonglei":"7311","dalei":"1","type":"gas"}},
{"type":"Feature","geometry":{"type":"Point","coordinates":[114.312589,30.553313]},"properties":{"name":"加油站（中山路）","xiaolei":"-9999","address":"中山路213","zhonglei":"7311","dalei":"1","type":"gas"}},
{"type":"Feature","geometry":{"type":"Point","coordinates":[114.253318,30.575314]},"properties":{"name":"蓝焰油气京汉大道贝斯特加气站","xiaolei":"-9999","address":"京汉大道420号","zhonglei":"7311","dalei":"1","type":"gas"}},
{"type":"Feature","geometry":{"type":"Point","coordinates":[114.321405,30.53647]},"properties":{"name":"付家坡加油站","xiaolei":"-9999","address":"","zhonglei":"7311","dalei":"1","type":"gas"}},
{"type":"Feature","geometry":{"type":"Point","coordinates":[114.354791,30.557344]},"properties":{"name":"中石化梅岭加油站","xiaolei":"-9999","address":"东湖路绿园汽车修配旁","zhonglei":"7311","dalei":"1","type":"gas"}},
{"type":"Feature","geometry":{"type":"Point","coordinates":[114.29421,30.523632]},"properties":{"name":"加油站（新长江·新南门西北）","xiaolei":"-9999","address":"","zhonglei":"7311","dalei":"1","type":"gas"}},
{"type":"Feature","geometry":{"type":"Point","coordinates":[114.352927,30.51281]},"properties":{"name":"联勤石油加油站","xiaolei":"-9999","address":"","zhonglei":"7311","dalei":"1","type":"gas"}},
{"type":"Feature","geometry":{"type":"Point","coordinates":[114.468557,30.510164]},"properties":{"name":"洪环加油站","xiaolei":"-9999","address":"","zhonglei":"7311","dalei":"1","type":"gas"}},
{"type":"Feature","geometry":{"type":"Point","coordinates":[114.417257,30.508601]},"properties":{"name":"加油站（珞喻路）","xiaolei":"-9999","address":"","zhonglei":"7311","dalei":"1","type":"gas"}},
{"type":"Feature","geometry":{"type":"Point","coordinates":[114.435914,30.508778]},"properties":{"name":"关东加油站","xiaolei":"-9999","address":"东湖高新技术开发区珞喻东路20号","zhonglei":"7311","dalei":"1","type":"gas"}},
{"type":"Feature","geometry":{"type":"Point","coordinates":[114.384367,30.514357]},"properties":{"name":"加油站（珞喻路）","xiaolei":"-9999","address":"","zhonglei":"7311","dalei":"1","type":"gas"}},
{"type":"Feature","geometry":{"type":"Point","coordinates":[114.389424,30.511116]},"properties":{"name":"加油站（碧水花园西）","xiaolei":"-9999","address":"","zhonglei":"7311","dalei":"1","type":"gas"}},
{"type":"Feature","geometry":{"type":"Point","coordinates":[114.472171,30.508066]},"properties":{"name":"加油站（武汉市洪山区九峰乡人民政","xiaolei":"-9999","address":"","zhonglei":"7311","dalei":"1","type":"gas"}},
{"type":"Feature","geometry":{"type":"Point","coordinates":[114.44728,30.553381]},"properties":{"name":"加油站","xiaolei":"-9999","address":"","zhonglei":"7311","dalei":"1","type":"gas"}},
{"type":"Feature","geometry":{"type":"Point","coordinates":[114.455539,30.539314]},"properties":{"name":"加油站（建强小区东北）","xiaolei":"-9999","address":"","zhonglei":"7311","dalei":"1","type":"gas"}},
{"type":"Feature","geometry":{"type":"Point","coordinates":[114.438586,30.567719]},"properties":{"name":"加油站（青王路）","xiaolei":"-9999","address":"","zhonglei":"7311","dalei":"1","type":"gas"}},
{"type":"Feature","geometry":{"type":"Point","coordinates":[114.379497,30.503756]},"properties":{"name":"加油站（武汉楷德大酒店西）","xiaolei":"-9999","address":"","zhonglei":"7311","dalei":"1","type":"gas"}},
{"type":"Feature","geometry":{"type":"Point","coordinates":[114.432306,30.502874]},"properties":{"name":"加油站（光谷创业街）","xiaolei":"-9999","address":"","zhonglei":"7311","dalei":"1","type":"gas"}},
{"type":"Feature","geometry":{"type":"Point","coordinates":[114.517002,30.547112]},"properties":{"name":"加油站（土吴路）","xiaolei":"-9999","address":"","zhonglei":"7311","dalei":"1","type":"gas"}},
{"type":"Feature","geometry":{"type":"Point","coordinates":[114.112689,30.465165]},"properties":{"name":"沌阳加油站","xiaolei":"-9999","address":"东风大道557","zhonglei":"7311","dalei":"1","type":"gas"}},
{"type":"Feature","geometry":{"type":"Point","coordinates":[114.17112,30.486263]},"properties":{"name":"鸿泰加油站","xiaolei":"-9999","address":"","zhonglei":"7311","dalei":"1","type":"gas"}},
{"type":"Feature","geometry":{"type":"Point","coordinates":[114.177793,30.465869]},"properties":{"name":"王玉油站","xiaolei":"-9999","address":"沌口路421","zhonglei":"7311","dalei":"1","type":"gas"}},
{"type":"Feature","geometry":{"type":"Point","coordinates":[114.198287,30.462618]},"properties":{"name":"加油站（沌口路）","xiaolei":"-9999","address":"沌口路111号","zhonglei":"7311","dalei":"1","type":"gas"}},
{"type":"Feature","geometry":{"type":"Point","coordinates":[114.129389,30.474267]},"properties":{"name":"车城加油站（鑫华庭园西南）","xiaolei":"-9999","address":"","zhonglei":"7311","dalei":"1","type":"gas"}},
{"type":"Feature","geometry":{"type":"Point","coordinates":[114.186228,30.483286]},"properties":{"name":"加油站","xiaolei":"-9999","address":"","zhonglei":"7311","dalei":"1","type":"gas"}},
{"type":"Feature","geometry":{"type":"Point","coordinates":[114.20351,30.440126]},"properties":{"name":"加油站（石嘴幼儿园东北）","xiaolei":"-9999","address":"","zhonglei":"7311","dalei":"1","type":"gas"}},
{"type":"Feature","geometry":{"type":"Point","coordinates":[114.186438,30.484107]},"properties":{"name":"江城大道油气合建站","xiaolei":"-9999","address":"江城大道532","zhonglei":"7311","dalei":"1","type":"gas"}},
{"type":"Feature","geometry":{"type":"Point","coordinates":[114.24987,30.483009]},"properties":{"name":"加油站（武金堤路）","xiaolei":"-9999","address":"","zhonglei":"7311","dalei":"1","type":"gas"}},
{"type":"Feature","geometry":{"type":"Point","coordinates":[114.142276,30.497068]},"properties":{"name":"车城西路加油站","xiaolei":"-9999","address":"","zhonglei":"7311","dalei":"1","type":"gas"}},
{"type":"Feature","geometry":{"type":"Point","coordinates":[114.306032,30.452768]},"properties":{"name":"加油站","xiaolei":"-9999","address":"","zhonglei":"7311","dalei":"1","type":"gas"}},
{"type":"Feature","geometry":{"type":"Point","coordinates":[114.334684,30.493744]},"properties":{"name":"加油站（珞狮路）","xiaolei":"-9999","address":"南湖大道南湖大道64号","zhonglei":"7311","dalei":"1","type":"gas"}},
{"type":"Feature","geometry":{"type":"Point","coordinates":[114.359426,30.462321]},"properties":{"name":"（服务区）加油站","xiaolei":"-9999","address":"","zhonglei":"7311","dalei":"1","type":"gas"}},
{"type":"Feature","geometry":{"type":"Point","coordinates":[114.280234,30.49745]},"properties":{"name":"江钻八坦路天然气加气站","xiaolei":"-9999","address":"张家湾街江钻八坦路60号","zhonglei":"7311","dalei":"1","type":"gas"}},
{"type":"Feature","geometry":{"type":"Point","coordinates":[114.280624,30.49769]},"properties":{"name":"加油站（白沙洲大道）","xiaolei":"-9999","address":"白沙洲大道235号","zhonglei":"7311","dalei":"1","type":"gas"}},
{"type":"Feature","geometry":{"type":"Point","coordinates":[114.345065,30.46044]},"properties":{"name":"（服务区）加油站","xiaolei":"-9999","address":"","zhonglei":"7311","dalei":"1","type":"gas"}},
{"type":"Feature","geometry":{"type":"Point","coordinates":[114.35905,30.461305]},"properties":{"name":"（服务区）加油站","xiaolei":"-9999","address":"","zhonglei":"7311","dalei":"1","type":"gas"}},
{"type":"Feature","geometry":{"type":"Point","coordinates":[114.310453,30.450177]},"properties":{"name":"加油站（虹桥家园西南）","xiaolei":"-9999","address":"","zhonglei":"7311","dalei":"1","type":"gas"}},
{"type":"Feature","geometry":{"type":"Point","coordinates":[114.267562,30.477712]},"properties":{"name":"聚富星１０６加油站","xiaolei":"-9999","address":"","zhonglei":"7311","dalei":"1","type":"gas"}},
{"type":"Feature","geometry":{"type":"Point","coordinates":[114.260075,30.475199]},"properties":{"name":"（服务区）加油站","xiaolei":"-9999","address":"","zhonglei":"7311","dalei":"1","type":"gas"}},
{"type":"Feature","geometry":{"type":"Point","coordinates":[114.259086,30.474591]},"properties":{"name":"（服务区）加油站","xiaolei":"-9999","address":"","zhonglei":"7311","dalei":"1","type":"gas"}},
{"type":"Feature","geometry":{"type":"Point","coordinates":[114.323276,30.462797]},"properties":{"name":"加油站（珞狮南路）","xiaolei":"-9999","address":"","zhonglei":"7311","dalei":"1","type":"gas"}},
{"type":"Feature","geometry":{"type":"Point","coordinates":[114.302285,30.443184]},"properties":{"name":"加油站（武汉工业职业技术学院西南","xiaolei":"-9999","address":"","zhonglei":"7311","dalei":"1","type":"gas"}},
{"type":"Feature","geometry":{"type":"Point","coordinates":[114.320022,30.480376]},"properties":{"name":"加油站（野芷湖西路）","xiaolei":"-9999","address":"南湖大道野芷湖西路","zhonglei":"7311","dalei":"1","type":"gas"}},
{"type":"Feature","geometry":{"type":"Point","coordinates":[114.308467,30.485334]},"properties":{"name":"加油站（湖北工业大学社区卫生服务","xiaolei":"-9999","address":"","zhonglei":"7311","dalei":"1","type":"gas"}},
{"type":"Feature","geometry":{"type":"Point","coordinates":[114.264136,30.460008]},"properties":{"name":"加油站","xiaolei":"-9999","address":"","zhonglei":"7311","dalei":"1","type":"gas"}},
{"type":"Feature","geometry":{"type":"Point","coordinates":[114.26377,30.460878]},"properties":{"name":"加油站（洪山区青菱小学东北）","xiaolei":"-9999","address":"","zhonglei":"7311","dalei":"1","type":"gas"}},
{"type":"Feature","geometry":{"type":"Point","coordinates":[114.256136,30.446177]},"properties":{"name":"加油站（武汉科技大学校医院西）","xiaolei":"-9999","address":"","zhonglei":"7311","dalei":"1","type":"gas"}},
{"type":"Feature","geometry":{"type":"Point","coordinates":[114.307778,30.499899]},"properties":{"name":"南湖加气站","xiaolei":"-9999","address":"","zhonglei":"7311","dalei":"1","type":"gas"}},
{"type":"Feature","geometry":{"type":"Point","coordinates":[114.308342,30.499899]},"properties":{"name":"加油站（洪山区洪山街成宝社区卫生","xiaolei":"-9999","address":"","zhonglei":"7311","dalei":"1","type":"gas"}},
{"type":"Feature","geometry":{"type":"Point","coordinates":[114.30716,30.489262]},"properties":{"name":"加油站（拉德芳斯圣爱米伦Ⅱ南）","xiaolei":"-9999","address":"","zhonglei":"7311","dalei":"1","type":"gas"}},
{"type":"Feature","geometry":{"type":"Point","coordinates":[114.342834,30.482336]},"properties":{"name":"加油加气站","xiaolei":"-9999","address":"","zhonglei":"7311","dalei":"1","type":"gas"}},
{"type":"Feature","geometry":{"type":"Point","coordinates":[114.308039,30.499886]},"properties":{"name":"民生石油南湖加气站","xiaolei":"-9999","address":"","zhonglei":"7311","dalei":"1","type":"gas"}},
{"type":"Feature","geometry":{"type":"Point","coordinates":[114.317628,30.470226]},"properties":{"name":"加油加气站","xiaolei":"-9999","address":"","zhonglei":"7311","dalei":"1","type":"gas"}},
{"type":"Feature","geometry":{"type":"Point","coordinates":[114.271054,30.483988]},"properties":{"name":"加油站（青菱乡人民政府西南）","xiaolei":"-9999","address":"","zhonglei":"7311","dalei":"1","type":"gas"}},
{"type":"Feature","geometry":{"type":"Point","coordinates":[114.388429,30.475012]},"properties":{"name":"民族大道加油站","xiaolei":"-9999","address":"","zhonglei":"7311","dalei":"1","type":"gas"}},
{"type":"Feature","geometry":{"type":"Point","coordinates":[114.418546,30.467765]},"properties":{"name":"（服务区）加油站","xiaolei":"-9999","address":"","zhonglei":"7311","dalei":"1","type":"gas"}},
{"type":"Feature","geometry":{"type":"Point","coordinates":[114.400183,30.499555]},"properties":{"name":"加油站（阳光在线东）","xiaolei":"-9999","address":"雄楚大道1002","zhonglei":"7311","dalei":"1","type":"gas"}},
{"type":"Feature","geometry":{"type":"Point","coordinates":[114.413949,30.498478]},"properties":{"name":"加油站（东创仕佳南）","xiaolei":"-9999","address":"","zhonglei":"7311","dalei":"1","type":"gas"}},
{"type":"Feature","geometry":{"type":"Point","coordinates":[114.404676,30.486829]},"properties":{"name":"加油站（关山大道）","xiaolei":"-9999","address":"","zhonglei":"7311","dalei":"1","type":"gas"}},
{"type":"Feature","geometry":{"type":"Point","coordinates":[114.40454,30.477642]},"properties":{"name":"加油站（光谷坐标城西南）","xiaolei":"-9999","address":"","zhonglei":"7311","dalei":"1","type":"gas"}},
{"type":"Feature","geometry":{"type":"Point","coordinates":[114.4304,30.457701]},"properties":{"name":"加油站（流芳大道）","xiaolei":"-9999","address":"","zhonglei":"7311","dalei":"1","type":"gas"}},
{"type":"Feature","geometry":{"type":"Point","coordinates":[114.413555,30.491238]},"properties":{"name":"加注站","xiaolei":"-9999","address":"","zhonglei":"7311","dalei":"1","type":"gas"}},
{"type":"Feature","geometry":{"type":"Point","coordinates":[114.378535,30.441727]},"properties":{"name":"加油站（江夏区建筑管理站庙山分站","xiaolei":"-9999","address":"","zhonglei":"7311","dalei":"1","type":"gas"}},
{"type":"Feature","geometry":{"type":"Point","coordinates":[114.402132,30.472123]},"properties":{"name":"江钻天然气加气站","xiaolei":"-9999","address":"曙光二村","zhonglei":"7311","dalei":"1","type":"gas"}},
{"type":"Feature","geometry":{"type":"Point","coordinates":[114.47269,30.460548]},"properties":{"name":"加油站（高新四路）","xiaolei":"-9999","address":"","zhonglei":"7311","dalei":"1","type":"gas"}},
{"type":"Feature","geometry":{"type":"Point","coordinates":[114.433985,30.489981]},"properties":{"name":"加油加气站","xiaolei":"-9999","address":"","zhonglei":"7311","dalei":"1","type":"gas"}},
{"type":"Feature","geometry":{"type":"Point","coordinates":[114.40493,30.49148]},"properties":{"name":"关山加油站","xiaolei":"-9999","address":"关山大道332","zhonglei":"7311","dalei":"1","type":"gas"}},
{"type":"Feature","geometry":{"type":"Point","coordinates":[114.40941,30.467253]},"properties":{"name":"（服务区）光谷石油加油站","xiaolei":"-9999","address":"","zhonglei":"7311","dalei":"1","type":"gas"}},
{"type":"Feature","geometry":{"type":"Point","coordinates":[114.417117,30.480073]},"properties":{"name":"中醇化甲醇能源","xiaolei":"-9999","address":"","zhonglei":"7311","dalei":"1","type":"gas"}},
{"type":"Feature","geometry":{"type":"Point","coordinates":[114.408869,30.467094]},"properties":{"name":"（服务区）江钻东山头天燃气加气站","xiaolei":"-9999","address":"","zhonglei":"7311","dalei":"1","type":"gas"}}
]}