{"type":"FeatureCollection", "features": [
{"type":"Feature","geometry":{"type":"Point","coordinates":[114.119062,30.726879]},"properties":{"name":"红太阳酒店（东正街）","xiaolei":"7314003","address":"西正街21","zhonglei":"7314","dalei":"7","type":"hotel"}},
{"type":"Feature","geometry":{"type":"Point","coordinates":[114.118685,30.674951]},"properties":{"name":"海瑞酒店","xiaolei":"7314003","address":"","zhonglei":"7314","dalei":"7","type":"hotel"}},
{"type":"Feature","geometry":{"type":"Point","coordinates":[114.118478,30.728225]},"properties":{"name":"福泉客栈","xiaolei":"7314004","address":"茅庙集街65","zhonglei":"7314","dalei":"7","type":"hotel"}},
{"type":"Feature","geometry":{"type":"Point","coordinates":[114.227485,30.72928]},"properties":{"name":"木兰明天大酒店","xiaolei":"7314003","address":"盘龙城经济开发区许庙村特6号","zhonglei":"7314","dalei":"7","type":"hotel"}},
{"type":"Feature","geometry":{"type":"Point","coordinates":[114.233126,30.735279]},"properties":{"name":"瑞龙酒轩","xiaolei":"7314004","address":"城佳海工业园","zhonglei":"7314","dalei":"7","type":"hotel"}},
{"type":"Feature","geometry":{"type":"Point","coordinates":[114.231978,30.730244]},"properties":{"name":"梦庄宾馆","xiaolei":"7314003","address":"佳海综合二路31","zhonglei":"7314","dalei":"7","type":"hotel"}},
{"type":"Feature","geometry":{"type":"Point","coordinates":[114.246842,30.714516]},"properties":{"name":"龙安宾馆","xiaolei":"7314003","address":"巨龙大道205附22","zhonglei":"7314","dalei":"7","type":"hotel"}},
{"type":"Feature","geometry":{"type":"Point","coordinates":[114.159799,30.68062]},"properties":{"name":"富华宾馆（塔西路）","xiaolei":"7314003","address":"十字东街26","zhonglei":"7314","dalei":"7","type":"hotel"}},
{"type":"Feature","geometry":{"type":"Point","coordinates":[114.134232,30.703041]},"properties":{"name":"东光宾馆（张柏路）","xiaolei":"7314003","address":"杜松湖东光工业园旁","zhonglei":"7314","dalei":"7","type":"hotel"}},
{"type":"Feature","geometry":{"type":"Point","coordinates":[114.247273,30.714288]},"properties":{"name":"凯旋宾馆（盘龙店）","xiaolei":"7314003","address":"城广电中心附近","zhonglei":"7314","dalei":"7","type":"hotel"}},
{"type":"Feature","geometry":{"type":"Point","coordinates":[114.157078,30.680278]},"properties":{"name":"捷杰住宿","xiaolei":"7314004","address":"十字西街50","zhonglei":"7314","dalei":"7","type":"hotel"}},
{"type":"Feature","geometry":{"type":"Point","coordinates":[114.235273,30.734474]},"properties":{"name":"星期八时尚宾馆","xiaolei":"7314003","address":"朱岗路","zhonglei":"7314","dalei":"7","type":"hotel"}},
{"type":"Feature","geometry":{"type":"Point","coordinates":[114.235651,30.733668]},"properties":{"name":"爱国商务宾馆","xiaolei":"7314003","address":"宋岗路13","zhonglei":"7314","dalei":"7","type":"hotel"}},
{"type":"Feature","geometry":{"type":"Point","coordinates":[114.235986,30.733866]},"properties":{"name":"佳宾假日旅店","xiaolei":"7314004","address":"宋岗路20","zhonglei":"7314","dalei":"7","type":"hotel"}},
{"type":"Feature","geometry":{"type":"Point","coordinates":[114.234045,30.735292]},"properties":{"name":"恒兴出租房","xiaolei":"7314004","address":"","zhonglei":"7314","dalei":"7","type":"hotel"}},
{"type":"Feature","geometry":{"type":"Point","coordinates":[114.234075,30.735304]},"properties":{"name":"龙门客栈（宋岗三路）","xiaolei":"7314004","address":"","zhonglei":"7314","dalei":"7","type":"hotel"}},
{"type":"Feature","geometry":{"type":"Point","coordinates":[114.233882,30.737844]},"properties":{"name":"阳光宾馆（宋岗路）","xiaolei":"7314003","address":"","zhonglei":"7314","dalei":"7","type":"hotel"}},
{"type":"Feature","geometry":{"type":"Point","coordinates":[114.233898,30.737804]},"properties":{"name":"众鑫宾馆","xiaolei":"7314003","address":"","zhonglei":"7314","dalei":"7","type":"hotel"}},
{"type":"Feature","geometry":{"type":"Point","coordinates":[114.234024,30.737515]},"properties":{"name":"千秋宾馆","xiaolei":"7314003","address":"佳海工业园宋岗路","zhonglei":"7314","dalei":"7","type":"hotel"}},
{"type":"Feature","geometry":{"type":"Point","coordinates":[114.234208,30.737]},"properties":{"name":"天伦假日宾馆","xiaolei":"7314003","address":"朱岗路","zhonglei":"7314","dalei":"7","type":"hotel"}},
{"type":"Feature","geometry":{"type":"Point","coordinates":[114.234276,30.7368]},"properties":{"name":"京都宾馆（宋岗路）","xiaolei":"7314003","address":"","zhonglei":"7314","dalei":"7","type":"hotel"}},
{"type":"Feature","geometry":{"type":"Point","coordinates":[114.235028,30.734908]},"properties":{"name":"馨雅寝居","xiaolei":"7314003","address":"","zhonglei":"7314","dalei":"7","type":"hotel"}},
{"type":"Feature","geometry":{"type":"Point","coordinates":[114.157927,30.680314]},"properties":{"name":"双喜住宿","xiaolei":"7314004","address":"","zhonglei":"7314","dalei":"7","type":"hotel"}},
{"type":"Feature","geometry":{"type":"Point","coordinates":[114.245259,30.715869]},"properties":{"name":"武汉小王子酒店（盘龙店）","xiaolei":"7314003","address":"","zhonglei":"7314","dalei":"7","type":"hotel"}},
{"type":"Feature","geometry":{"type":"Point","coordinates":[114.235692,30.721701]},"properties":{"name":"胜家旅馆","xiaolei":"7314004","address":"","zhonglei":"7314","dalei":"7","type":"hotel"}},
{"type":"Feature","geometry":{"type":"Point","coordinates":[114.231684,30.729685]},"properties":{"name":"黄陂群发招待所","xiaolei":"7314004","address":"佳海综合一路30","zhonglei":"7314","dalei":"7","type":"hotel"}},
{"type":"Feature","geometry":{"type":"Point","coordinates":[114.231059,30.730213]},"properties":{"name":"蓝天旅馆","xiaolei":"7314004","address":"佳海综合一路9","zhonglei":"7314","dalei":"7","type":"hotel"}},
{"type":"Feature","geometry":{"type":"Point","coordinates":[114.231602,30.73078]},"properties":{"name":"青天宾馆","xiaolei":"7314003","address":"佳海综合三路36","zhonglei":"7314","dalei":"7","type":"hotel"}},
{"type":"Feature","geometry":{"type":"Point","coordinates":[114.231538,30.73077]},"properties":{"name":"仙合宾馆","xiaolei":"7314003","address":"佳海综合三路29","zhonglei":"7314","dalei":"7","type":"hotel"}},
{"type":"Feature","geometry":{"type":"Point","coordinates":[114.235429,30.733914]},"properties":{"name":"荣军住宿","xiaolei":"7314004","address":"宋岗路19","zhonglei":"7314","dalei":"7","type":"hotel"}},
{"type":"Feature","geometry":{"type":"Point","coordinates":[114.236051,30.734057]},"properties":{"name":"迎宾租房","xiaolei":"7314004","address":"宋岗路26","zhonglei":"7314","dalei":"7","type":"hotel"}},
{"type":"Feature","geometry":{"type":"Point","coordinates":[114.233033,30.734708]},"properties":{"name":"洪鑫出租房","xiaolei":"7314004","address":"宋岗三路54","zhonglei":"7314","dalei":"7","type":"hotel"}},
{"type":"Feature","geometry":{"type":"Point","coordinates":[114.233124,30.734748]},"properties":{"name":"星月港湾","xiaolei":"7314004","address":"宋岗三路56","zhonglei":"7314","dalei":"7","type":"hotel"}},
{"type":"Feature","geometry":{"type":"Point","coordinates":[114.231141,30.729968]},"properties":{"name":"财苑旅馆","xiaolei":"7314004","address":"佳海综合二路26","zhonglei":"7314","dalei":"7","type":"hotel"}},
{"type":"Feature","geometry":{"type":"Point","coordinates":[114.230801,30.730931]},"properties":{"name":"佳友旅馆","xiaolei":"7314004","address":"佳海综合三路15","zhonglei":"7314","dalei":"7","type":"hotel"}},
{"type":"Feature","geometry":{"type":"Point","coordinates":[114.233607,30.734881]},"properties":{"name":"鑫龙旅馆","xiaolei":"7314004","address":"","zhonglei":"7314","dalei":"7","type":"hotel"}},
{"type":"Feature","geometry":{"type":"Point","coordinates":[114.233475,30.734831]},"properties":{"name":"佳佳住宿","xiaolei":"7314004","address":"","zhonglei":"7314","dalei":"7","type":"hotel"}},
{"type":"Feature","geometry":{"type":"Point","coordinates":[114.232813,30.735281]},"properties":{"name":"腾龙出租房","xiaolei":"7314004","address":"","zhonglei":"7314","dalei":"7","type":"hotel"}},
{"type":"Feature","geometry":{"type":"Point","coordinates":[114.232904,30.735319]},"properties":{"name":"城市公寓","xiaolei":"7314004","address":"","zhonglei":"7314","dalei":"7","type":"hotel"}},
{"type":"Feature","geometry":{"type":"Point","coordinates":[114.233416,30.735484]},"properties":{"name":"新港出租房","xiaolei":"7314004","address":"","zhonglei":"7314","dalei":"7","type":"hotel"}},
{"type":"Feature","geometry":{"type":"Point","coordinates":[114.231096,30.729377]},"properties":{"name":"洪天旅馆","xiaolei":"7314004","address":"","zhonglei":"7314","dalei":"7","type":"hotel"}},
{"type":"Feature","geometry":{"type":"Point","coordinates":[114.233393,30.734804]},"properties":{"name":"仙洪出租房","xiaolei":"7314004","address":"","zhonglei":"7314","dalei":"7","type":"hotel"}},
{"type":"Feature","geometry":{"type":"Point","coordinates":[114.311582,30.690581]},"properties":{"name":"源煌酒店","xiaolei":"7314003","address":"","zhonglei":"7314","dalei":"7","type":"hotel"}},
{"type":"Feature","geometry":{"type":"Point","coordinates":[114.250143,30.707334]},"properties":{"name":"武汉当归大酒店","xiaolei":"7314003","address":"盘龙城经济开发区","zhonglei":"7314","dalei":"7","type":"hotel"}},
{"type":"Feature","geometry":{"type":"Point","coordinates":[114.346377,30.711347]},"properties":{"name":"鑫友宾馆（民生堤）","xiaolei":"7314003","address":"滠口滠阳大道","zhonglei":"7314","dalei":"7","type":"hotel"}},
{"type":"Feature","geometry":{"type":"Point","coordinates":[114.315424,30.70176]},"properties":{"name":"汉口北汽车旅馆","xiaolei":"7314004","address":"","zhonglei":"7314","dalei":"7","type":"hotel"}},
{"type":"Feature","geometry":{"type":"Point","coordinates":[114.255522,30.711483]},"properties":{"name":"腾龙大酒店","xiaolei":"7314003","address":"巨龙大道179附8","zhonglei":"7314","dalei":"7","type":"hotel"}},
{"type":"Feature","geometry":{"type":"Point","coordinates":[114.255916,30.711418]},"properties":{"name":"德丰招待所","xiaolei":"7314004","address":"","zhonglei":"7314","dalei":"7","type":"hotel"}},
{"type":"Feature","geometry":{"type":"Point","coordinates":[114.293304,30.70125]},"properties":{"name":"盘龙·壹公馆","xiaolei":"7314003","address":"","zhonglei":"7314","dalei":"7","type":"hotel"}},
{"type":"Feature","geometry":{"type":"Point","coordinates":[114.256094,30.711405]},"properties":{"name":"如家快捷酒店（巨龙大道）","xiaolei":"7314009","address":"巨龙大道179附2","zhonglei":"7314","dalei":"7","type":"hotel"}},
{"type":"Feature","geometry":{"type":"Point","coordinates":[114.364114,30.692]},"properties":{"name":"安康住宿","xiaolei":"7314004","address":"","zhonglei":"7314","dalei":"7","type":"hotel"}},
{"type":"Feature","geometry":{"type":"Point","coordinates":[114.341371,30.666835]},"properties":{"name":"小月招待所","xiaolei":"7314004","address":"解放大道2795号","zhonglei":"7314","dalei":"7","type":"hotel"}},
{"type":"Feature","geometry":{"type":"Point","coordinates":[114.335693,30.717015]},"properties":{"name":"星灿商务酒店","xiaolei":"7314003","address":"","zhonglei":"7314","dalei":"7","type":"hotel"}},
{"type":"Feature","geometry":{"type":"Point","coordinates":[114.313627,30.70291]},"properties":{"name":"华劲商务酒店","xiaolei":"7314003","address":"汉口北大道","zhonglei":"7314","dalei":"7","type":"hotel"}},
{"type":"Feature","geometry":{"type":"Point","coordinates":[114.373774,30.722094]},"properties":{"name":"悦来商务酒店","xiaolei":"7314003","address":"汉口北大道19号","zhonglei":"7314","dalei":"7","type":"hotel"}},
{"type":"Feature","geometry":{"type":"Point","coordinates":[114.367398,30.679757]},"properties":{"name":"６７８久久餐厅","xiaolei":"7314003","address":"","zhonglei":"7314","dalei":"7","type":"hotel"}},
{"type":"Feature","geometry":{"type":"Point","coordinates":[114.254864,30.714137]},"properties":{"name":"领袖宾馆","xiaolei":"7314003","address":"","zhonglei":"7314","dalei":"7","type":"hotel"}},
{"type":"Feature","geometry":{"type":"Point","coordinates":[114.28055,30.706903]},"properties":{"name":"豪仕宾馆（巨龙大道）","xiaolei":"7314003","address":"城巨龙大道52号","zhonglei":"7314","dalei":"7","type":"hotel"}},
{"type":"Feature","geometry":{"type":"Point","coordinates":[114.257033,30.711689]},"properties":{"name":"仕卫商务宾馆","xiaolei":"7314003","address":"","zhonglei":"7314","dalei":"7","type":"hotel"}},
{"type":"Feature","geometry":{"type":"Point","coordinates":[114.307642,30.695287]},"properties":{"name":"熙友宾馆","xiaolei":"7314003","address":"城经济开发区刘店正街","zhonglei":"7314","dalei":"7","type":"hotel"}},
{"type":"Feature","geometry":{"type":"Point","coordinates":[114.307334,30.697389]},"properties":{"name":"枫叶大酒店","xiaolei":"7314003","address":"","zhonglei":"7314","dalei":"7","type":"hotel"}},
{"type":"Feature","geometry":{"type":"Point","coordinates":[114.310542,30.69478]},"properties":{"name":"佳兴出租房","xiaolei":"7314004","address":"","zhonglei":"7314","dalei":"7","type":"hotel"}},
{"type":"Feature","geometry":{"type":"Point","coordinates":[114.255003,30.715421]},"properties":{"name":"绿叶宾馆","xiaolei":"7314003","address":"","zhonglei":"7314","dalei":"7","type":"hotel"}},
{"type":"Feature","geometry":{"type":"Point","coordinates":[114.335171,30.718512]},"properties":{"name":"美鑫宾馆","xiaolei":"7314003","address":"","zhonglei":"7314","dalei":"7","type":"hotel"}},
{"type":"Feature","geometry":{"type":"Point","coordinates":[114.416527,30.715808]},"properties":{"name":"武湖山庄","xiaolei":"7314003","address":"武湖杰茅屋湾附近","zhonglei":"7314","dalei":"7","type":"hotel"}},
{"type":"Feature","geometry":{"type":"Point","coordinates":[114.40944,30.702326]},"properties":{"name":"会友假日酒店","xiaolei":"7314003","address":"武湖农场梅教街","zhonglei":"7314","dalei":"7","type":"hotel"}},
{"type":"Feature","geometry":{"type":"Point","coordinates":[114.401886,30.698822]},"properties":{"name":"保利宾馆","xiaolei":"7314004","address":"","zhonglei":"7314","dalei":"7","type":"hotel"}},
{"type":"Feature","geometry":{"type":"Point","coordinates":[114.374969,30.722891]},"properties":{"name":"龙瑞大酒店","xiaolei":"7314003","address":"汉口北巨龙大道特1号中国家具CBD旁","zhonglei":"7314","dalei":"7","type":"hotel"}},
{"type":"Feature","geometry":{"type":"Point","coordinates":[114.426231,30.708219]},"properties":{"name":"武湖人家酒店","xiaolei":"7314003","address":"徐湾23号","zhonglei":"7314","dalei":"7","type":"hotel"}},
{"type":"Feature","geometry":{"type":"Point","coordinates":[114.406949,30.700706]},"properties":{"name":"鑫瑞宾馆（盛世年华东）","xiaolei":"7314003","address":"武湖梅教路","zhonglei":"7314","dalei":"7","type":"hotel"}},
{"type":"Feature","geometry":{"type":"Point","coordinates":[114.463846,30.712015]},"properties":{"name":"春天·里大酒店","xiaolei":"7314003","address":"武湖汉施路","zhonglei":"7314","dalei":"7","type":"hotel"}},
{"type":"Feature","geometry":{"type":"Point","coordinates":[114.410353,30.702105]},"properties":{"name":"映祥住宿","xiaolei":"7314004","address":"武湖农场梅教街140号","zhonglei":"7314","dalei":"7","type":"hotel"}},
{"type":"Feature","geometry":{"type":"Point","coordinates":[114.410381,30.702069]},"properties":{"name":"四环住宿","xiaolei":"7314004","address":"","zhonglei":"7314","dalei":"7","type":"hotel"}},
{"type":"Feature","geometry":{"type":"Point","coordinates":[114.410461,30.701991]},"properties":{"name":"刘妈住宿","xiaolei":"7314004","address":"","zhonglei":"7314","dalei":"7","type":"hotel"}},
{"type":"Feature","geometry":{"type":"Point","coordinates":[114.410527,30.701921]},"properties":{"name":"宾星招待所","xiaolei":"7314004","address":"武湖农场梅教街130号","zhonglei":"7314","dalei":"7","type":"hotel"}},
{"type":"Feature","geometry":{"type":"Point","coordinates":[114.414421,30.703966]},"properties":{"name":"时尚住宿","xiaolei":"7314004","address":"","zhonglei":"7314","dalei":"7","type":"hotel"}},
{"type":"Feature","geometry":{"type":"Point","coordinates":[114.422405,30.707577]},"properties":{"name":"卓不倒","xiaolei":"7314003","address":"","zhonglei":"7314","dalei":"7","type":"hotel"}},
{"type":"Feature","geometry":{"type":"Point","coordinates":[114.411633,30.701065]},"properties":{"name":"盛兴旅社","xiaolei":"7314004","address":"","zhonglei":"7314","dalei":"7","type":"hotel"}},
{"type":"Feature","geometry":{"type":"Point","coordinates":[114.375537,30.734982]},"properties":{"name":"宜佳宾馆","xiaolei":"7314003","address":"","zhonglei":"7314","dalei":"7","type":"hotel"}},
{"type":"Feature","geometry":{"type":"Point","coordinates":[114.123316,30.628262]},"properties":{"name":"南山商务宾馆","xiaolei":"7314003","address":"吴家山七支沟南山市场","zhonglei":"7314","dalei":"7","type":"hotel"}},
{"type":"Feature","geometry":{"type":"Point","coordinates":[114.114953,30.610058]},"properties":{"name":"福星宾馆（九通路）","xiaolei":"7314003","address":"吴家山九支沟中小企业城","zhonglei":"7314","dalei":"7","type":"hotel"}},
{"type":"Feature","geometry":{"type":"Point","coordinates":[114.107847,30.614069]},"properties":{"name":"恩施住宿","xiaolei":"7314004","address":"腾达路和革新大道交叉口附近","zhonglei":"7314","dalei":"7","type":"hotel"}},
{"type":"Feature","geometry":{"type":"Point","coordinates":[114.122162,30.614686]},"properties":{"name":"蜗居商务酒店","xiaolei":"7314003","address":"革新大道542号","zhonglei":"7314","dalei":"7","type":"hotel"}},
{"type":"Feature","geometry":{"type":"Point","coordinates":[114.124569,30.628323]},"properties":{"name":"宏泰旅社","xiaolei":"7314004","address":"东吴大道725","zhonglei":"7314","dalei":"7","type":"hotel"}},
{"type":"Feature","geometry":{"type":"Point","coordinates":[114.124527,30.628336]},"properties":{"name":"山水旅馆（东吴大道）","xiaolei":"7314004","address":"","zhonglei":"7314","dalei":"7","type":"hotel"}},
{"type":"Feature","geometry":{"type":"Point","coordinates":[114.121723,30.61508]},"properties":{"name":"银湖时尚酒店","xiaolei":"7314003","address":"吴家山七雄路革新大道海峡创业城1号","zhonglei":"7314","dalei":"7","type":"hotel"}},
{"type":"Feature","geometry":{"type":"Point","coordinates":[114.122954,30.615175]},"properties":{"name":"北口酒店（一店）","xiaolei":"7314003","address":"七雄路海峡大厦一层","zhonglei":"7314","dalei":"7","type":"hotel"}},
{"type":"Feature","geometry":{"type":"Point","coordinates":[114.105439,30.619791]},"properties":{"name":"布尔宾馆","xiaolei":"7314003","address":"","zhonglei":"7314","dalei":"7","type":"hotel"}},
{"type":"Feature","geometry":{"type":"Point","coordinates":[114.24649,30.614926]},"properties":{"name":"梦怡宾馆","xiaolei":"7314003","address":"发展大道168号","zhonglei":"7314","dalei":"7","type":"hotel"}},
{"type":"Feature","geometry":{"type":"Point","coordinates":[114.247791,30.619519]},"properties":{"name":"广场招待所","xiaolei":"7314004","address":"","zhonglei":"7314","dalei":"7","type":"hotel"}},
{"type":"Feature","geometry":{"type":"Point","coordinates":[114.246902,30.617617]},"properties":{"name":"武汉市江汉区顺达招待所","xiaolei":"7314004","address":"","zhonglei":"7314","dalei":"7","type":"hotel"}},
{"type":"Feature","geometry":{"type":"Point","coordinates":[114.237631,30.623578]},"properties":{"name":"金谷园招待所","xiaolei":"7314004","address":"常青市场北区","zhonglei":"7314","dalei":"7","type":"hotel"}},
{"type":"Feature","geometry":{"type":"Point","coordinates":[114.225638,30.606658]},"properties":{"name":"都乐旅馆（汉西路）","xiaolei":"7314004","address":"","zhonglei":"7314","dalei":"7","type":"hotel"}},
{"type":"Feature","geometry":{"type":"Point","coordinates":[114.225516,30.591537]},"properties":{"name":"浩浩招待所","xiaolei":"7314004","address":"","zhonglei":"7314","dalei":"7","type":"hotel"}},
{"type":"Feature","geometry":{"type":"Point","coordinates":[114.225937,30.606123]},"properties":{"name":"迎宾招待所（汉西路）","xiaolei":"7314004","address":"常码头412","zhonglei":"7314","dalei":"7","type":"hotel"}},
{"type":"Feature","geometry":{"type":"Point","coordinates":[114.238025,30.61125]},"properties":{"name":"留念招待所","xiaolei":"7314004","address":"发展大道92号","zhonglei":"7314","dalei":"7","type":"hotel"}},
{"type":"Feature","geometry":{"type":"Point","coordinates":[114.238629,30.587968]},"properties":{"name":"五三农场汉办","xiaolei":"7314004","address":"建设大道198号","zhonglei":"7314","dalei":"7","type":"hotel"}},
{"type":"Feature","geometry":{"type":"Point","coordinates":[114.196381,30.637853]},"properties":{"name":"金叶惠民大酒店","xiaolei":"7314003","address":"鑫桥高科技产业园南区","zhonglei":"7314","dalei":"7","type":"hotel"}},
{"type":"Feature","geometry":{"type":"Point","coordinates":[114.131138,30.614607]},"properties":{"name":"公民大酒店（革新大道）","xiaolei":"7314003","address":"三秀路","zhonglei":"7314","dalei":"7","type":"hotel"}},
{"type":"Feature","geometry":{"type":"Point","coordinates":[114.142575,30.626283]},"properties":{"name":"东兴招待所","xiaolei":"7314004","address":"梨花园路16","zhonglei":"7314","dalei":"7","type":"hotel"}},
{"type":"Feature","geometry":{"type":"Point","coordinates":[114.138387,30.622991]},"properties":{"name":"公民花园酒店","xiaolei":"7314003","address":"吴家山田西大道1198号","zhonglei":"7314","dalei":"7","type":"hotel"}},
{"type":"Feature","geometry":{"type":"Point","coordinates":[114.139624,30.623576]},"properties":{"name":"广水酒店","xiaolei":"7314003","address":"","zhonglei":"7314","dalei":"7","type":"hotel"}},
{"type":"Feature","geometry":{"type":"Point","coordinates":[114.127019,30.619318]},"properties":{"name":"方圆旅社（长青街道办事处劳动和社","xiaolei":"7314004","address":"长青街道办旁","zhonglei":"7314","dalei":"7","type":"hotel"}},
{"type":"Feature","geometry":{"type":"Point","coordinates":[114.132778,30.631123]},"properties":{"name":"攀伟招待所","xiaolei":"7314004","address":"吴中街330","zhonglei":"7314","dalei":"7","type":"hotel"}},
{"type":"Feature","geometry":{"type":"Point","coordinates":[114.222725,30.624282]},"properties":{"name":"武汉轻机宾馆","xiaolei":"7314003","address":"江兴路22号","zhonglei":"7314","dalei":"7","type":"hotel"}},
{"type":"Feature","geometry":{"type":"Point","coordinates":[114.22749,30.624709]},"properties":{"name":"湖北邮政大酒店","xiaolei":"7314003","address":"江旺路18","zhonglei":"7314","dalei":"7","type":"hotel"}},
{"type":"Feature","geometry":{"type":"Point","coordinates":[114.214114,30.609752]},"properties":{"name":"民乐园旅社","xiaolei":"7314004","address":"","zhonglei":"7314","dalei":"7","type":"hotel"}},
{"type":"Feature","geometry":{"type":"Point","coordinates":[114.194171,30.612083]},"properties":{"name":"大吉旅社","xiaolei":"7314004","address":"","zhonglei":"7314","dalei":"7","type":"hotel"}},
{"type":"Feature","geometry":{"type":"Point","coordinates":[114.24275,30.615868]},"properties":{"name":"华坤宾馆（天梨豪园西）","xiaolei":"7314003","address":"常青路75","zhonglei":"7314","dalei":"7","type":"hotel"}},
{"type":"Feature","geometry":{"type":"Point","coordinates":[114.189576,30.599121]},"properties":{"name":"惠丰宾馆（古田二路）","xiaolei":"7314003","address":"古田二路88附5","zhonglei":"7314","dalei":"7","type":"hotel"}},
{"type":"Feature","geometry":{"type":"Point","coordinates":[114.147739,30.618989]},"properties":{"name":"华中宾馆（市场北二路）","xiaolei":"7314003","address":"","zhonglei":"7314","dalei":"7","type":"hotel"}},
{"type":"Feature","geometry":{"type":"Point","coordinates":[114.14795,30.618591]},"properties":{"name":"洪福宾馆","xiaolei":"7314003","address":"","zhonglei":"7314","dalei":"7","type":"hotel"}},
{"type":"Feature","geometry":{"type":"Point","coordinates":[114.128112,30.614988]},"properties":{"name":"家庆旅社","xiaolei":"7314004","address":"革新村336","zhonglei":"7314","dalei":"7","type":"hotel"}},
{"type":"Feature","geometry":{"type":"Point","coordinates":[114.131488,30.614097]},"properties":{"name":"百家宾馆","xiaolei":"7314003","address":"吴家山五环大道百信集团院内","zhonglei":"7314","dalei":"7","type":"hotel"}},
{"type":"Feature","geometry":{"type":"Point","coordinates":[114.137074,30.613455]},"properties":{"name":"老乡情旅","xiaolei":"7314004","address":"","zhonglei":"7314","dalei":"7","type":"hotel"}},
{"type":"Feature","geometry":{"type":"Point","coordinates":[114.137287,30.613466]},"properties":{"name":"老党旅社","xiaolei":"7314004","address":"","zhonglei":"7314","dalei":"7","type":"hotel"}},
{"type":"Feature","geometry":{"type":"Point","coordinates":[114.13759,30.613953]},"properties":{"name":"南北餐厅招待所","xiaolei":"7314004","address":"","zhonglei":"7314","dalei":"7","type":"hotel"}},
{"type":"Feature","geometry":{"type":"Point","coordinates":[114.14802,30.61969]},"properties":{"name":"东方宾馆（阳光都市南）","xiaolei":"7314003","address":"","zhonglei":"7314","dalei":"7","type":"hotel"}},
{"type":"Feature","geometry":{"type":"Point","coordinates":[114.246759,30.615315]},"properties":{"name":"７天酒店（武汉汉口火车站店）","xiaolei":"7314009","address":"发展大道168号","zhonglei":"7314","dalei":"7","type":"hotel"}},
{"type":"Feature","geometry":{"type":"Point","coordinates":[114.239144,30.608233]},"properties":{"name":"常威旅馆","xiaolei":"7314004","address":"振兴路49","zhonglei":"7314","dalei":"7","type":"hotel"}},
{"type":"Feature","geometry":{"type":"Point","coordinates":[114.237766,30.607853]},"properties":{"name":"龙康商务宾馆","xiaolei":"7314003","address":"振兴路25号东宏商务中心4层","zhonglei":"7314","dalei":"7","type":"hotel"}},
{"type":"Feature","geometry":{"type":"Point","coordinates":[114.238034,30.608298]},"properties":{"name":"常缘招待所","xiaolei":"7314004","address":"汉口复兴村振兴路27号","zhonglei":"7314","dalei":"7","type":"hotel"}},
{"type":"Feature","geometry":{"type":"Point","coordinates":[114.231467,30.608748]},"properties":{"name":"风华大酒店","xiaolei":"7314003","address":"发展大道28","zhonglei":"7314","dalei":"7","type":"hotel"}},
{"type":"Feature","geometry":{"type":"Point","coordinates":[114.249797,30.590364]},"properties":{"name":"宜必思酒店（武汉店）","xiaolei":"7314009","address":"建设大道539号","zhonglei":"7314","dalei":"7","type":"hotel"}},
{"type":"Feature","geometry":{"type":"Point","coordinates":[114.191617,30.609011]},"properties":{"name":"三江航天酒店","xiaolei":"7314003","address":"古田二路航天城","zhonglei":"7314","dalei":"7","type":"hotel"}},
{"type":"Feature","geometry":{"type":"Point","coordinates":[114.182959,30.604504]},"properties":{"name":"艾客莱酒店（解放大道）","xiaolei":"7314003","address":"解放大道23号","zhonglei":"7314","dalei":"7","type":"hotel"}},
{"type":"Feature","geometry":{"type":"Point","coordinates":[114.245701,30.619127]},"properties":{"name":"汉口铁路宾馆","xiaolei":"7314003","address":"银河里28号","zhonglei":"7314","dalei":"7","type":"hotel"}},
{"type":"Feature","geometry":{"type":"Point","coordinates":[114.233994,30.628509]},"properties":{"name":"胜家快捷酒店","xiaolei":"7314003","address":"长港路1","zhonglei":"7314","dalei":"7","type":"hotel"}},
{"type":"Feature","geometry":{"type":"Point","coordinates":[114.233381,30.629392]},"properties":{"name":"湖北航空大酒店","xiaolei":"7314003","address":"常青路民航里2号南方航空大厦","zhonglei":"7314","dalei":"7","type":"hotel"}},
{"type":"Feature","geometry":{"type":"Point","coordinates":[114.238203,30.626116]},"properties":{"name":"国创楚源会所","xiaolei":"7314003","address":"常青路156号","zhonglei":"7314","dalei":"7","type":"hotel"}},
{"type":"Feature","geometry":{"type":"Point","coordinates":[114.246951,30.585954]},"properties":{"name":"武汉云都大酒店","xiaolei":"7314003","address":"宝丰路105号","zhonglei":"7314","dalei":"7","type":"hotel"}},
{"type":"Feature","geometry":{"type":"Point","coordinates":[114.237653,30.587525]},"properties":{"name":"航天宾馆","xiaolei":"7314003","address":"建设大道198号","zhonglei":"7314","dalei":"7","type":"hotel"}},
{"type":"Feature","geometry":{"type":"Point","coordinates":[114.222862,30.586724]},"properties":{"name":"大京都宾馆（宗关店）","xiaolei":"7314003","address":"建设大道新合后街115号","zhonglei":"7314","dalei":"7","type":"hotel"}},
{"type":"Feature","geometry":{"type":"Point","coordinates":[114.221467,30.584189]},"properties":{"name":"山水旅馆（建设大道）","xiaolei":"7314004","address":"建设大道14号","zhonglei":"7314","dalei":"7","type":"hotel"}},
{"type":"Feature","geometry":{"type":"Point","coordinates":[114.221406,30.585592]},"properties":{"name":"扬子江饭店（宗关店）","xiaolei":"7314009","address":"建设大道47号","zhonglei":"7314","dalei":"7","type":"hotel"}},
{"type":"Feature","geometry":{"type":"Point","coordinates":[114.22634,30.607461]},"properties":{"name":"扬子江饭店（常码头店）","xiaolei":"7314009","address":"常码头特25号","zhonglei":"7314","dalei":"7","type":"hotel"}},
{"type":"Feature","geometry":{"type":"Point","coordinates":[114.132992,30.641628]},"properties":{"name":"随园会馆","xiaolei":"7314003","address":"五环路特1号","zhonglei":"7314","dalei":"7","type":"hotel"}},
{"type":"Feature","geometry":{"type":"Point","coordinates":[114.137172,30.650605]},"properties":{"name":"新太阳宾馆","xiaolei":"7314003","address":"","zhonglei":"7314","dalei":"7","type":"hotel"}},
{"type":"Feature","geometry":{"type":"Point","coordinates":[114.210878,30.587467]},"properties":{"name":"豪生宾馆","xiaolei":"7314003","address":"韩家墩201附1","zhonglei":"7314","dalei":"7","type":"hotel"}},
{"type":"Feature","geometry":{"type":"Point","coordinates":[114.239201,30.611801]},"properties":{"name":"振宇招待所（发展大道）","xiaolei":"7314004","address":"发展大道118","zhonglei":"7314","dalei":"7","type":"hotel"}},
{"type":"Feature","geometry":{"type":"Point","coordinates":[114.243456,30.61378]},"properties":{"name":"天宏宾馆（常青路）","xiaolei":"7314003","address":"发展大道佳兴苑9号","zhonglei":"7314","dalei":"7","type":"hotel"}},
{"type":"Feature","geometry":{"type":"Point","coordinates":[114.220979,30.585597]},"properties":{"name":"湘缘宾馆（建设大道）","xiaolei":"7314003","address":"扬子江宗关店旁","zhonglei":"7314","dalei":"7","type":"hotel"}},
{"type":"Feature","geometry":{"type":"Point","coordinates":[114.215242,30.58744]},"properties":{"name":"７天酒店（宗关店）","xiaolei":"7314009","address":"解放大道355号远景大厦","zhonglei":"7314","dalei":"7","type":"hotel"}},
{"type":"Feature","geometry":{"type":"Point","coordinates":[114.213855,30.607153]},"properties":{"name":"瑞都旅馆","xiaolei":"7314004","address":"新墩村","zhonglei":"7314","dalei":"7","type":"hotel"}},
{"type":"Feature","geometry":{"type":"Point","coordinates":[114.246974,30.583984]},"properties":{"name":"美乐口酒店","xiaolei":"7314003","address":"宝丰一路81号","zhonglei":"7314","dalei":"7","type":"hotel"}},
{"type":"Feature","geometry":{"type":"Point","coordinates":[114.229865,30.588519]},"properties":{"name":"江海楼","xiaolei":"7314003","address":"建设大道双墩","zhonglei":"7314","dalei":"7","type":"hotel"}},
{"type":"Feature","geometry":{"type":"Point","coordinates":[114.246591,30.619453]},"properties":{"name":"武铁二招","xiaolei":"7314004","address":"汉口火车站西路银墩街","zhonglei":"7314","dalei":"7","type":"hotel"}},
{"type":"Feature","geometry":{"type":"Point","coordinates":[114.2378,30.623963]},"properties":{"name":"洛克菲酒店","xiaolei":"7314003","address":"红旗渠路1","zhonglei":"7314","dalei":"7","type":"hotel"}},
{"type":"Feature","geometry":{"type":"Point","coordinates":[114.238588,30.62895]},"properties":{"name":"地王酒店","xiaolei":"7314003","address":"常青五路18号","zhonglei":"7314","dalei":"7","type":"hotel"}},
{"type":"Feature","geometry":{"type":"Point","coordinates":[114.232843,30.629626]},"properties":{"name":"７天酒店（武汉民航小区店）","xiaolei":"7314009","address":"常青五路8号","zhonglei":"7314","dalei":"7","type":"hotel"}},
{"type":"Feature","geometry":{"type":"Point","coordinates":[114.244432,30.586585]},"properties":{"name":"世纪花园大酒店","xiaolei":"7314003","address":"建设大道431号","zhonglei":"7314","dalei":"7","type":"hotel"}},
{"type":"Feature","geometry":{"type":"Point","coordinates":[114.246783,30.583538]},"properties":{"name":"明轩平价","xiaolei":"7314004","address":"","zhonglei":"7314","dalei":"7","type":"hotel"}},
{"type":"Feature","geometry":{"type":"Point","coordinates":[114.165285,30.61169]},"properties":{"name":"战友宾馆","xiaolei":"7314003","address":"解放大道舵落口工农路","zhonglei":"7314","dalei":"7","type":"hotel"}},
{"type":"Feature","geometry":{"type":"Point","coordinates":[114.140424,30.623153]},"properties":{"name":"运繁宾馆","xiaolei":"7314003","address":"三秀路226","zhonglei":"7314","dalei":"7","type":"hotel"}},
{"type":"Feature","geometry":{"type":"Point","coordinates":[114.125319,30.628035]},"properties":{"name":"银兴招待所","xiaolei":"7314004","address":"东吴大道745","zhonglei":"7314","dalei":"7","type":"hotel"}},
{"type":"Feature","geometry":{"type":"Point","coordinates":[114.137572,30.642089]},"properties":{"name":"新天马酒店","xiaolei":"7314003","address":"三店集吴北路119","zhonglei":"7314","dalei":"7","type":"hotel"}},
{"type":"Feature","geometry":{"type":"Point","coordinates":[114.200021,30.611355]},"properties":{"name":"祥和招待所（长丰大道）","xiaolei":"7314004","address":"","zhonglei":"7314","dalei":"7","type":"hotel"}},
{"type":"Feature","geometry":{"type":"Point","coordinates":[114.244413,30.650951]},"properties":{"name":"武汉三五酒店（荣昌花园南）","xiaolei":"7314003","address":"姑李路158","zhonglei":"7314","dalei":"7","type":"hotel"}},
{"type":"Feature","geometry":{"type":"Point","coordinates":[114.242939,30.61559]},"properties":{"name":"武汉６６６酒店","xiaolei":"7314003","address":"","zhonglei":"7314","dalei":"7","type":"hotel"}},
{"type":"Feature","geometry":{"type":"Point","coordinates":[114.139898,30.623084]},"properties":{"name":"田园招待所","xiaolei":"7314004","address":"","zhonglei":"7314","dalei":"7","type":"hotel"}},
{"type":"Feature","geometry":{"type":"Point","coordinates":[114.246435,30.648066]},"properties":{"name":"顺意招待所（姑李公路）","xiaolei":"7314004","address":"","zhonglei":"7314","dalei":"7","type":"hotel"}},
{"type":"Feature","geometry":{"type":"Point","coordinates":[114.242546,30.616093]},"properties":{"name":"顺安招待所","xiaolei":"7314004","address":"常展里212号附近","zhonglei":"7314","dalei":"7","type":"hotel"}},
{"type":"Feature","geometry":{"type":"Point","coordinates":[114.125487,30.627966]},"properties":{"name":"鹏程招待所","xiaolei":"7314004","address":"东吴大道749","zhonglei":"7314","dalei":"7","type":"hotel"}},
{"type":"Feature","geometry":{"type":"Point","coordinates":[114.213133,30.609702]},"properties":{"name":"鹏程大酒店","xiaolei":"7314003","address":"","zhonglei":"7314","dalei":"7","type":"hotel"}},
{"type":"Feature","geometry":{"type":"Point","coordinates":[114.165872,30.611556]},"properties":{"name":"民顺招待所","xiaolei":"7314004","address":"","zhonglei":"7314","dalei":"7","type":"hotel"}},
{"type":"Feature","geometry":{"type":"Point","coordinates":[114.137191,30.650833]},"properties":{"name":"雨荷宾馆","xiaolei":"7314003","address":"三店中路","zhonglei":"7314","dalei":"7","type":"hotel"}},
{"type":"Feature","geometry":{"type":"Point","coordinates":[114.247813,30.645341]},"properties":{"name":"金山饭店","xiaolei":"7314004","address":"","zhonglei":"7314","dalei":"7","type":"hotel"}},
{"type":"Feature","geometry":{"type":"Point","coordinates":[114.242546,30.616093]},"properties":{"name":"建安招待所","xiaolei":"7314004","address":"常展里210号附近","zhonglei":"7314","dalei":"7","type":"hotel"}},
{"type":"Feature","geometry":{"type":"Point","coordinates":[114.128231,30.614994]},"properties":{"name":"华兴住宿","xiaolei":"7314004","address":"","zhonglei":"7314","dalei":"7","type":"hotel"}},
{"type":"Feature","geometry":{"type":"Point","coordinates":[114.145074,30.614099]},"properties":{"name":"鹤鸣园酒店","xiaolei":"7314003","address":"","zhonglei":"7314","dalei":"7","type":"hotel"}},
{"type":"Feature","geometry":{"type":"Point","coordinates":[114.145069,30.614278]},"properties":{"name":"芳华酒店","xiaolei":"7314003","address":"","zhonglei":"7314","dalei":"7","type":"hotel"}},
{"type":"Feature","geometry":{"type":"Point","coordinates":[114.152219,30.620617]},"properties":{"name":"东鑫庄园酒店","xiaolei":"7314003","address":"","zhonglei":"7314","dalei":"7","type":"hotel"}},
{"type":"Feature","geometry":{"type":"Point","coordinates":[114.140858,30.621906]},"properties":{"name":"东花快捷宾馆","xiaolei":"7314003","address":"开屏巷3","zhonglei":"7314","dalei":"7","type":"hotel"}},
{"type":"Feature","geometry":{"type":"Point","coordinates":[114.144977,30.615669]},"properties":{"name":"大众酒店","xiaolei":"7314003","address":"","zhonglei":"7314","dalei":"7","type":"hotel"}},
{"type":"Feature","geometry":{"type":"Point","coordinates":[114.139624,30.623576]},"properties":{"name":"长城招待所","xiaolei":"7314004","address":"田园街399","zhonglei":"7314","dalei":"7","type":"hotel"}},
{"type":"Feature","geometry":{"type":"Point","coordinates":[114.186484,30.6019]},"properties":{"name":"彩云阁宾馆","xiaolei":"7314003","address":"古田二路解放大道28号云彩大厦","zhonglei":"7314","dalei":"7","type":"hotel"}},
{"type":"Feature","geometry":{"type":"Point","coordinates":[114.223651,30.603316]},"properties":{"name":"天翼宾馆（二环线）","xiaolei":"7314003","address":"汉西北路213号","zhonglei":"7314","dalei":"7","type":"hotel"}},
{"type":"Feature","geometry":{"type":"Point","coordinates":[114.223844,30.603773]},"properties":{"name":"三五七商务酒店","xiaolei":"7314003","address":"常码头汉西北路213号","zhonglei":"7314","dalei":"7","type":"hotel"}},
{"type":"Feature","geometry":{"type":"Point","coordinates":[114.215128,30.603088]},"properties":{"name":"风华时尚酒店","xiaolei":"7314003","address":"汉西二路特5号","zhonglei":"7314","dalei":"7","type":"hotel"}},
{"type":"Feature","geometry":{"type":"Point","coordinates":[114.232931,30.609104]},"properties":{"name":"７天酒店（武汉汉口火车站二店）","xiaolei":"7314009","address":"发展大道34","zhonglei":"7314","dalei":"7","type":"hotel"}},
{"type":"Feature","geometry":{"type":"Point","coordinates":[114.236306,30.628359]},"properties":{"name":"７天酒店（民航小区二店）","xiaolei":"7314009","address":"常青五路8号","zhonglei":"7314","dalei":"7","type":"hotel"}},
{"type":"Feature","geometry":{"type":"Point","coordinates":[114.234435,30.628334]},"properties":{"name":"嘉鸿白金酒店","xiaolei":"7314003","address":"常青路168","zhonglei":"7314","dalei":"7","type":"hotel"}},
{"type":"Feature","geometry":{"type":"Point","coordinates":[114.249445,30.589176]},"properties":{"name":"７天酒店（武汉航空路二店）","xiaolei":"7314009","address":"建设大道404号","zhonglei":"7314","dalei":"7","type":"hotel"}},
{"type":"Feature","geometry":{"type":"Point","coordinates":[114.21138,30.588551]},"properties":{"name":"汉正瑞鑫大酒店","xiaolei":"7314003","address":"解放大道148号","zhonglei":"7314","dalei":"7","type":"hotel"}},
{"type":"Feature","geometry":{"type":"Point","coordinates":[114.147787,30.620798]},"properties":{"name":"７天酒店（吴家山大市场店）","xiaolei":"7314009","address":"东西湖大道6525号","zhonglei":"7314","dalei":"7","type":"hotel"}},
{"type":"Feature","geometry":{"type":"Point","coordinates":[114.245212,30.586046]},"properties":{"name":"７天酒店（宝丰一路店）","xiaolei":"7314009","address":"建设大道宝丰一路328号","zhonglei":"7314","dalei":"7","type":"hotel"}},
{"type":"Feature","geometry":{"type":"Point","coordinates":[114.144192,30.624422]},"properties":{"name":"爱之家宾馆","xiaolei":"7314003","address":"二雅路79","zhonglei":"7314","dalei":"7","type":"hotel"}},
{"type":"Feature","geometry":{"type":"Point","coordinates":[114.179489,30.612762]},"properties":{"name":"聚友商务宾馆","xiaolei":"7314003","address":"古田一路附近","zhonglei":"7314","dalei":"7","type":"hotel"}},
{"type":"Feature","geometry":{"type":"Point","coordinates":[114.131385,30.630639]},"properties":{"name":"鑫缘旅馆","xiaolei":"7314004","address":"吴北路28","zhonglei":"7314","dalei":"7","type":"hotel"}},
{"type":"Feature","geometry":{"type":"Point","coordinates":[114.1312,30.633276]},"properties":{"name":"新海景酒店（五环大道）","xiaolei":"7314003","address":"五环大道308","zhonglei":"7314","dalei":"7","type":"hotel"}},
{"type":"Feature","geometry":{"type":"Point","coordinates":[114.126163,30.622836]},"properties":{"name":"华坤宾馆（水都店）","xiaolei":"7314003","address":"田园街7","zhonglei":"7314","dalei":"7","type":"hotel"}},
{"type":"Feature","geometry":{"type":"Point","coordinates":[114.125779,30.620424]},"properties":{"name":"东光宾馆（东西湖大道辅路）","xiaolei":"7314003","address":"","zhonglei":"7314","dalei":"7","type":"hotel"}},
{"type":"Feature","geometry":{"type":"Point","coordinates":[114.13989,30.624129]},"properties":{"name":"悦丰招待所","xiaolei":"7314004","address":"三秀路253","zhonglei":"7314","dalei":"7","type":"hotel"}},
{"type":"Feature","geometry":{"type":"Point","coordinates":[114.138403,30.623399]},"properties":{"name":"西郊宾馆","xiaolei":"7314003","address":"田园街361","zhonglei":"7314","dalei":"7","type":"hotel"}},
{"type":"Feature","geometry":{"type":"Point","coordinates":[114.139242,30.623041]},"properties":{"name":"华逸宾馆","xiaolei":"7314003","address":"田园街268","zhonglei":"7314","dalei":"7","type":"hotel"}},
{"type":"Feature","geometry":{"type":"Point","coordinates":[114.140021,30.622798]},"properties":{"name":"九州招待所","xiaolei":"7314004","address":"三秀路217","zhonglei":"7314","dalei":"7","type":"hotel"}},
{"type":"Feature","geometry":{"type":"Point","coordinates":[114.140081,30.621937]},"properties":{"name":"天安招待所（三秀路）","xiaolei":"7314004","address":"三秀路185","zhonglei":"7314","dalei":"7","type":"hotel"}},
{"type":"Feature","geometry":{"type":"Point","coordinates":[114.140089,30.621255]},"properties":{"name":"新华招待所","xiaolei":"7314004","address":"三秀路163","zhonglei":"7314","dalei":"7","type":"hotel"}},
{"type":"Feature","geometry":{"type":"Point","coordinates":[114.140705,30.618918]},"properties":{"name":"德华旅社","xiaolei":"7314004","address":"三秀路120","zhonglei":"7314","dalei":"7","type":"hotel"}},
{"type":"Feature","geometry":{"type":"Point","coordinates":[114.140701,30.618987]},"properties":{"name":"鸿运旅社","xiaolei":"7314004","address":"三秀路124","zhonglei":"7314","dalei":"7","type":"hotel"}},
{"type":"Feature","geometry":{"type":"Point","coordinates":[114.140672,30.619253]},"properties":{"name":"平安旅社副食批发","xiaolei":"7314004","address":"三秀路21","zhonglei":"7314","dalei":"7","type":"hotel"}},
{"type":"Feature","geometry":{"type":"Point","coordinates":[114.131413,30.615127]},"properties":{"name":"华坤宾馆（总店）","xiaolei":"7314009","address":"革新大道2号","zhonglei":"7314","dalei":"7","type":"hotel"}},
{"type":"Feature","geometry":{"type":"Point","coordinates":[114.12727,30.622227]},"properties":{"name":"丹燕宾馆","xiaolei":"7314003","address":"六顺路199","zhonglei":"7314","dalei":"7","type":"hotel"}},
{"type":"Feature","geometry":{"type":"Point","coordinates":[114.142431,30.626291]},"properties":{"name":"荣兴园酒店","xiaolei":"7314003","address":"梨花园路18","zhonglei":"7314","dalei":"7","type":"hotel"}},
{"type":"Feature","geometry":{"type":"Point","coordinates":[114.134808,30.619648]},"properties":{"name":"纽兰假日酒店","xiaolei":"7314003","address":"东西湖大道21","zhonglei":"7314","dalei":"7","type":"hotel"}},
{"type":"Feature","geometry":{"type":"Point","coordinates":[114.206968,30.610547]},"properties":{"name":"小百合商务旅馆","xiaolei":"7314004","address":"长丰村162","zhonglei":"7314","dalei":"7","type":"hotel"}},
{"type":"Feature","geometry":{"type":"Point","coordinates":[114.164273,30.611886]},"properties":{"name":"蓝苑宾馆","xiaolei":"7314003","address":"工农路28号","zhonglei":"7314","dalei":"7","type":"hotel"}},
{"type":"Feature","geometry":{"type":"Point","coordinates":[114.176375,30.613786]},"properties":{"name":"丽地宾馆","xiaolei":"7314003","address":"长丰大道56号","zhonglei":"7314","dalei":"7","type":"hotel"}},
{"type":"Feature","geometry":{"type":"Point","coordinates":[114.18041,30.61458]},"properties":{"name":"１９８旅馆","xiaolei":"7314004","address":"古田一路和长丰大道交叉口附近","zhonglei":"7314","dalei":"7","type":"hotel"}},
{"type":"Feature","geometry":{"type":"Point","coordinates":[114.247962,30.58502]},"properties":{"name":"天和宾馆","xiaolei":"7314003","address":"宝丰路64","zhonglei":"7314","dalei":"7","type":"hotel"}},
{"type":"Feature","geometry":{"type":"Point","coordinates":[114.249037,30.588509]},"properties":{"name":"如家快捷酒店（建设大道王家墩店）","xiaolei":"7314009","address":"建设大道396号","zhonglei":"7314","dalei":"7","type":"hotel"}},
{"type":"Feature","geometry":{"type":"Point","coordinates":[114.247074,30.626079]},"properties":{"name":"锦绣旅馆","xiaolei":"7314004","address":"红旗渠路102附19","zhonglei":"7314","dalei":"7","type":"hotel"}},
{"type":"Feature","geometry":{"type":"Point","coordinates":[114.241421,30.624619]},"properties":{"name":"雅园招待所","xiaolei":"7314004","address":"渠路77号","zhonglei":"7314","dalei":"7","type":"hotel"}},
{"type":"Feature","geometry":{"type":"Point","coordinates":[114.244811,30.615246]},"properties":{"name":"宏宇宾馆","xiaolei":"7314003","address":"科技大厦对面","zhonglei":"7314","dalei":"7","type":"hotel"}},
{"type":"Feature","geometry":{"type":"Point","coordinates":[114.245211,30.615448]},"properties":{"name":"晨航旅馆","xiaolei":"7314004","address":"","zhonglei":"7314","dalei":"7","type":"hotel"}},
{"type":"Feature","geometry":{"type":"Point","coordinates":[114.246308,30.615868]},"properties":{"name":"易捷城市酒店（发展大道）","xiaolei":"7314003","address":"发展大道181号小中大厦","zhonglei":"7314","dalei":"7","type":"hotel"}},
{"type":"Feature","geometry":{"type":"Point","coordinates":[114.247024,30.616106]},"properties":{"name":"九洲宾馆","xiaolei":"7314003","address":"发展大道181号小中大厦","zhonglei":"7314","dalei":"7","type":"hotel"}},
{"type":"Feature","geometry":{"type":"Point","coordinates":[114.243575,30.632265]},"properties":{"name":"海航招待所（长港路）","xiaolei":"7314004","address":"长港路88附8","zhonglei":"7314","dalei":"7","type":"hotel"}},
{"type":"Feature","geometry":{"type":"Point","coordinates":[114.234608,30.630145]},"properties":{"name":"机场商务宾馆","xiaolei":"7314003","address":"","zhonglei":"7314","dalei":"7","type":"hotel"}},
{"type":"Feature","geometry":{"type":"Point","coordinates":[114.233622,30.629211]},"properties":{"name":"常虹旅馆","xiaolei":"7314004","address":"常青路","zhonglei":"7314","dalei":"7","type":"hotel"}},
{"type":"Feature","geometry":{"type":"Point","coordinates":[114.233927,30.629484]},"properties":{"name":"芳友旅馆","xiaolei":"7314004","address":"常青路","zhonglei":"7314","dalei":"7","type":"hotel"}},
{"type":"Feature","geometry":{"type":"Point","coordinates":[114.186439,30.612466]},"properties":{"name":"悦来商务客栈","xiaolei":"7314004","address":"长丰大道长丰十队天勤花园5栋14号","zhonglei":"7314","dalei":"7","type":"hotel"}},
{"type":"Feature","geometry":{"type":"Point","coordinates":[114.183742,30.612913]},"properties":{"name":"长丰阁酒店","xiaolei":"7314003","address":"长丰大道118号","zhonglei":"7314","dalei":"7","type":"hotel"}},
{"type":"Feature","geometry":{"type":"Point","coordinates":[114.204929,30.610187]},"properties":{"name":"丰华商务酒店","xiaolei":"7314003","address":"长丰大道166号","zhonglei":"7314","dalei":"7","type":"hotel"}},
{"type":"Feature","geometry":{"type":"Point","coordinates":[114.216272,30.589884]},"properties":{"name":"缘聚旅店","xiaolei":"7314004","address":"汉西一路43附1","zhonglei":"7314","dalei":"7","type":"hotel"}},
{"type":"Feature","geometry":{"type":"Point","coordinates":[114.208309,30.594377]},"properties":{"name":"家悦宾馆（古田店）","xiaolei":"7314003","address":"古田四路12号","zhonglei":"7314","dalei":"7","type":"hotel"}},
{"type":"Feature","geometry":{"type":"Point","coordinates":[114.208537,30.595599]},"properties":{"name":"金古田商务宾馆","xiaolei":"7314003","address":"古田四路32号附29","zhonglei":"7314","dalei":"7","type":"hotel"}},
{"type":"Feature","geometry":{"type":"Point","coordinates":[114.248692,30.615642]},"properties":{"name":"怡景商务宾馆","xiaolei":"7314003","address":"发展大道176号怡景商务大厦","zhonglei":"7314","dalei":"7","type":"hotel"}},
{"type":"Feature","geometry":{"type":"Point","coordinates":[114.248276,30.614483]},"properties":{"name":"长途汽车站招待所","xiaolei":"7314004","address":"","zhonglei":"7314","dalei":"7","type":"hotel"}},
{"type":"Feature","geometry":{"type":"Point","coordinates":[114.234509,30.609437]},"properties":{"name":"莫泰１６８旅店（汉口火车站店）","xiaolei":"7314009","address":"发展大道42-1号","zhonglei":"7314","dalei":"7","type":"hotel"}},
{"type":"Feature","geometry":{"type":"Point","coordinates":[114.24763,30.646317]},"properties":{"name":"金宏住宿","xiaolei":"7314004","address":"姑李路84","zhonglei":"7314","dalei":"7","type":"hotel"}},
{"type":"Feature","geometry":{"type":"Point","coordinates":[114.212932,30.609732]},"properties":{"name":"利群旅店","xiaolei":"7314004","address":"黄家墩18","zhonglei":"7314","dalei":"7","type":"hotel"}},
{"type":"Feature","geometry":{"type":"Point","coordinates":[114.199774,30.611385]},"properties":{"name":"祥和出租屋","xiaolei":"7314004","address":"长丰村381","zhonglei":"7314","dalei":"7","type":"hotel"}},
{"type":"Feature","geometry":{"type":"Point","coordinates":[114.185633,30.592573]},"properties":{"name":"红乐园旅馆","xiaolei":"7314004","address":"古田二路27","zhonglei":"7314","dalei":"7","type":"hotel"}},
{"type":"Feature","geometry":{"type":"Point","coordinates":[114.1856,30.592172]},"properties":{"name":"迎宾招待所（古词路）","xiaolei":"7314004","address":"古田二路21","zhonglei":"7314","dalei":"7","type":"hotel"}},
{"type":"Feature","geometry":{"type":"Point","coordinates":[114.167082,30.614932]},"properties":{"name":"泰尔宾馆","xiaolei":"7314003","address":"长丰大道20号C","zhonglei":"7314","dalei":"7","type":"hotel"}},
{"type":"Feature","geometry":{"type":"Point","coordinates":[114.160215,30.616608]},"properties":{"name":"炎祥港湾大酒店","xiaolei":"7314003","address":"额头湾村经济工业园内","zhonglei":"7314","dalei":"7","type":"hotel"}},
{"type":"Feature","geometry":{"type":"Point","coordinates":[114.165799,30.611556]},"properties":{"name":"鸿鑫旅馆","xiaolei":"7314004","address":"","zhonglei":"7314","dalei":"7","type":"hotel"}},
{"type":"Feature","geometry":{"type":"Point","coordinates":[114.239766,30.614072]},"properties":{"name":"雄锋招待所","xiaolei":"7314004","address":"常展里172","zhonglei":"7314","dalei":"7","type":"hotel"}},
{"type":"Feature","geometry":{"type":"Point","coordinates":[114.194816,30.597194]},"properties":{"name":"华坤宾馆（古田路购物广场南）","xiaolei":"7314003","address":"辛家地路和福源街交叉口附近","zhonglei":"7314","dalei":"7","type":"hotel"}},
{"type":"Feature","geometry":{"type":"Point","coordinates":[114.127391,30.626702]},"properties":{"name":"麦卡瑞商务宾馆","xiaolei":"7314003","address":"吴家山六顺路228号","zhonglei":"7314","dalei":"7","type":"hotel"}},
{"type":"Feature","geometry":{"type":"Point","coordinates":[114.127354,30.620523]},"properties":{"name":"福嘉宾馆","xiaolei":"7314003","address":"六顺路101","zhonglei":"7314","dalei":"7","type":"hotel"}},
{"type":"Feature","geometry":{"type":"Point","coordinates":[114.127445,30.625017]},"properties":{"name":"盛坤城市住宿","xiaolei":"7314004","address":"六顺路138","zhonglei":"7314","dalei":"7","type":"hotel"}},
{"type":"Feature","geometry":{"type":"Point","coordinates":[114.13732,30.633419]},"properties":{"name":"天馨馨商务酒店（三秀路）","xiaolei":"7314003","address":"三秀路426","zhonglei":"7314","dalei":"7","type":"hotel"}},
{"type":"Feature","geometry":{"type":"Point","coordinates":[114.144668,30.626521]},"properties":{"name":"星期五酒店","xiaolei":"7314003","address":"东兴里16","zhonglei":"7314","dalei":"7","type":"hotel"}},
{"type":"Feature","geometry":{"type":"Point","coordinates":[114.127332,30.620724]},"properties":{"name":"六顺住宿","xiaolei":"7314004","address":"六顺路109","zhonglei":"7314","dalei":"7","type":"hotel"}},
{"type":"Feature","geometry":{"type":"Point","coordinates":[114.129896,30.62294]},"properties":{"name":"华庭时代宾馆","xiaolei":"7314003","address":"吴家山田园街73","zhonglei":"7314","dalei":"7","type":"hotel"}},
{"type":"Feature","geometry":{"type":"Point","coordinates":[114.2131,30.585568]},"properties":{"name":"７天酒店（武汉宗关水厂店）","xiaolei":"7314009","address":"简易路59号","zhonglei":"7314","dalei":"7","type":"hotel"}},
{"type":"Feature","geometry":{"type":"Point","coordinates":[114.134862,30.622764]},"properties":{"name":"楼兰时尚旅馆","xiaolei":"7314004","address":"田园街170","zhonglei":"7314","dalei":"7","type":"hotel"}},
{"type":"Feature","geometry":{"type":"Point","coordinates":[114.14862,30.621829]},"properties":{"name":"速７宾馆（一清路）","xiaolei":"7314003","address":"吴家山一清路东和颐园3栋","zhonglei":"7314","dalei":"7","type":"hotel"}},
{"type":"Feature","geometry":{"type":"Point","coordinates":[114.137827,30.648961]},"properties":{"name":"天馨馨商务酒店（鑫海花城东区东北","xiaolei":"7314003","address":"","zhonglei":"7314","dalei":"7","type":"hotel"}},
{"type":"Feature","geometry":{"type":"Point","coordinates":[114.2294,30.639549]},"properties":{"name":"名斯商务旅馆","xiaolei":"7314004","address":"","zhonglei":"7314","dalei":"7","type":"hotel"}},
{"type":"Feature","geometry":{"type":"Point","coordinates":[114.219607,30.651927]},"properties":{"name":"银湖湾商务酒店","xiaolei":"7314003","address":"马池路","zhonglei":"7314","dalei":"7","type":"hotel"}},
{"type":"Feature","geometry":{"type":"Point","coordinates":[114.133116,30.615631]},"properties":{"name":"华坤宾馆（革新大道）","xiaolei":"7314003","address":"革新大道381","zhonglei":"7314","dalei":"7","type":"hotel"}},
{"type":"Feature","geometry":{"type":"Point","coordinates":[114.229159,30.640899]},"properties":{"name":"常青宾馆","xiaolei":"7314003","address":"学府南路126","zhonglei":"7314","dalei":"7","type":"hotel"}},
{"type":"Feature","geometry":{"type":"Point","coordinates":[114.129644,30.636939]},"properties":{"name":"大自然生态酒店","xiaolei":"7314003","address":"金山大道五环路圣山公园","zhonglei":"7314","dalei":"7","type":"hotel"}},
{"type":"Feature","geometry":{"type":"Point","coordinates":[114.213855,30.588071]},"properties":{"name":"歌德假日酒店","xiaolei":"7314003","address":"解放大道351号轻轨大厦","zhonglei":"7314","dalei":"7","type":"hotel"}},
{"type":"Feature","geometry":{"type":"Point","coordinates":[114.219467,30.583303]},"properties":{"name":"易舍酒店（宗关店）","xiaolei":"7314003","address":"解放大道218号","zhonglei":"7314","dalei":"7","type":"hotel"}},
{"type":"Feature","geometry":{"type":"Point","coordinates":[114.200527,30.639765]},"properties":{"name":"纽宾凯金银湖国际酒店","xiaolei":"7314003","address":"金银湖路18号","zhonglei":"7314","dalei":"7","type":"hotel"}},
{"type":"Feature","geometry":{"type":"Point","coordinates":[114.219467,30.583303]},"properties":{"name":"扬子江天美乐饭店（宗关店）","xiaolei":"7314003","address":"解放大道218号","zhonglei":"7314","dalei":"7","type":"hotel"}},
{"type":"Feature","geometry":{"type":"Point","coordinates":[114.249205,30.619387]},"properties":{"name":"万喜德台湾风情酒店","xiaolei":"7314003","address":"金家墩特1号武汉台湾风情广场","zhonglei":"7314","dalei":"7","type":"hotel"}},
{"type":"Feature","geometry":{"type":"Point","coordinates":[114.248072,30.620034]},"properties":{"name":"永鑫宾馆","xiaolei":"7314003","address":"银墩路68","zhonglei":"7314","dalei":"7","type":"hotel"}},
{"type":"Feature","geometry":{"type":"Point","coordinates":[114.242264,30.624647]},"properties":{"name":"水玲珑商务酒店","xiaolei":"7314003","address":"红旗渠路89号","zhonglei":"7314","dalei":"7","type":"hotel"}},
{"type":"Feature","geometry":{"type":"Point","coordinates":[114.236736,30.632597]},"properties":{"name":"新华旅馆","xiaolei":"7314004","address":"","zhonglei":"7314","dalei":"7","type":"hotel"}},
{"type":"Feature","geometry":{"type":"Point","coordinates":[114.233514,30.628703]},"properties":{"name":"海航招待所（常青路）","xiaolei":"7314004","address":"","zhonglei":"7314","dalei":"7","type":"hotel"}},
{"type":"Feature","geometry":{"type":"Point","coordinates":[114.243648,30.613894]},"properties":{"name":"１１８商务宾馆","xiaolei":"7314003","address":"发展大道65号","zhonglei":"7314","dalei":"7","type":"hotel"}},
{"type":"Feature","geometry":{"type":"Point","coordinates":[114.242509,30.613121]},"properties":{"name":"洪发商务宾馆","xiaolei":"7314003","address":"力兴花园大门旁","zhonglei":"7314","dalei":"7","type":"hotel"}},
{"type":"Feature","geometry":{"type":"Point","coordinates":[114.234854,30.6096]},"properties":{"name":"尚捷酒店","xiaolei":"7314003","address":"发展大道42","zhonglei":"7314","dalei":"7","type":"hotel"}},
{"type":"Feature","geometry":{"type":"Point","coordinates":[114.228698,30.585994]},"properties":{"name":"海盛酒店","xiaolei":"7314003","address":"汉西路158","zhonglei":"7314","dalei":"7","type":"hotel"}},
{"type":"Feature","geometry":{"type":"Point","coordinates":[114.182455,30.611378]},"properties":{"name":"长云住宿","xiaolei":"7314004","address":"","zhonglei":"7314","dalei":"7","type":"hotel"}},
{"type":"Feature","geometry":{"type":"Point","coordinates":[114.183193,30.612878]},"properties":{"name":"鸿运旅店","xiaolei":"7314004","address":"","zhonglei":"7314","dalei":"7","type":"hotel"}},
{"type":"Feature","geometry":{"type":"Point","coordinates":[114.199067,30.602963]},"properties":{"name":"馨兰招待所","xiaolei":"7314004","address":"","zhonglei":"7314","dalei":"7","type":"hotel"}},
{"type":"Feature","geometry":{"type":"Point","coordinates":[114.197615,30.600486]},"properties":{"name":"鸿圣宾馆","xiaolei":"7314003","address":"解放大道109附111","zhonglei":"7314","dalei":"7","type":"hotel"}},
{"type":"Feature","geometry":{"type":"Point","coordinates":[114.199059,30.596334]},"properties":{"name":"鑫逸宾馆","xiaolei":"7314003","address":"古田三路轻轨站3层","zhonglei":"7314","dalei":"7","type":"hotel"}},
{"type":"Feature","geometry":{"type":"Point","coordinates":[114.200909,30.602524]},"properties":{"name":"香苑宾馆","xiaolei":"7314003","address":"南泥湾大道警校北院对面","zhonglei":"7314","dalei":"7","type":"hotel"}},
{"type":"Feature","geometry":{"type":"Point","coordinates":[114.220505,30.584157]},"properties":{"name":"锦泰宾馆（解放大道）","xiaolei":"7314003","address":"","zhonglei":"7314","dalei":"7","type":"hotel"}},
{"type":"Feature","geometry":{"type":"Point","coordinates":[114.222619,30.600213]},"properties":{"name":"鑫海宾馆","xiaolei":"7314003","address":"汉西花园A栋","zhonglei":"7314","dalei":"7","type":"hotel"}},
{"type":"Feature","geometry":{"type":"Point","coordinates":[114.242442,30.616189]},"properties":{"name":"信韵百分百酒店","xiaolei":"7314003","address":"常青路77号","zhonglei":"7314","dalei":"7","type":"hotel"}},
{"type":"Feature","geometry":{"type":"Point","coordinates":[114.233806,30.626569]},"properties":{"name":"武汉阳光酒店","xiaolei":"7314003","address":"常青路149号","zhonglei":"7314","dalei":"7","type":"hotel"}},
{"type":"Feature","geometry":{"type":"Point","coordinates":[114.230172,30.609199]},"properties":{"name":"７天酒店（发展大道）","xiaolei":"7314009","address":"发展大道34","zhonglei":"7314","dalei":"7","type":"hotel"}},
{"type":"Feature","geometry":{"type":"Point","coordinates":[114.189945,30.585952]},"properties":{"name":"江湾壹号","xiaolei":"7314003","address":"古田三路沿河大道军事经济学院南门","zhonglei":"7314","dalei":"7","type":"hotel"}},
{"type":"Feature","geometry":{"type":"Point","coordinates":[114.19836,30.59459]},"properties":{"name":"莫泰１６８旅店（古田三路店）","xiaolei":"7314009","address":"解放大道古田三路4号","zhonglei":"7314","dalei":"7","type":"hotel"}},
{"type":"Feature","geometry":{"type":"Point","coordinates":[114.198366,30.594229]},"properties":{"name":"银湖三五酒店","xiaolei":"7314003","address":"古田三路4号","zhonglei":"7314","dalei":"7","type":"hotel"}},
{"type":"Feature","geometry":{"type":"Point","coordinates":[114.172636,30.614247]},"properties":{"name":"中天商务酒店","xiaolei":"7314003","address":"长丰大道52号","zhonglei":"7314","dalei":"7","type":"hotel"}},
{"type":"Feature","geometry":{"type":"Point","coordinates":[114.194091,30.615508]},"properties":{"name":"鑫美商务酒店","xiaolei":"7314003","address":"古田二路长丰路","zhonglei":"7314","dalei":"7","type":"hotel"}},
{"type":"Feature","geometry":{"type":"Point","coordinates":[114.21322,30.585513]},"properties":{"name":"全盛时代商务酒店","xiaolei":"7314003","address":"简易侧路73号","zhonglei":"7314","dalei":"7","type":"hotel"}},
{"type":"Feature","geometry":{"type":"Point","coordinates":[114.135725,30.616996]},"properties":{"name":"子都大酒店","xiaolei":"7314003","address":"长青街办事处四明路南36号","zhonglei":"7314","dalei":"7","type":"hotel"}},
{"type":"Feature","geometry":{"type":"Point","coordinates":[114.180818,30.61696]},"properties":{"name":"嘉泰宾馆（古田一路）","xiaolei":"7314003","address":"古田一路60","zhonglei":"7314","dalei":"7","type":"hotel"}},
{"type":"Feature","geometry":{"type":"Point","coordinates":[114.241878,30.612997]},"properties":{"name":"三星宾馆（发展大道）","xiaolei":"7314003","address":"发展大道158-1号","zhonglei":"7314","dalei":"7","type":"hotel"}},
{"type":"Feature","geometry":{"type":"Point","coordinates":[114.179115,30.60634]},"properties":{"name":"十堰宾馆","xiaolei":"7314003","address":"解放大道1号","zhonglei":"7314","dalei":"7","type":"hotel"}},
{"type":"Feature","geometry":{"type":"Point","coordinates":[114.200891,30.594726]},"properties":{"name":"艺林春商务酒店","xiaolei":"7314003","address":"解放大道82","zhonglei":"7314","dalei":"7","type":"hotel"}},
{"type":"Feature","geometry":{"type":"Point","coordinates":[114.240703,30.588254]},"properties":{"name":"富华经济宾馆","xiaolei":"7314003","address":"建设大道371附1","zhonglei":"7314","dalei":"7","type":"hotel"}},
{"type":"Feature","geometry":{"type":"Point","coordinates":[114.222992,30.587002]},"properties":{"name":"天龙客房","xiaolei":"7314004","address":"建设大道135号","zhonglei":"7314","dalei":"7","type":"hotel"}},
{"type":"Feature","geometry":{"type":"Point","coordinates":[114.133393,30.599773]},"properties":{"name":"鑫阳光城宾馆","xiaolei":"7314003","address":"","zhonglei":"7314","dalei":"7","type":"hotel"}},
{"type":"Feature","geometry":{"type":"Point","coordinates":[114.244579,30.651065]},"properties":{"name":"江城之星宾馆","xiaolei":"7314003","address":"将军花园姑李路银花街6号","zhonglei":"7314","dalei":"7","type":"hotel"}},
{"type":"Feature","geometry":{"type":"Point","coordinates":[114.133191,30.630387]},"properties":{"name":"正红住宿","xiaolei":"7314004","address":"","zhonglei":"7314","dalei":"7","type":"hotel"}},
{"type":"Feature","geometry":{"type":"Point","coordinates":[114.138922,30.62354]},"properties":{"name":"绿之源宾馆","xiaolei":"7314003","address":"田园街371附近","zhonglei":"7314","dalei":"7","type":"hotel"}},
{"type":"Feature","geometry":{"type":"Point","coordinates":[114.213222,30.608475]},"properties":{"name":"城市便捷酒店","xiaolei":"7314009","address":"166号特1号","zhonglei":"7314","dalei":"7","type":"hotel"}},
{"type":"Feature","geometry":{"type":"Point","coordinates":[114.214707,30.602953]},"properties":{"name":"武汉市顺家快捷酒店","xiaolei":"7314003","address":"汉西三路81号","zhonglei":"7314","dalei":"7","type":"hotel"}},
{"type":"Feature","geometry":{"type":"Point","coordinates":[114.21586,30.599426]},"properties":{"name":"明泽旅馆","xiaolei":"7314004","address":"汉西三路","zhonglei":"7314","dalei":"7","type":"hotel"}},
{"type":"Feature","geometry":{"type":"Point","coordinates":[114.224822,30.605514]},"properties":{"name":"味源酒店","xiaolei":"7314003","address":"","zhonglei":"7314","dalei":"7","type":"hotel"}},
{"type":"Feature","geometry":{"type":"Point","coordinates":[114.22335,30.586292]},"properties":{"name":"金港宾馆","xiaolei":"7314003","address":"","zhonglei":"7314","dalei":"7","type":"hotel"}},
{"type":"Feature","geometry":{"type":"Point","coordinates":[114.246303,30.614689]},"properties":{"name":"汇轩宾馆","xiaolei":"7314003","address":"汉口金家墩长途汽车总站旁","zhonglei":"7314","dalei":"7","type":"hotel"}},
{"type":"Feature","geometry":{"type":"Point","coordinates":[114.197904,30.599921]},"properties":{"name":"万泰宾馆","xiaolei":"7314003","address":"解放大道109附99","zhonglei":"7314","dalei":"7","type":"hotel"}},
{"type":"Feature","geometry":{"type":"Point","coordinates":[114.207675,30.597008]},"properties":{"name":"大唐宾馆","xiaolei":"7314003","address":"古田四路轻机侧路33号","zhonglei":"7314","dalei":"7","type":"hotel"}},
{"type":"Feature","geometry":{"type":"Point","coordinates":[114.242412,30.61307]},"properties":{"name":"如家快捷酒店（武汉汉口火车站常青","xiaolei":"7314009","address":"","zhonglei":"7314","dalei":"7","type":"hotel"}},
{"type":"Feature","geometry":{"type":"Point","coordinates":[114.239498,30.60835]},"properties":{"name":"山鑫宾馆","xiaolei":"7314003","address":"","zhonglei":"7314","dalei":"7","type":"hotel"}},
{"type":"Feature","geometry":{"type":"Point","coordinates":[114.241237,30.60843]},"properties":{"name":"锦都招待所","xiaolei":"7314004","address":"振兴路184号","zhonglei":"7314","dalei":"7","type":"hotel"}},
{"type":"Feature","geometry":{"type":"Point","coordinates":[114.235922,30.610121]},"properties":{"name":"宝宏住宿","xiaolei":"7314004","address":"发展大道56号","zhonglei":"7314","dalei":"7","type":"hotel"}},
{"type":"Feature","geometry":{"type":"Point","coordinates":[114.225808,30.605904]},"properties":{"name":"洪亮旅社","xiaolei":"7314004","address":"常码头汉西路409号","zhonglei":"7314","dalei":"7","type":"hotel"}},
{"type":"Feature","geometry":{"type":"Point","coordinates":[114.127361,30.620434]},"properties":{"name":"好运住宿","xiaolei":"7314004","address":"六顺路97","zhonglei":"7314","dalei":"7","type":"hotel"}},
{"type":"Feature","geometry":{"type":"Point","coordinates":[114.127338,30.621146]},"properties":{"name":"双华宾馆","xiaolei":"7314003","address":"六顺路145","zhonglei":"7314","dalei":"7","type":"hotel"}},
{"type":"Feature","geometry":{"type":"Point","coordinates":[114.127331,30.621219]},"properties":{"name":"如家招待所","xiaolei":"7314004","address":"六顺路149","zhonglei":"7314","dalei":"7","type":"hotel"}},
{"type":"Feature","geometry":{"type":"Point","coordinates":[114.125758,30.624339]},"properties":{"name":"新龙旅店","xiaolei":"7314004","address":"枫林路23","zhonglei":"7314","dalei":"7","type":"hotel"}},
{"type":"Feature","geometry":{"type":"Point","coordinates":[114.126972,30.625745]},"properties":{"name":"新悦住宿","xiaolei":"7314004","address":"六顺路349","zhonglei":"7314","dalei":"7","type":"hotel"}},
{"type":"Feature","geometry":{"type":"Point","coordinates":[114.1272,30.623019]},"properties":{"name":"朝阳住宿","xiaolei":"7314004","address":"六顺路223","zhonglei":"7314","dalei":"7","type":"hotel"}},
{"type":"Feature","geometry":{"type":"Point","coordinates":[114.248117,30.619241]},"properties":{"name":"Ｖ９钻石酒店","xiaolei":"7314003","address":"汉口火车站广场西路特1号","zhonglei":"7314","dalei":"7","type":"hotel"}},
{"type":"Feature","geometry":{"type":"Point","coordinates":[114.247395,30.619618]},"properties":{"name":"武铁商务宾馆","xiaolei":"7314003","address":"银墩路特1号","zhonglei":"7314","dalei":"7","type":"hotel"}},
{"type":"Feature","geometry":{"type":"Point","coordinates":[114.246996,30.617168]},"properties":{"name":"老茶旅馆","xiaolei":"7314004","address":"","zhonglei":"7314","dalei":"7","type":"hotel"}},
{"type":"Feature","geometry":{"type":"Point","coordinates":[114.242656,30.624912]},"properties":{"name":"金雅园宾馆","xiaolei":"7314003","address":"红旗渠路98号","zhonglei":"7314","dalei":"7","type":"hotel"}},
{"type":"Feature","geometry":{"type":"Point","coordinates":[114.244815,30.63399]},"properties":{"name":"长城住宿","xiaolei":"7314004","address":"","zhonglei":"7314","dalei":"7","type":"hotel"}},
{"type":"Feature","geometry":{"type":"Point","coordinates":[114.237994,30.630864]},"properties":{"name":"海航快捷店","xiaolei":"7314004","address":"长港路11附3","zhonglei":"7314","dalei":"7","type":"hotel"}},
{"type":"Feature","geometry":{"type":"Point","coordinates":[114.241245,30.62853]},"properties":{"name":"武汉佳雅宾馆","xiaolei":"7314003","address":"金色雅园路C6-2号","zhonglei":"7314","dalei":"7","type":"hotel"}},
{"type":"Feature","geometry":{"type":"Point","coordinates":[114.244057,30.627554]},"properties":{"name":"航东旅馆","xiaolei":"7314004","address":"新湾三路","zhonglei":"7314","dalei":"7","type":"hotel"}},
{"type":"Feature","geometry":{"type":"Point","coordinates":[114.23355,30.629233]},"properties":{"name":"南翔旅馆","xiaolei":"7314004","address":"","zhonglei":"7314","dalei":"7","type":"hotel"}},
{"type":"Feature","geometry":{"type":"Point","coordinates":[114.199758,30.643001]},"properties":{"name":"武汉欧亚会展国际酒店","xiaolei":"7314003","address":"金银湖路20号","zhonglei":"7314","dalei":"7","type":"hotel"}},
{"type":"Feature","geometry":{"type":"Point","coordinates":[114.185489,30.593468]},"properties":{"name":"广缘住宿","xiaolei":"7314004","address":"","zhonglei":"7314","dalei":"7","type":"hotel"}},
{"type":"Feature","geometry":{"type":"Point","coordinates":[114.238067,30.611814]},"properties":{"name":"唐山宾馆","xiaolei":"7314003","address":"发展大道105","zhonglei":"7314","dalei":"7","type":"hotel"}},
{"type":"Feature","geometry":{"type":"Point","coordinates":[114.237565,30.611552]},"properties":{"name":"华福招待所","xiaolei":"7314004","address":"","zhonglei":"7314","dalei":"7","type":"hotel"}},
{"type":"Feature","geometry":{"type":"Point","coordinates":[114.232879,30.60978]},"properties":{"name":"威尔斯快捷宾馆（发展大道）","xiaolei":"7314003","address":"发展大道33号","zhonglei":"7314","dalei":"7","type":"hotel"}},
{"type":"Feature","geometry":{"type":"Point","coordinates":[114.213355,30.613778]},"properties":{"name":"天顺商务宾馆","xiaolei":"7314003","address":"","zhonglei":"7314","dalei":"7","type":"hotel"}},
{"type":"Feature","geometry":{"type":"Point","coordinates":[114.242434,30.616224]},"properties":{"name":"福缘百合酒店","xiaolei":"7314003","address":"","zhonglei":"7314","dalei":"7","type":"hotel"}},
{"type":"Feature","geometry":{"type":"Point","coordinates":[114.2085,30.614231]},"properties":{"name":"顺源宾馆","xiaolei":"7314003","address":"","zhonglei":"7314","dalei":"7","type":"hotel"}},
{"type":"Feature","geometry":{"type":"Point","coordinates":[114.216917,30.585274]},"properties":{"name":"君安住宿","xiaolei":"7314004","address":"","zhonglei":"7314","dalei":"7","type":"hotel"}},
{"type":"Feature","geometry":{"type":"Point","coordinates":[114.180643,30.616002]},"properties":{"name":"世佳宾馆","xiaolei":"7314003","address":"古田一路58号","zhonglei":"7314","dalei":"7","type":"hotel"}},
{"type":"Feature","geometry":{"type":"Point","coordinates":[114.231352,30.628659]},"properties":{"name":"武汉万科君澜酒店","xiaolei":"7314003","address":"","zhonglei":"7314","dalei":"7","type":"hotel"}},
{"type":"Feature","geometry":{"type":"Point","coordinates":[114.21254,30.585504]},"properties":{"name":"萍聚公寓","xiaolei":"7314004","address":"","zhonglei":"7314","dalei":"7","type":"hotel"}},
{"type":"Feature","geometry":{"type":"Point","coordinates":[114.149081,30.621805]},"properties":{"name":"红红住宿","xiaolei":"7314004","address":"一清路24","zhonglei":"7314","dalei":"7","type":"hotel"}},
{"type":"Feature","geometry":{"type":"Point","coordinates":[114.197968,30.591252]},"properties":{"name":"红人酒店","xiaolei":"7314003","address":"古田三路24号","zhonglei":"7314","dalei":"7","type":"hotel"}},
{"type":"Feature","geometry":{"type":"Point","coordinates":[114.233601,30.609935]},"properties":{"name":"福缘百合新华酒店","xiaolei":"7314003","address":"发展大道33号","zhonglei":"7314","dalei":"7","type":"hotel"}},
{"type":"Feature","geometry":{"type":"Point","coordinates":[114.187797,30.612854]},"properties":{"name":"汇通出租屋","xiaolei":"7314004","address":"","zhonglei":"7314","dalei":"7","type":"hotel"}},
{"type":"Feature","geometry":{"type":"Point","coordinates":[114.166061,30.615501]},"properties":{"name":"奥钛华酒店","xiaolei":"7314003","address":"长丰大道35","zhonglei":"7314","dalei":"7","type":"hotel"}},
{"type":"Feature","geometry":{"type":"Point","coordinates":[114.163401,30.615021]},"properties":{"name":"凯邦公寓","xiaolei":"7314004","address":"","zhonglei":"7314","dalei":"7","type":"hotel"}},
{"type":"Feature","geometry":{"type":"Point","coordinates":[114.141627,30.612347]},"properties":{"name":"家悦宾馆（舵落口店）","xiaolei":"7314003","address":"东西湖舵落口大市场20区陶瓷卫浴总部","zhonglei":"7314","dalei":"7","type":"hotel"}},
{"type":"Feature","geometry":{"type":"Point","coordinates":[114.179208,30.638004]},"properties":{"name":"武汉凌云科技集团接待中心","xiaolei":"7314003","address":"金山大道150号","zhonglei":"7314","dalei":"7","type":"hotel"}},
{"type":"Feature","geometry":{"type":"Point","coordinates":[114.162961,30.614857]},"properties":{"name":"武汉凯邦快捷宾馆（舵落口店）","xiaolei":"7314003","address":"长丰大道舵落口车站旁特1号","zhonglei":"7314","dalei":"7","type":"hotel"}},
{"type":"Feature","geometry":{"type":"Point","coordinates":[114.214648,30.602929]},"properties":{"name":"汉庭酒店（武汉汉西店）","xiaolei":"7314009","address":"汉西三路81号","zhonglei":"7314","dalei":"7","type":"hotel"}},
{"type":"Feature","geometry":{"type":"Point","coordinates":[114.186879,30.613189]},"properties":{"name":"振华招待所","xiaolei":"7314004","address":"","zhonglei":"7314","dalei":"7","type":"hotel"}},
{"type":"Feature","geometry":{"type":"Point","coordinates":[114.133022,30.615745]},"properties":{"name":"华坤宾馆","xiaolei":"7314003","address":"革新大道381","zhonglei":"7314","dalei":"7","type":"hotel"}},
{"type":"Feature","geometry":{"type":"Point","coordinates":[114.246351,30.616092]},"properties":{"name":"易捷城市酒店","xiaolei":"7314003","address":"发展大道181","zhonglei":"7314","dalei":"7","type":"hotel"}},
{"type":"Feature","geometry":{"type":"Point","coordinates":[114.207701,30.610656]},"properties":{"name":"长丰出租房","xiaolei":"7314004","address":"","zhonglei":"7314","dalei":"7","type":"hotel"}},
{"type":"Feature","geometry":{"type":"Point","coordinates":[114.239952,30.611823]},"properties":{"name":"绿波招待所","xiaolei":"7314004","address":"发展大道122","zhonglei":"7314","dalei":"7","type":"hotel"}},
{"type":"Feature","geometry":{"type":"Point","coordinates":[114.229406,30.640319]},"properties":{"name":"永红宾馆","xiaolei":"7314003","address":"学府南路100","zhonglei":"7314","dalei":"7","type":"hotel"}},
{"type":"Feature","geometry":{"type":"Point","coordinates":[114.239443,30.60782]},"properties":{"name":"军鹏旅馆","xiaolei":"7314004","address":"振兴路108","zhonglei":"7314","dalei":"7","type":"hotel"}},
{"type":"Feature","geometry":{"type":"Point","coordinates":[114.249946,30.59099]},"properties":{"name":"约泰ＱＱ新概念酒店（王家墩店）","xiaolei":"7314003","address":"建设大道541","zhonglei":"7314","dalei":"7","type":"hotel"}},
{"type":"Feature","geometry":{"type":"Point","coordinates":[114.214471,30.587922]},"properties":{"name":"迎宾旅社","xiaolei":"7314004","address":"解放大道353","zhonglei":"7314","dalei":"7","type":"hotel"}},
{"type":"Feature","geometry":{"type":"Point","coordinates":[114.133607,30.633445]},"properties":{"name":"圆意住宿棋牌","xiaolei":"7314004","address":"吴北路122","zhonglei":"7314","dalei":"7","type":"hotel"}},
{"type":"Feature","geometry":{"type":"Point","coordinates":[114.219326,30.584588]},"properties":{"name":"全兴旅社","xiaolei":"7314004","address":"","zhonglei":"7314","dalei":"7","type":"hotel"}},
{"type":"Feature","geometry":{"type":"Point","coordinates":[114.190159,30.612765]},"properties":{"name":"阳光出租屋","xiaolei":"7314004","address":"","zhonglei":"7314","dalei":"7","type":"hotel"}},
{"type":"Feature","geometry":{"type":"Point","coordinates":[114.191301,30.599434]},"properties":{"name":"精益招待所","xiaolei":"7314004","address":"解放大道40","zhonglei":"7314","dalei":"7","type":"hotel"}},
{"type":"Feature","geometry":{"type":"Point","coordinates":[114.149735,30.61925]},"properties":{"name":"昊天宾馆","xiaolei":"7314003","address":"","zhonglei":"7314","dalei":"7","type":"hotel"}},
{"type":"Feature","geometry":{"type":"Point","coordinates":[114.182307,30.605005]},"properties":{"name":"古驿住宿","xiaolei":"7314004","address":"","zhonglei":"7314","dalei":"7","type":"hotel"}},
{"type":"Feature","geometry":{"type":"Point","coordinates":[114.221192,30.585315]},"properties":{"name":"绿林宾馆","xiaolei":"7314003","address":"","zhonglei":"7314","dalei":"7","type":"hotel"}},
{"type":"Feature","geometry":{"type":"Point","coordinates":[114.213833,30.609975]},"properties":{"name":"濠微出租屋","xiaolei":"7314004","address":"","zhonglei":"7314","dalei":"7","type":"hotel"}},
{"type":"Feature","geometry":{"type":"Point","coordinates":[114.225535,30.59229]},"properties":{"name":"汉西招待所","xiaolei":"7314004","address":"","zhonglei":"7314","dalei":"7","type":"hotel"}},
{"type":"Feature","geometry":{"type":"Point","coordinates":[114.241377,30.614786]},"properties":{"name":"新亿招待所","xiaolei":"7314004","address":"","zhonglei":"7314","dalei":"7","type":"hotel"}},
{"type":"Feature","geometry":{"type":"Point","coordinates":[114.242119,30.613253]},"properties":{"name":"长金客房酒店","xiaolei":"7314003","address":"","zhonglei":"7314","dalei":"7","type":"hotel"}},
{"type":"Feature","geometry":{"type":"Point","coordinates":[114.133694,30.6271]},"properties":{"name":"合家福招待所","xiaolei":"7314004","address":"","zhonglei":"7314","dalei":"7","type":"hotel"}},
{"type":"Feature","geometry":{"type":"Point","coordinates":[114.125663,30.620033]},"properties":{"name":"东光宾馆（六支沟分店）","xiaolei":"7314003","address":"","zhonglei":"7314","dalei":"7","type":"hotel"}},
{"type":"Feature","geometry":{"type":"Point","coordinates":[114.249575,30.589143]},"properties":{"name":"７天酒店（王家墩店）","xiaolei":"7314009","address":"建设大道404号","zhonglei":"7314","dalei":"7","type":"hotel"}},
{"type":"Feature","geometry":{"type":"Point","coordinates":[114.237956,30.608008]},"properties":{"name":"金艺旅馆","xiaolei":"7314004","address":"振兴路25号","zhonglei":"7314","dalei":"7","type":"hotel"}},
{"type":"Feature","geometry":{"type":"Point","coordinates":[114.244599,30.617261]},"properties":{"name":"三缘宾馆","xiaolei":"7314003","address":"","zhonglei":"7314","dalei":"7","type":"hotel"}},
{"type":"Feature","geometry":{"type":"Point","coordinates":[114.210979,30.605026]},"properties":{"name":"晶鑫招待所","xiaolei":"7314004","address":"","zhonglei":"7314","dalei":"7","type":"hotel"}},
{"type":"Feature","geometry":{"type":"Point","coordinates":[114.185432,30.591464]},"properties":{"name":"娇子招待所","xiaolei":"7314004","address":"古田二路7号附近","zhonglei":"7314","dalei":"7","type":"hotel"}},
{"type":"Feature","geometry":{"type":"Point","coordinates":[114.210964,30.610261]},"properties":{"name":"长发出租屋","xiaolei":"7314004","address":"","zhonglei":"7314","dalei":"7","type":"hotel"}},
{"type":"Feature","geometry":{"type":"Point","coordinates":[114.193738,30.612242]},"properties":{"name":"鑫宜招待所","xiaolei":"7314004","address":"","zhonglei":"7314","dalei":"7","type":"hotel"}},
{"type":"Feature","geometry":{"type":"Point","coordinates":[114.193365,30.612398]},"properties":{"name":"都汇租房","xiaolei":"7314004","address":"","zhonglei":"7314","dalei":"7","type":"hotel"}},
{"type":"Feature","geometry":{"type":"Point","coordinates":[114.169755,30.610348]},"properties":{"name":"鸿运旅馆","xiaolei":"7314004","address":"工农路61号","zhonglei":"7314","dalei":"7","type":"hotel"}},
{"type":"Feature","geometry":{"type":"Point","coordinates":[114.193865,30.61233]},"properties":{"name":"聚丰租房","xiaolei":"7314004","address":"","zhonglei":"7314","dalei":"7","type":"hotel"}},
{"type":"Feature","geometry":{"type":"Point","coordinates":[114.241519,30.616755]},"properties":{"name":"东新旅馆","xiaolei":"7314004","address":"常青路89号附近","zhonglei":"7314","dalei":"7","type":"hotel"}},
{"type":"Feature","geometry":{"type":"Point","coordinates":[114.178414,30.613406]},"properties":{"name":"天友旅馆","xiaolei":"7314004","address":"长丰大道86号附近","zhonglei":"7314","dalei":"7","type":"hotel"}},
{"type":"Feature","geometry":{"type":"Point","coordinates":[114.183265,30.613625]},"properties":{"name":"舒心招待所","xiaolei":"7314004","address":"","zhonglei":"7314","dalei":"7","type":"hotel"}},
{"type":"Feature","geometry":{"type":"Point","coordinates":[114.193521,30.612358]},"properties":{"name":"明星出租屋","xiaolei":"7314004","address":"","zhonglei":"7314","dalei":"7","type":"hotel"}},
{"type":"Feature","geometry":{"type":"Point","coordinates":[114.136099,30.62642]},"properties":{"name":"乾佳宾馆","xiaolei":"7314003","address":"四明路126","zhonglei":"7314","dalei":"7","type":"hotel"}},
{"type":"Feature","geometry":{"type":"Point","coordinates":[114.148941,30.620012]},"properties":{"name":"龙腾宾馆","xiaolei":"7314003","address":"","zhonglei":"7314","dalei":"7","type":"hotel"}},
{"type":"Feature","geometry":{"type":"Point","coordinates":[114.15097,30.612316]},"properties":{"name":"怡苑宾馆","xiaolei":"7314003","address":"","zhonglei":"7314","dalei":"7","type":"hotel"}},
{"type":"Feature","geometry":{"type":"Point","coordinates":[114.144932,30.614493]},"properties":{"name":"万安酒店","xiaolei":"7314003","address":"","zhonglei":"7314","dalei":"7","type":"hotel"}},
{"type":"Feature","geometry":{"type":"Point","coordinates":[114.237777,30.61187]},"properties":{"name":"唐山住宿","xiaolei":"7314004","address":"发展大道101","zhonglei":"7314","dalei":"7","type":"hotel"}},
{"type":"Feature","geometry":{"type":"Point","coordinates":[114.199173,30.596265]},"properties":{"name":"金逸宾馆","xiaolei":"7314003","address":"","zhonglei":"7314","dalei":"7","type":"hotel"}},
{"type":"Feature","geometry":{"type":"Point","coordinates":[114.184232,30.592077]},"properties":{"name":"愉悦宾馆","xiaolei":"7314003","address":"","zhonglei":"7314","dalei":"7","type":"hotel"}},
{"type":"Feature","geometry":{"type":"Point","coordinates":[114.22996,30.609243]},"properties":{"name":"东宏商务旅馆","xiaolei":"7314004","address":"发展大道25号","zhonglei":"7314","dalei":"7","type":"hotel"}},
{"type":"Feature","geometry":{"type":"Point","coordinates":[114.236608,30.620634]},"properties":{"name":"速７快捷宾馆（红旗分店）","xiaolei":"7314003","address":"","zhonglei":"7314","dalei":"7","type":"hotel"}},
{"type":"Feature","geometry":{"type":"Point","coordinates":[114.149501,30.613251]},"properties":{"name":"玉香宾馆","xiaolei":"7314003","address":"","zhonglei":"7314","dalei":"7","type":"hotel"}},
{"type":"Feature","geometry":{"type":"Point","coordinates":[114.13699,30.619532]},"properties":{"name":"凯立源旅馆","xiaolei":"7314004","address":"","zhonglei":"7314","dalei":"7","type":"hotel"}},
{"type":"Feature","geometry":{"type":"Point","coordinates":[114.229835,30.588377]},"properties":{"name":"江海楼大酒店","xiaolei":"7314003","address":"","zhonglei":"7314","dalei":"7","type":"hotel"}},
{"type":"Feature","geometry":{"type":"Point","coordinates":[114.233326,30.627535]},"properties":{"name":"金瀚庭商务酒店","xiaolei":"7314003","address":"常青路163附3","zhonglei":"7314","dalei":"7","type":"hotel"}},
{"type":"Feature","geometry":{"type":"Point","coordinates":[114.185497,30.592316]},"properties":{"name":"军民招待所","xiaolei":"7314004","address":"古田二路23","zhonglei":"7314","dalei":"7","type":"hotel"}},
{"type":"Feature","geometry":{"type":"Point","coordinates":[114.243674,30.632094]},"properties":{"name":"海航招待所","xiaolei":"7314004","address":"长港路88附8","zhonglei":"7314","dalei":"7","type":"hotel"}},
{"type":"Feature","geometry":{"type":"Point","coordinates":[114.224549,30.60539]},"properties":{"name":"广发旅馆","xiaolei":"7314004","address":"","zhonglei":"7314","dalei":"7","type":"hotel"}},
{"type":"Feature","geometry":{"type":"Point","coordinates":[114.22026,30.586413]},"properties":{"name":"电源招待所","xiaolei":"7314004","address":"","zhonglei":"7314","dalei":"7","type":"hotel"}},
{"type":"Feature","geometry":{"type":"Point","coordinates":[114.176997,30.614364]},"properties":{"name":"众鑫宾馆","xiaolei":"7314003","address":"","zhonglei":"7314","dalei":"7","type":"hotel"}},
{"type":"Feature","geometry":{"type":"Point","coordinates":[114.197488,30.592981]},"properties":{"name":"海泉宾馆","xiaolei":"7314003","address":"","zhonglei":"7314","dalei":"7","type":"hotel"}},
{"type":"Feature","geometry":{"type":"Point","coordinates":[114.239764,30.644387]},"properties":{"name":"华泰宾馆","xiaolei":"7314003","address":"","zhonglei":"7314","dalei":"7","type":"hotel"}},
{"type":"Feature","geometry":{"type":"Point","coordinates":[114.230169,30.609299]},"properties":{"name":"７７酒店","xiaolei":"7314003","address":"","zhonglei":"7314","dalei":"7","type":"hotel"}},
{"type":"Feature","geometry":{"type":"Point","coordinates":[114.146546,30.617589]},"properties":{"name":"文锦宾馆","xiaolei":"7314003","address":"","zhonglei":"7314","dalei":"7","type":"hotel"}},
{"type":"Feature","geometry":{"type":"Point","coordinates":[114.249757,30.590997]},"properties":{"name":"莫泰１６８旅店（汉口王家墩店）","xiaolei":"7314009","address":"汉口建设大道543号","zhonglei":"7314","dalei":"7","type":"hotel"}},
{"type":"Feature","geometry":{"type":"Point","coordinates":[114.279002,30.605527]},"properties":{"name":"兆瑞国际大酒店","xiaolei":"7314003","address":"高雄路160号","zhonglei":"7314","dalei":"7","type":"hotel"}},
{"type":"Feature","geometry":{"type":"Point","coordinates":[114.289366,30.595179]},"properties":{"name":"新鸿运客房部","xiaolei":"7314004","address":"","zhonglei":"7314","dalei":"7","type":"hotel"}},
{"type":"Feature","geometry":{"type":"Point","coordinates":[114.285868,30.598273]},"properties":{"name":"宝庆商务宾馆","xiaolei":"7314003","address":"香港路15号","zhonglei":"7314","dalei":"7","type":"hotel"}},
{"type":"Feature","geometry":{"type":"Point","coordinates":[114.280949,30.600707]},"properties":{"name":"高雄招待所","xiaolei":"7314004","address":"高雄路87","zhonglei":"7314","dalei":"7","type":"hotel"}},
{"type":"Feature","geometry":{"type":"Point","coordinates":[114.273181,30.599352]},"properties":{"name":"安陆汉办招待所","xiaolei":"7314004","address":"台北二路11号","zhonglei":"7314","dalei":"7","type":"hotel"}},
{"type":"Feature","geometry":{"type":"Point","coordinates":[114.27015,30.58453]},"properties":{"name":"蓝天招待所（解放大道）","xiaolei":"7314004","address":"新育村20","zhonglei":"7314","dalei":"7","type":"hotel"}},
{"type":"Feature","geometry":{"type":"Point","coordinates":[114.282909,30.583425]},"properties":{"name":"大洋招待所","xiaolei":"7314004","address":"江汉二路4附4号2层","zhonglei":"7314","dalei":"7","type":"hotel"}},
{"type":"Feature","geometry":{"type":"Point","coordinates":[114.281195,30.584668]},"properties":{"name":"顺和招待所（江汉四路）","xiaolei":"7314004","address":"江汉四路10","zhonglei":"7314","dalei":"7","type":"hotel"}},
{"type":"Feature","geometry":{"type":"Point","coordinates":[114.280437,30.584895]},"properties":{"name":"宜城汉办招待所","xiaolei":"7314004","address":"东民巷12附3","zhonglei":"7314","dalei":"7","type":"hotel"}},
{"type":"Feature","geometry":{"type":"Point","coordinates":[114.282951,30.586647]},"properties":{"name":"君益招待所","xiaolei":"7314004","address":"铭新街13附1","zhonglei":"7314","dalei":"7","type":"hotel"}},
{"type":"Feature","geometry":{"type":"Point","coordinates":[114.291254,30.590063]},"properties":{"name":"南南招待所","xiaolei":"7314004","address":"兰陵路89","zhonglei":"7314","dalei":"7","type":"hotel"}},
{"type":"Feature","geometry":{"type":"Point","coordinates":[114.295034,30.593716]},"properties":{"name":"金源旅馆","xiaolei":"7314004","address":"岳飞街26","zhonglei":"7314","dalei":"7","type":"hotel"}},
{"type":"Feature","geometry":{"type":"Point","coordinates":[114.293315,30.591706]},"properties":{"name":"鑫都旅馆","xiaolei":"7314004","address":"黄兴路5","zhonglei":"7314","dalei":"7","type":"hotel"}},
{"type":"Feature","geometry":{"type":"Point","coordinates":[114.298509,30.596805]},"properties":{"name":"武汉实验招待所","xiaolei":"7314004","address":"胜利街265号","zhonglei":"7314","dalei":"7","type":"hotel"}},
{"type":"Feature","geometry":{"type":"Point","coordinates":[114.295583,30.597496]},"properties":{"name":"百胜客房","xiaolei":"7314004","address":"公安路12","zhonglei":"7314","dalei":"7","type":"hotel"}},
{"type":"Feature","geometry":{"type":"Point","coordinates":[114.26697,30.596429]},"properties":{"name":"新天招待所","xiaolei":"7314004","address":"新华路217","zhonglei":"7314","dalei":"7","type":"hotel"}},
{"type":"Feature","geometry":{"type":"Point","coordinates":[114.260862,30.584815]},"properties":{"name":"京山航园招待所","xiaolei":"7314004","address":"","zhonglei":"7314","dalei":"7","type":"hotel"}},
{"type":"Feature","geometry":{"type":"Point","coordinates":[114.259544,30.590397]},"properties":{"name":"万松旅社","xiaolei":"7314004","address":"青年路","zhonglei":"7314","dalei":"7","type":"hotel"}},
{"type":"Feature","geometry":{"type":"Point","coordinates":[114.256487,30.591138]},"properties":{"name":"武穴市汉办招待所","xiaolei":"7314004","address":"万松园横路62号","zhonglei":"7314","dalei":"7","type":"hotel"}},
{"type":"Feature","geometry":{"type":"Point","coordinates":[114.25387,30.589257]},"properties":{"name":"兴盛电力宾馆","xiaolei":"7314003","address":"航空路110","zhonglei":"7314","dalei":"7","type":"hotel"}},
{"type":"Feature","geometry":{"type":"Point","coordinates":[114.278823,30.588525]},"properties":{"name":"循礼门饭店","xiaolei":"7314003","address":"汉口解放大道1413","zhonglei":"7314","dalei":"7","type":"hotel"}},
{"type":"Feature","geometry":{"type":"Point","coordinates":[114.277057,30.590332]},"properties":{"name":"万家都市宾馆","xiaolei":"7314003","address":"江汉北路渣家村1号","zhonglei":"7314","dalei":"7","type":"hotel"}},
{"type":"Feature","geometry":{"type":"Point","coordinates":[114.274159,30.590908]},"properties":{"name":"湖北民航大酒店","xiaolei":"7314003","address":"江汉北路109号","zhonglei":"7314","dalei":"7","type":"hotel"}},
{"type":"Feature","geometry":{"type":"Point","coordinates":[114.26979,30.593545]},"properties":{"name":"锦江之星旅馆（武汉新华路店）","xiaolei":"7314009","address":"江汉北路162号","zhonglei":"7314","dalei":"7","type":"hotel"}},
{"type":"Feature","geometry":{"type":"Point","coordinates":[114.268546,30.595293]},"properties":{"name":"维肯特大酒店","xiaolei":"7314003","address":"新华路316号良友大厦","zhonglei":"7314","dalei":"7","type":"hotel"}},
{"type":"Feature","geometry":{"type":"Point","coordinates":[114.272013,30.595003]},"properties":{"name":"如家快捷酒店（武汉台北路店）","xiaolei":"7314009","address":"台北一路26号中诚大厦","zhonglei":"7314","dalei":"7","type":"hotel"}},
{"type":"Feature","geometry":{"type":"Point","coordinates":[114.272544,30.594949]},"properties":{"name":"７天酒店（台北一路店）","xiaolei":"7314009","address":"台北一路38号","zhonglei":"7314","dalei":"7","type":"hotel"}},
{"type":"Feature","geometry":{"type":"Point","coordinates":[114.27373,30.599256]},"properties":{"name":"佳丽旅馆","xiaolei":"7314004","address":"台北二路15号","zhonglei":"7314","dalei":"7","type":"hotel"}},
{"type":"Feature","geometry":{"type":"Point","coordinates":[114.271455,30.599151]},"properties":{"name":"云林９号会所","xiaolei":"7314003","address":"云林街12","zhonglei":"7314","dalei":"7","type":"hotel"}},
{"type":"Feature","geometry":{"type":"Point","coordinates":[114.291064,30.593874]},"properties":{"name":"长青时尚旅馆","xiaolei":"7314004","address":"友益街65","zhonglei":"7314","dalei":"7","type":"hotel"}},
{"type":"Feature","geometry":{"type":"Point","coordinates":[114.289603,30.593317]},"properties":{"name":"友谊客房部","xiaolei":"7314004","address":"友益街8","zhonglei":"7314","dalei":"7","type":"hotel"}},
{"type":"Feature","geometry":{"type":"Point","coordinates":[114.288592,30.591185]},"properties":{"name":"扬子江饭店（吉庆街店）","xiaolei":"7314009","address":"交易街68","zhonglei":"7314","dalei":"7","type":"hotel"}},
{"type":"Feature","geometry":{"type":"Point","coordinates":[114.286712,30.586978]},"properties":{"name":"汉庭酒店（武汉江汉路步行街店）","xiaolei":"7314009","address":"汇通路3号","zhonglei":"7314","dalei":"7","type":"hotel"}},
{"type":"Feature","geometry":{"type":"Point","coordinates":[114.296744,30.588575]},"properties":{"name":"长海大酒店","xiaolei":"7314003","address":"黎黄陂路1号","zhonglei":"7314","dalei":"7","type":"hotel"}},
{"type":"Feature","geometry":{"type":"Point","coordinates":[114.294204,30.587932]},"properties":{"name":"７天酒店（武汉汉口江滩店）","xiaolei":"7314009","address":"洞庭街69","zhonglei":"7314","dalei":"7","type":"hotel"}},
{"type":"Feature","geometry":{"type":"Point","coordinates":[114.288642,30.585017]},"properties":{"name":"金华客房","xiaolei":"7314003","address":"南京路88号","zhonglei":"7314","dalei":"7","type":"hotel"}},
{"type":"Feature","geometry":{"type":"Point","coordinates":[114.291488,30.585023]},"properties":{"name":"三星宾馆（青岛路）","xiaolei":"7314003","address":"青岛路17","zhonglei":"7314","dalei":"7","type":"hotel"}},
{"type":"Feature","geometry":{"type":"Point","coordinates":[114.294857,30.584578]},"properties":{"name":"临江饭店（沿江大道）","xiaolei":"7314003","address":"沿江大道148","zhonglei":"7314","dalei":"7","type":"hotel"}},
{"type":"Feature","geometry":{"type":"Point","coordinates":[114.295093,30.585207]},"properties":{"name":"协力宾馆","xiaolei":"7314003","address":"天津路2号","zhonglei":"7314","dalei":"7","type":"hotel"}},
{"type":"Feature","geometry":{"type":"Point","coordinates":[114.295708,30.586067]},"properties":{"name":"滨江假日酒店","xiaolei":"7314003","address":"沿江大道152","zhonglei":"7314","dalei":"7","type":"hotel"}},
{"type":"Feature","geometry":{"type":"Point","coordinates":[114.257265,30.586543]},"properties":{"name":"７天酒店（武汉航空路店）","xiaolei":"7314009","address":"航空路24号","zhonglei":"7314","dalei":"7","type":"hotel"}},
{"type":"Feature","geometry":{"type":"Point","coordinates":[114.254539,30.58876]},"properties":{"name":"嘉怡客栈","xiaolei":"7314004","address":"航空路36号","zhonglei":"7314","dalei":"7","type":"hotel"}},
{"type":"Feature","geometry":{"type":"Point","coordinates":[114.256744,30.590693]},"properties":{"name":"帆鸣客房部","xiaolei":"7314004","address":"万松横路54","zhonglei":"7314","dalei":"7","type":"hotel"}},
{"type":"Feature","geometry":{"type":"Point","coordinates":[114.257846,30.591587]},"properties":{"name":"华坤宾馆（青年路店）","xiaolei":"7314003","address":"青年路159号新一佳4层","zhonglei":"7314","dalei":"7","type":"hotel"}},
{"type":"Feature","geometry":{"type":"Point","coordinates":[114.257956,30.590987]},"properties":{"name":"天濠宾馆","xiaolei":"7314003","address":"青年路155号长源商住大厦","zhonglei":"7314","dalei":"7","type":"hotel"}},
{"type":"Feature","geometry":{"type":"Point","coordinates":[114.260133,30.583879]},"properties":{"name":"武汉华美达天禄酒店","xiaolei":"7314003","address":"青年路5","zhonglei":"7314","dalei":"7","type":"hotel"}},
{"type":"Feature","geometry":{"type":"Point","coordinates":[114.260545,30.583747]},"properties":{"name":"天禄酒店","xiaolei":"7314003","address":"青年路3","zhonglei":"7314","dalei":"7","type":"hotel"}},
{"type":"Feature","geometry":{"type":"Point","coordinates":[114.260597,30.585275]},"properties":{"name":"新都会宾馆","xiaolei":"7314003","address":"青年路6号","zhonglei":"7314","dalei":"7","type":"hotel"}},
{"type":"Feature","geometry":{"type":"Point","coordinates":[114.261704,30.591631]},"properties":{"name":"振华大厦","xiaolei":"7314003","address":"万松园路18号","zhonglei":"7314","dalei":"7","type":"hotel"}},
{"type":"Feature","geometry":{"type":"Point","coordinates":[114.261718,30.590313]},"properties":{"name":"威凯酒店","xiaolei":"7314003","address":"万松园路153号威凯大楼","zhonglei":"7314","dalei":"7","type":"hotel"}},
{"type":"Feature","geometry":{"type":"Point","coordinates":[114.262025,30.589323]},"properties":{"name":"超越车友宾馆","xiaolei":"7314003","address":"万松园路139号","zhonglei":"7314","dalei":"7","type":"hotel"}},
{"type":"Feature","geometry":{"type":"Point","coordinates":[114.262638,30.587087]},"properties":{"name":"纽曼宾馆（万松园店）","xiaolei":"7314003","address":"万松园路73","zhonglei":"7314","dalei":"7","type":"hotel"}},
{"type":"Feature","geometry":{"type":"Point","coordinates":[114.261822,30.585146]},"properties":{"name":"７天酒店（武汉广场店）","xiaolei":"7314009","address":"万松园路15号","zhonglei":"7314","dalei":"7","type":"hotel"}},
{"type":"Feature","geometry":{"type":"Point","coordinates":[114.267494,30.59455]},"properties":{"name":"纽宾凯国际酒店","xiaolei":"7314003","address":"新华路151号阳光新天地1、4-17层","zhonglei":"7314","dalei":"7","type":"hotel"}},
{"type":"Feature","geometry":{"type":"Point","coordinates":[114.261026,30.593922]},"properties":{"name":"煌嘉宾馆","xiaolei":"7314003","address":"万松园路172","zhonglei":"7314","dalei":"7","type":"hotel"}},
{"type":"Feature","geometry":{"type":"Point","coordinates":[114.260453,30.591627]},"properties":{"name":"圣淘沙国际会议中心酒店","xiaolei":"7314003","address":"万松园路199号","zhonglei":"7314","dalei":"7","type":"hotel"}},
{"type":"Feature","geometry":{"type":"Point","coordinates":[114.2601,30.591594]},"properties":{"name":"圣淘沙国际会议中心酒店（万松园横","xiaolei":"7314003","address":"青年路万松园横路56号圣淘沙酒店旁","zhonglei":"7314","dalei":"7","type":"hotel"}},
{"type":"Feature","geometry":{"type":"Point","coordinates":[114.268691,30.590309]},"properties":{"name":"五环宾馆（新华路）","xiaolei":"7314003","address":"新华路19号","zhonglei":"7314","dalei":"7","type":"hotel"}},
{"type":"Feature","geometry":{"type":"Point","coordinates":[114.277617,30.604967]},"properties":{"name":"香格里拉大酒店","xiaolei":"7314003","address":"建设大道700号","zhonglei":"7314","dalei":"7","type":"hotel"}},
{"type":"Feature","geometry":{"type":"Point","coordinates":[114.281608,30.604658]},"properties":{"name":"香江宾馆","xiaolei":"7314003","address":"香港路153号","zhonglei":"7314","dalei":"7","type":"hotel"}},
{"type":"Feature","geometry":{"type":"Point","coordinates":[114.280543,30.603179]},"properties":{"name":"如家快捷酒店（武汉高雄路店）","xiaolei":"7314009","address":"高雄路花莲里10号","zhonglei":"7314","dalei":"7","type":"hotel"}},
{"type":"Feature","geometry":{"type":"Point","coordinates":[114.276651,30.603864]},"properties":{"name":"潮汕宾馆","xiaolei":"7314003","address":"建设大道692号物产大厦","zhonglei":"7314","dalei":"7","type":"hotel"}},
{"type":"Feature","geometry":{"type":"Point","coordinates":[114.274527,30.584826]},"properties":{"name":"康裕宾馆","xiaolei":"7314003","address":"单洞三路31号","zhonglei":"7314","dalei":"7","type":"hotel"}},
{"type":"Feature","geometry":{"type":"Point","coordinates":[114.27252,30.585521]},"properties":{"name":"金茂宾馆","xiaolei":"7314003","address":"解放大道784号","zhonglei":"7314","dalei":"7","type":"hotel"}},
{"type":"Feature","geometry":{"type":"Point","coordinates":[114.27231,30.583572]},"properties":{"name":"大京都宾馆（逸安公寓西南）","xiaolei":"7314003","address":"双洞正街16","zhonglei":"7314","dalei":"7","type":"hotel"}},
{"type":"Feature","geometry":{"type":"Point","coordinates":[114.27595,30.58631]},"properties":{"name":"华坤宾馆新华路店","xiaolei":"7314003","address":"解放大道单洞路特1号国际大厦A座14-18","zhonglei":"7314","dalei":"7","type":"hotel"}},
{"type":"Feature","geometry":{"type":"Point","coordinates":[114.279175,30.586229]},"properties":{"name":"京鹏商务宾馆（汉口江汉路店）","xiaolei":"7314003","address":"江汉路257号","zhonglei":"7314","dalei":"7","type":"hotel"}},
{"type":"Feature","geometry":{"type":"Point","coordinates":[114.286053,30.583521]},"properties":{"name":"武汉扬子江酒店","xiaolei":"7314003","address":"江汉路104","zhonglei":"7314","dalei":"7","type":"hotel"}},
{"type":"Feature","geometry":{"type":"Point","coordinates":[114.28545,30.583675]},"properties":{"name":"汇悦宾馆","xiaolei":"7314003","address":"江汉路109","zhonglei":"7314","dalei":"7","type":"hotel"}},
{"type":"Feature","geometry":{"type":"Point","coordinates":[114.284692,30.585085]},"properties":{"name":"武汉帝盛酒店","xiaolei":"7314003","address":"江汉路118号港澳中心8层","zhonglei":"7314","dalei":"7","type":"hotel"}},
{"type":"Feature","geometry":{"type":"Point","coordinates":[114.285525,30.586297]},"properties":{"name":"金宝客房部","xiaolei":"7314004","address":"江汉二路135号金宝大厦2层","zhonglei":"7314","dalei":"7","type":"hotel"}},
{"type":"Feature","geometry":{"type":"Point","coordinates":[114.283161,30.586881]},"properties":{"name":"世纪花宾馆","xiaolei":"7314003","address":"铭新街13附2","zhonglei":"7314","dalei":"7","type":"hotel"}},
{"type":"Feature","geometry":{"type":"Point","coordinates":[114.284958,30.586668]},"properties":{"name":"建华客房","xiaolei":"7314004","address":"吉庆街66号建华大厦3层","zhonglei":"7314","dalei":"7","type":"hotel"}},
{"type":"Feature","geometry":{"type":"Point","coordinates":[114.295564,30.592979]},"properties":{"name":"鑫盛宾馆","xiaolei":"7314003","address":"胜利街241","zhonglei":"7314","dalei":"7","type":"hotel"}},
{"type":"Feature","geometry":{"type":"Point","coordinates":[114.292598,30.592246]},"properties":{"name":"万可宾馆","xiaolei":"7314003","address":"黄兴路27","zhonglei":"7314","dalei":"7","type":"hotel"}},
{"type":"Feature","geometry":{"type":"Point","coordinates":[114.296711,30.588943]},"properties":{"name":"凯利莱宾馆","xiaolei":"7314003","address":"黎黄陂路2附1","zhonglei":"7314","dalei":"7","type":"hotel"}},
{"type":"Feature","geometry":{"type":"Point","coordinates":[114.296376,30.589009]},"properties":{"name":"汉庭酒店（武汉江滩二店）","xiaolei":"7314009","address":"黎黄陂路2附4","zhonglei":"7314","dalei":"7","type":"hotel"}},
{"type":"Feature","geometry":{"type":"Point","coordinates":[114.298701,30.593181]},"properties":{"name":"江城明珠豪生大酒店","xiaolei":"7314003","address":"汉口沿江大道182号","zhonglei":"7314","dalei":"7","type":"hotel"}},
{"type":"Feature","geometry":{"type":"Point","coordinates":[114.299284,30.598221]},"properties":{"name":"鄂钢大酒店","xiaolei":"7314003","address":"汉口胜利街275号","zhonglei":"7314","dalei":"7","type":"hotel"}},
{"type":"Feature","geometry":{"type":"Point","coordinates":[114.266322,30.595468]},"properties":{"name":"汉庭酒店（武汉新华路店）","xiaolei":"7314009","address":"雪松路69号","zhonglei":"7314","dalei":"7","type":"hotel"}},
{"type":"Feature","geometry":{"type":"Point","coordinates":[114.265687,30.596437]},"properties":{"name":"锦江之星旅馆（取水楼店）","xiaolei":"7314009","address":"新华小路118号","zhonglei":"7314","dalei":"7","type":"hotel"}},
{"type":"Feature","geometry":{"type":"Point","coordinates":[114.260664,30.596119]},"properties":{"name":"太古商务酒店","xiaolei":"7314003","address":"建设大道538号同成广场","zhonglei":"7314","dalei":"7","type":"hotel"}},
{"type":"Feature","geometry":{"type":"Point","coordinates":[114.258217,30.592881]},"properties":{"name":"艾菲尔商务酒店","xiaolei":"7314003","address":"青年路276号","zhonglei":"7314","dalei":"7","type":"hotel"}},
{"type":"Feature","geometry":{"type":"Point","coordinates":[114.258935,30.591235]},"properties":{"name":"楚天星座公寓酒店","xiaolei":"7314003","address":"青年路258号楚天星座8层","zhonglei":"7314","dalei":"7","type":"hotel"}},
{"type":"Feature","geometry":{"type":"Point","coordinates":[114.298458,30.593525]},"properties":{"name":"江城明珠豪生大酒店（西北门）","xiaolei":"7314003","address":"","zhonglei":"7314","dalei":"7","type":"hotel"}},
{"type":"Feature","geometry":{"type":"Point","coordinates":[114.298169,30.593064]},"properties":{"name":"江城明珠豪生大酒店（西南门）","xiaolei":"7314003","address":"","zhonglei":"7314","dalei":"7","type":"hotel"}},
{"type":"Feature","geometry":{"type":"Point","coordinates":[114.296193,30.594253]},"properties":{"name":"王朝商务宾馆","xiaolei":"7314003","address":"蔡锷路32号","zhonglei":"7314","dalei":"7","type":"hotel"}},
{"type":"Feature","geometry":{"type":"Point","coordinates":[114.296896,30.591892]},"properties":{"name":"怡东宾馆","xiaolei":"7314003","address":"洞庭街107号怡东大厦2层","zhonglei":"7314","dalei":"7","type":"hotel"}},
{"type":"Feature","geometry":{"type":"Point","coordinates":[114.297475,30.59201]},"properties":{"name":"７天酒店（武汉市府店）","xiaolei":"7314009","address":"洞庭街112","zhonglei":"7314","dalei":"7","type":"hotel"}},
{"type":"Feature","geometry":{"type":"Point","coordinates":[114.27835,30.60563]},"properties":{"name":"香格里拉大酒店（东北门）","xiaolei":"7314003","address":"建设大道700号","zhonglei":"7314","dalei":"7","type":"hotel"}},
{"type":"Feature","geometry":{"type":"Point","coordinates":[114.296332,30.587707]},"properties":{"name":"武汉马哥孛罗酒店","xiaolei":"7314003","address":"沿江大道159号","zhonglei":"7314","dalei":"7","type":"hotel"}},
{"type":"Feature","geometry":{"type":"Point","coordinates":[114.293186,30.584046]},"properties":{"name":"天鑫宾馆（青岛路）","xiaolei":"7314003","address":"青岛路6号","zhonglei":"7314","dalei":"7","type":"hotel"}},
{"type":"Feature","geometry":{"type":"Point","coordinates":[114.29242,30.58802]},"properties":{"name":"一家快捷酒店","xiaolei":"7314003","address":"合作路34号","zhonglei":"7314","dalei":"7","type":"hotel"}},
{"type":"Feature","geometry":{"type":"Point","coordinates":[114.268888,30.584069]},"properties":{"name":"迈豪国际酒店","xiaolei":"7314003","address":"","zhonglei":"7314","dalei":"7","type":"hotel"}},
{"type":"Feature","geometry":{"type":"Point","coordinates":[114.252247,30.587445]},