{"type":"FeatureCollection", "features": [
{"type":"Feature","geometry":{"type":"Point","coordinates":[114.120362,30.725899]},"properties":{"name":"柏泉派出所（东正街）","xiaolei":"7322001","address":"东正街4","zhonglei":"7322","dalei":"4","type":"police"}},
{"type":"Feature","geometry":{"type":"Point","coordinates":[114.117002,30.74407]},"properties":{"name":"柏泉派出所（张柏路）","xiaolei":"7322001","address":"张柏路439","zhonglei":"7322","dalei":"4","type":"police"}},
{"type":"Feature","geometry":{"type":"Point","coordinates":[114.159769,30.68105]},"properties":{"name":"径河派出所","xiaolei":"7322001","address":"径河镇","zhonglei":"7322","dalei":"4","type":"police"}},
{"type":"Feature","geometry":{"type":"Point","coordinates":[114.365862,30.678975]},"properties":{"name":"谌家矶派出所","xiaolei":"7322001","address":"谌家矶大道75","zhonglei":"7322","dalei":"4","type":"police"}},
{"type":"Feature","geometry":{"type":"Point","coordinates":[114.272864,30.710085]},"properties":{"name":"盘龙城经济开发区派出所","xiaolei":"7322001","address":"盘龙城经济开发区区巨龙大道88号","zhonglei":"7322","dalei":"4","type":"police"}},
{"type":"Feature","geometry":{"type":"Point","coordinates":[114.348394,30.714797]},"properties":{"name":"滠口街道派出所","xiaolei":"7322001","address":"街滠阳大街131号滠口滠口","zhonglei":"7322","dalei":"4","type":"police"}},
{"type":"Feature","geometry":{"type":"Point","coordinates":[114.343581,30.716621]},"properties":{"name":"滠口派出所","xiaolei":"7322001","address":"滠阳大街131号","zhonglei":"7322","dalei":"4","type":"police"}},
{"type":"Feature","geometry":{"type":"Point","coordinates":[114.291932,30.669115]},"properties":{"name":"武汉市公安局犬类留检所","xiaolei":"7322001","address":"","zhonglei":"7322","dalei":"4","type":"police"}},
{"type":"Feature","geometry":{"type":"Point","coordinates":[114.272886,30.709964]},"properties":{"name":"盘龙城开发区派出所","xiaolei":"7322001","address":"","zhonglei":"7322","dalei":"4","type":"police"}},
{"type":"Feature","geometry":{"type":"Point","coordinates":[114.406976,30.705985]},"properties":{"name":"武湖派出所（武湖大道）","xiaolei":"7322001","address":"武湖大道","zhonglei":"7322","dalei":"4","type":"police"}},
{"type":"Feature","geometry":{"type":"Point","coordinates":[114.411477,30.675524]},"properties":{"name":"天兴派出所","xiaolei":"7322001","address":"天兴村130","zhonglei":"7322","dalei":"4","type":"police"}},
{"type":"Feature","geometry":{"type":"Point","coordinates":[114.407026,30.705833]},"properties":{"name":"武湖派出所","xiaolei":"7322001","address":"","zhonglei":"7322","dalei":"4","type":"police"}},
{"type":"Feature","geometry":{"type":"Point","coordinates":[114.122871,30.600727]},"properties":{"name":"慈惠派出所","xiaolei":"7322001","address":"慈惠墩230","zhonglei":"7322","dalei":"4","type":"police"}},
{"type":"Feature","geometry":{"type":"Point","coordinates":[114.197298,30.608741]},"properties":{"name":"长丰派出所","xiaolei":"7322001","address":"古田二路118","zhonglei":"7322","dalei":"4","type":"police"}},
{"type":"Feature","geometry":{"type":"Point","coordinates":[114.224438,30.592438]},"properties":{"name":"武汉市公安公交分局接待室","xiaolei":"7322001","address":"汉西北路63","zhonglei":"7322","dalei":"4","type":"police"}},
{"type":"Feature","geometry":{"type":"Point","coordinates":[114.239682,30.606184]},"properties":{"name":"常青派出所","xiaolei":"7322001","address":"常文里1","zhonglei":"7322","dalei":"4","type":"police"}},
{"type":"Feature","geometry":{"type":"Point","coordinates":[114.126215,30.619214]},"properties":{"name":"吴家山派出所","xiaolei":"7322001","address":"东西湖大道6072","zhonglei":"7322","dalei":"4","type":"police"}},
{"type":"Feature","geometry":{"type":"Point","coordinates":[114.141362,30.631532]},"properties":{"name":"武汉市公安局东西湖区分局","xiaolei":"7322001","address":"吴中路199号","zhonglei":"7322","dalei":"4","type":"police"}},
{"type":"Feature","geometry":{"type":"Point","coordinates":[114.1402,30.631476]},"properties":{"name":"武汉市公安局东西湖区分局群众信访","xiaolei":"7322001","address":"","zhonglei":"7322","dalei":"4","type":"police"}},
{"type":"Feature","geometry":{"type":"Point","coordinates":[114.233809,30.611627]},"properties":{"name":"武汉市公安局户政管理处","xiaolei":"7322001","address":"常腾街16","zhonglei":"7322","dalei":"4","type":"police"}},
{"type":"Feature","geometry":{"type":"Point","coordinates":[114.145187,30.601058]},"properties":{"name":"舵落口派出所","xiaolei":"7322001","address":"余氏墩191","zhonglei":"7322","dalei":"4","type":"police"}},
{"type":"Feature","geometry":{"type":"Point","coordinates":[114.237401,30.641499]},"properties":{"name":"常青公安局","xiaolei":"7322001","address":"","zhonglei":"7322","dalei":"4","type":"police"}},
{"type":"Feature","geometry":{"type":"Point","coordinates":[114.224433,30.592433]},"properties":{"name":"武汉市公安局便衣警察支队","xiaolei":"7322001","address":"汉西北路63","zhonglei":"7322","dalei":"4","type":"police"}},
{"type":"Feature","geometry":{"type":"Point","coordinates":[114.224433,30.592433]},"properties":{"name":"武汉市公安局打击扒窃违法犯罪工作","xiaolei":"7322001","address":"汉西北路63","zhonglei":"7322","dalei":"4","type":"police"}},
{"type":"Feature","geometry":{"type":"Point","coordinates":[114.246822,30.614766]},"properties":{"name":"汉口客运站派出所","xiaolei":"7322001","address":"发展大道武汉汽车客运总站内","zhonglei":"7322","dalei":"4","type":"police"}},
{"type":"Feature","geometry":{"type":"Point","coordinates":[114.229133,30.641191]},"properties":{"name":"常青花园派出所（中环路）","xiaolei":"7322001","address":"","zhonglei":"7322","dalei":"4","type":"police"}},
{"type":"Feature","geometry":{"type":"Point","coordinates":[114.138312,30.639109]},"properties":{"name":"三店派出所（三店中路）","xiaolei":"7322001","address":"吴北路19","zhonglei":"7322","dalei":"4","type":"police"}},
{"type":"Feature","geometry":{"type":"Point","coordinates":[114.237336,30.64148]},"properties":{"name":"常青花园派出所（平安巷）","xiaolei":"7322001","address":"平安巷18","zhonglei":"7322","dalei":"4","type":"police"}},
{"type":"Feature","geometry":{"type":"Point","coordinates":[114.131502,30.631523]},"properties":{"name":"武汉市公安局东西湖分局新村派出所","xiaolei":"7322001","address":"吴中路28","zhonglei":"7322","dalei":"4","type":"police"}},
{"type":"Feature","geometry":{"type":"Point","coordinates":[114.163269,30.614968]},"properties":{"name":"易家派出所","xiaolei":"7322001","address":"长丰大道3","zhonglei":"7322","dalei":"4","type":"police"}},
{"type":"Feature","geometry":{"type":"Point","coordinates":[114.230655,30.628063]},"properties":{"name":"江汉经济开发区派出所","xiaolei":"7322001","address":"江汉经济开发区江兴路1号","zhonglei":"7322","dalei":"4","type":"police"}},
{"type":"Feature","geometry":{"type":"Point","coordinates":[114.248117,30.64716]},"properties":{"name":"李家墩派出所姑李路社区流动人口服","xiaolei":"7322001","address":"银杏街34","zhonglei":"7322","dalei":"4","type":"police"}},
{"type":"Feature","geometry":{"type":"Point","coordinates":[114.142838,30.616037]},"properties":{"name":"武汉市公安局监管处（革新大道）","xiaolei":"7322001","address":"","zhonglei":"7322","dalei":"4","type":"police"}},
{"type":"Feature","geometry":{"type":"Point","coordinates":[114.237336,30.64148]},"properties":{"name":"武汉市公安局打黑除恶东西湖工作站","xiaolei":"7322001","address":"","zhonglei":"7322","dalei":"4","type":"police"}},
{"type":"Feature","geometry":{"type":"Point","coordinates":[114.186273,30.595556]},"properties":{"name":"古田派出所","xiaolei":"7322001","address":"古田二路39","zhonglei":"7322","dalei":"4","type":"police"}},
{"type":"Feature","geometry":{"type":"Point","coordinates":[114.210559,30.589824]},"properties":{"name":"韩家派出所","xiaolei":"7322001","address":"解放大道329","zhonglei":"7322","dalei":"4","type":"police"}},
{"type":"Feature","geometry":{"type":"Point","coordinates":[114.20657,30.604418]},"properties":{"name":"武汉市公安局硚口区分局（长安路）","xiaolei":"7322001","address":"","zhonglei":"7322","dalei":"4","type":"police"}},
{"type":"Feature","geometry":{"type":"Point","coordinates":[114.209087,30.603206]},"properties":{"name":"硚口公安分局家属委员会","xiaolei":"7322001","address":"古田四路长安路","zhonglei":"7322","dalei":"4","type":"police"}},
{"type":"Feature","geometry":{"type":"Point","coordinates":[114.247712,30.619736]},"properties":{"name":"武汉铁路公安局武汉铁路公安处（银","xiaolei":"7322001","address":"银墩路特1号","zhonglei":"7322","dalei":"4","type":"police"}},
{"type":"Feature","geometry":{"type":"Point","coordinates":[114.24425,30.61809]},"properties":{"name":"汉口车站派出所","xiaolei":"7322001","address":"银河里49","zhonglei":"7322","dalei":"4","type":"police"}},
{"type":"Feature","geometry":{"type":"Point","coordinates":[114.206043,30.588863]},"properties":{"name":"武汉市公安局警务综合服务站（沿河","xiaolei":"7322001","address":"古田四路沿河大道","zhonglei":"7322","dalei":"4","type":"police"}},
{"type":"Feature","geometry":{"type":"Point","coordinates":[114.212964,30.657615]},"properties":{"name":"金银湖派出所","xiaolei":"7322001","address":"","zhonglei":"7322","dalei":"4","type":"police"}},
{"type":"Feature","geometry":{"type":"Point","coordinates":[114.237412,30.641435]},"properties":{"name":"常青花园派出所","xiaolei":"7322001","address":"平安巷18","zhonglei":"7322","dalei":"4","type":"police"}},
{"type":"Feature","geometry":{"type":"Point","coordinates":[114.245733,30.58804]},"properties":{"name":"王家墩派出所","xiaolei":"7322001","address":"建设大道441","zhonglei":"7322","dalei":"4","type":"police"}},
{"type":"Feature","geometry":{"type":"Point","coordinates":[114.148188,30.617282]},"properties":{"name":"舵落口大市场派出所","xiaolei":"7322001","address":"","zhonglei":"7322","dalei":"4","type":"police"}},
{"type":"Feature","geometry":{"type":"Point","coordinates":[114.28623,30.599453]},"properties":{"name":"西马派出所","xiaolei":"7322001","address":"模范路59","zhonglei":"7322","dalei":"4","type":"police"}},
{"type":"Feature","geometry":{"type":"Point","coordinates":[114.293087,30.600663]},"properties":{"name":"球场派出所","xiaolei":"7322001","address":"解放南路421","zhonglei":"7322","dalei":"4","type":"police"}},
{"type":"Feature","geometry":{"type":"Point","coordinates":[114.278538,30.586754]},"properties":{"name":"新华派出所","xiaolei":"7322001","address":"横桥村52","zhonglei":"7322","dalei":"4","type":"police"}},
{"type":"Feature","geometry":{"type":"Point","coordinates":[114.29228,30.58889]},"properties":{"name":"上海派出所","xiaolei":"7322001","address":"胜利街100","zhonglei":"7322","dalei":"4","type":"police"}},
{"type":"Feature","geometry":{"type":"Point","coordinates":[114.295293,30.592298]},"properties":{"name":"一元派出所","xiaolei":"7322001","address":"胜利街166","zhonglei":"7322","dalei":"4","type":"police"}},
{"type":"Feature","geometry":{"type":"Point","coordinates":[114.292242,30.596963]},"properties":{"name":"武汉市公安局轨道交通管理分局轻轨","xiaolei":"7322001","address":"京汉大道","zhonglei":"7322","dalei":"4","type":"police"}},
{"type":"Feature","geometry":{"type":"Point","coordinates":[114.263179,30.585285]},"properties":{"name":"万松派出所","xiaolei":"7322001","address":"万松园路25","zhonglei":"7322","dalei":"4","type":"police"}},
{"type":"Feature","geometry":{"type":"Point","coordinates":[114.281893,30.585248]},"properties":{"name":"水塔派出所","xiaolei":"7322001","address":"江汉四路18","zhonglei":"7322","dalei":"4","type":"police"}},
{"type":"Feature","geometry":{"type":"Point","coordinates":[114.272533,30.600401]},"properties":{"name":"台北派出所","xiaolei":"7322001","address":"台北二村8","zhonglei":"7322","dalei":"4","type":"police"}},
{"type":"Feature","geometry":{"type":"Point","coordinates":[114.373137,30.623811]},"properties":{"name":"八大家派出所","xiaolei":"7322001","address":"建设二路50号","zhonglei":"7322","dalei":"4","type":"police"}},
{"type":"Feature","geometry":{"type":"Point","coordinates":[114.361671,30.615872]},"properties":{"name":"钢都花园派出所","xiaolei":"7322001","address":"南干渠路8","zhonglei":"7322","dalei":"4","type":"police"}},
{"type":"Feature","geometry":{"type":"Point","coordinates":[114.367808,30.624394]},"properties":{"name":"红卫路派出所治安室（建设一路）","xiaolei":"7322001","address":"建设一路27","zhonglei":"7322","dalei":"4","type":"police"}},
{"type":"Feature","geometry":{"type":"Point","coordinates":[114.326433,30.588948]},"properties":{"name":"徐家棚派出所","xiaolei":"7322001","address":"社院大厦附近","zhonglei":"7322","dalei":"4","type":"police"}},
{"type":"Feature","geometry":{"type":"Point","coordinates":[114.311351,30.622383]},"properties":{"name":"二七派出所","xiaolei":"7322001","address":"","zhonglei":"7322","dalei":"4","type":"police"}},
{"type":"Feature","geometry":{"type":"Point","coordinates":[114.315137,30.628922]},"properties":{"name":"新村派出所（解放大道）","xiaolei":"7322001","address":"转车楼一村48","zhonglei":"7322","dalei":"4","type":"police"}},
{"type":"Feature","geometry":{"type":"Point","coordinates":[114.2563,30.618766]},"properties":{"name":"武汉市公安局江汉分局出入境接待室","xiaolei":"7322001","address":"发展大道199附1","zhonglei":"7322","dalei":"4","type":"police"}},
{"type":"Feature","geometry":{"type":"Point","coordinates":[114.256248,30.61894]},"properties":{"name":"武汉市公安局江汉区分局","xiaolei":"7322001","address":"发展大道199","zhonglei":"7322","dalei":"4","type":"police"}},
{"type":"Feature","geometry":{"type":"Point","coordinates":[114.31015,30.645401]},"properties":{"name":"百步亭派出所","xiaolei":"7322001","address":"温馨路9","zhonglei":"7322","dalei":"4","type":"police"}},
{"type":"Feature","geometry":{"type":"Point","coordinates":[114.253768,30.619711]},"properties":{"name":"武汉市森林公安局","xiaolei":"7322001","address":"金墩街8号武汉林业大厦","zhonglei":"7322","dalei":"4","type":"police"}},
{"type":"Feature","geometry":{"type":"Point","coordinates":[114.289853,30.608331]},"properties":{"name":"武汉市公安局江岸分局劳动派出所","xiaolei":"7322001","address":"解放公园路47","zhonglei":"7322","dalei":"4","type":"police"}},
{"type":"Feature","geometry":{"type":"Point","coordinates":[114.276716,30.620772]},"properties":{"name":"花桥派出所","xiaolei":"7322001","address":"江大路119","zhonglei":"7322","dalei":"4","type":"police"}},
{"type":"Feature","geometry":{"type":"Point","coordinates":[114.299961,30.603623]},"properties":{"name":"四唯派出所","xiaolei":"7322001","address":"中山大道1199","zhonglei":"7322","dalei":"4","type":"police"}},
{"type":"Feature","geometry":{"type":"Point","coordinates":[114.30181,30.607039]},"properties":{"name":"永清派出所","xiaolei":"7322001","address":"中山大道1411","zhonglei":"7322","dalei":"4","type":"police"}},
{"type":"Feature","geometry":{"type":"Point","coordinates":[114.256448,30.618798]},"properties":{"name":"武汉市公安局江汉分局车站派出所","xiaolei":"7322001","address":"发展大道199附2","zhonglei":"7322","dalei":"4","type":"police"}},
{"type":"Feature","geometry":{"type":"Point","coordinates":[114.251729,30.631489]},"properties":{"name":"汉兴派出所","xiaolei":"7322001","address":"常青二垸168","zhonglei":"7322","dalei":"4","type":"police"}},
{"type":"Feature","geometry":{"type":"Point","coordinates":[114.280501,30.627866]},"properties":{"name":"竹叶山派出所","xiaolei":"7322001","address":"黄孝河路123","zhonglei":"7322","dalei":"4","type":"police"}},
{"type":"Feature","geometry":{"type":"Point","coordinates":[114.277921,30.629659]},"properties":{"name":"石桥派出所","xiaolei":"7322001","address":"石桥小路1","zhonglei":"7322","dalei":"4","type":"police"}},
{"type":"Feature","geometry":{"type":"Point","coordinates":[114.253863,30.615735]},"properties":{"name":"武汉市公安局群众信访接待大厅","xiaolei":"7322001","address":"马场路","zhonglei":"7322","dalei":"4","type":"police"}},
{"type":"Feature","geometry":{"type":"Point","coordinates":[114.254422,30.615907]},"properties":{"name":"武汉市公安局办证服务大厅","xiaolei":"7322001","address":"马场路","zhonglei":"7322","dalei":"4","type":"police"}},
{"type":"Feature","geometry":{"type":"Point","coordinates":[114.263428,30.616335]},"properties":{"name":"唐家派出所","xiaolei":"7322001","address":"马场路108","zhonglei":"7322","dalei":"4","type":"police"}},
{"type":"Feature","geometry":{"type":"Point","coordinates":[114.25301,30.616751]},"properties":{"name":"武汉市公安局","xiaolei":"7322001","address":"发展大道188号武汉市公安局指挥大楼","zhonglei":"7322","dalei":"4","type":"police"}},
{"type":"Feature","geometry":{"type":"Point","coordinates":[114.268844,30.607381]},"properties":{"name":"武汉市公安局北湖派出所","xiaolei":"7322001","address":"长江日报路28号","zhonglei":"7322","dalei":"4","type":"police"}},
{"type":"Feature","geometry":{"type":"Point","coordinates":[114.339449,30.661838]},"properties":{"name":"丹水池派出所","xiaolei":"7322001","address":"堤角前街12","zhonglei":"7322","dalei":"4","type":"police"}},
{"type":"Feature","geometry":{"type":"Point","coordinates":[114.250563,30.65215]},"properties":{"name":"李家墩派出所（将军路）","xiaolei":"7322001","address":"将军路99","zhonglei":"7322","dalei":"4","type":"police"}},
{"type":"Feature","geometry":{"type":"Point","coordinates":[114.286764,30.637756]},"properties":{"name":"江岸区公安分局群众信访接待大厅","xiaolei":"7322001","address":"后湖二路61附8","zhonglei":"7322","dalei":"4","type":"police"}},
{"type":"Feature","geometry":{"type":"Point","coordinates":[114.253768,30.619711]},"properties":{"name":"武汉市公安局森林公安警察支队","xiaolei":"7322001","address":"金墩街8号武汉林业大厦","zhonglei":"7322","dalei":"4","type":"police"}},
{"type":"Feature","geometry":{"type":"Point","coordinates":[114.284652,30.63819]},"properties":{"name":"后湖派出所","xiaolei":"7322001","address":"兴业路155","zhonglei":"7322","dalei":"4","type":"police"}},
{"type":"Feature","geometry":{"type":"Point","coordinates":[114.286278,30.638153]},"properties":{"name":"武汉市公安局江岸区分局","xiaolei":"7322001","address":"兴业路166号","zhonglei":"7322","dalei":"4","type":"police"}},
{"type":"Feature","geometry":{"type":"Point","coordinates":[114.322425,30.629218]},"properties":{"name":"长江二桥派出所","xiaolei":"7322001","address":"","zhonglei":"7322","dalei":"4","type":"police"}},
{"type":"Feature","geometry":{"type":"Point","coordinates":[114.292716,30.596621]},"properties":{"name":"车站派出所（天声街）","xiaolei":"7322001","address":"天声街59","zhonglei":"7322","dalei":"4","type":"police"}},
{"type":"Feature","geometry":{"type":"Point","coordinates":[114.35258,30.588537]},"properties":{"name":"梨园派出所","xiaolei":"7322001","address":"团结大道","zhonglei":"7322","dalei":"4","type":"police"}},
{"type":"Feature","geometry":{"type":"Point","coordinates":[114.343358,30.604028]},"properties":{"name":"杨园派出所","xiaolei":"7322001","address":"杨园街33号","zhonglei":"7322","dalei":"4","type":"police"}},
{"type":"Feature","geometry":{"type":"Point","coordinates":[114.283026,30.587853]},"properties":{"name":"大智派出所","xiaolei":"7322001","address":"泰宁街23","zhonglei":"7322","dalei":"4","type":"police"}},
{"type":"Feature","geometry":{"type":"Point","coordinates":[114.360045,30.595961]},"properties":{"name":"武汉市公安局警务综合服务站（团结","xiaolei":"7322001","address":"","zhonglei":"7322","dalei":"4","type":"police"}},
{"type":"Feature","geometry":{"type":"Point","coordinates":[114.278089,30.583589]},"properties":{"name":"前进派出所","xiaolei":"7322001","address":"燕马社区","zhonglei":"7322","dalei":"4","type":"police"}},
{"type":"Feature","geometry":{"type":"Point","coordinates":[114.301105,30.595969]},"properties":{"name":"王家巷派出所","xiaolei":"7322001","address":"沿江大道江滩78","zhonglei":"7322","dalei":"4","type":"police"}},
{"type":"Feature","geometry":{"type":"Point","coordinates":[114.256306,30.61877]},"properties":{"name":"武汉市公安局江汉区公安分局群众信","xiaolei":"7322001","address":"","zhonglei":"7322","dalei":"4","type":"police"}},
{"type":"Feature","geometry":{"type":"Point","coordinates":[114.251502,30.654926]},"properties":{"name":"李家墩派出所（将军二路）","xiaolei":"7322001","address":"","zhonglei":"7322","dalei":"4","type":"police"}},
{"type":"Feature","geometry":{"type":"Point","coordinates":[114.27805,30.58352]},"properties":{"name":"前进街派出所","xiaolei":"7322001","address":"自治街1号","zhonglei":"7322","dalei":"4","type":"police"}},
{"type":"Feature","geometry":{"type":"Point","coordinates":[114.263339,30.591647]},"properties":{"name":"中展派出所","xiaolei":"7322001","address":"","zhonglei":"7322","dalei":"4","type":"police"}},
{"type":"Feature","geometry":{"type":"Point","coordinates":[114.253853,30.619768]},"properties":{"name":"武汉市公安局森林分局","xiaolei":"7322001","address":"金墩街8","zhonglei":"7322","dalei":"4","type":"police"}},
{"type":"Feature","geometry":{"type":"Point","coordinates":[114.295549,30.630935]},"properties":{"name":"江岸西车站派出所","xiaolei":"7322001","address":"","zhonglei":"7322","dalei":"4","type":"police"}},
{"type":"Feature","geometry":{"type":"Point","coordinates":[114.338257,30.591925]},"properties":{"name":"武汉市公安局警务综合服务站","xiaolei":"7322001","address":"","zhonglei":"7322","dalei":"4","type":"police"}},
{"type":"Feature","geometry":{"type":"Point","coordinates":[114.339444,30.593057]},"properties":{"name":"徐东平价商圈警务室","xiaolei":"7322001","address":"","zhonglei":"7322","dalei":"4","type":"police"}},
{"type":"Feature","geometry":{"type":"Point","coordinates":[114.386607,30.641247]},"properties":{"name":"青山公安分局巡逻大队新沟桥中队","xiaolei":"7322001","address":"红钢二街2","zhonglei":"7322","dalei":"4","type":"police"}},
{"type":"Feature","geometry":{"type":"Point","coordinates":[114.383793,30.64446]},"properties":{"name":"武汉市公安局青山区分局（钢城分局","xiaolei":"7322001","address":"临江大道814","zhonglei":"7322","dalei":"4","type":"police"}},
{"type":"Feature","geometry":{"type":"Point","coordinates":[114.388562,30.642507]},"properties":{"name":"新沟桥派出所警务室","xiaolei":"7322001","address":"红钢二街13","zhonglei":"7322","dalei":"4","type":"police"}},
{"type":"Feature","geometry":{"type":"Point","coordinates":[114.397675,30.644163]},"properties":{"name":"红钢城派出所","xiaolei":"7322001","address":"建设八路17","zhonglei":"7322","dalei":"4","type":"police"}},
{"type":"Feature","geometry":{"type":"Point","coordinates":[114.392931,30.635395]},"properties":{"name":"新沟桥派出所","xiaolei":"7322001","address":"冶金一街10","zhonglei":"7322","dalei":"4","type":"police"}},
{"type":"Feature","geometry":{"type":"Point","coordinates":[114.427349,30.623823]},"properties":{"name":"厂前派出所","xiaolei":"7322001","address":"冶金大道188号","zhonglei":"7322","dalei":"4","type":"police"}},
{"type":"Feature","geometry":{"type":"Point","coordinates":[114.39277,30.630906]},"properties":{"name":"冶金派出所","xiaolei":"7322001","address":"鄂州街14","zhonglei":"7322","dalei":"4","type":"police"}},
{"type":"Feature","geometry":{"type":"Point","coordinates":[114.376213,30.620127]},"properties":{"name":"钢花村派出所","xiaolei":"7322001","address":"建设二路80","zhonglei":"7322","dalei":"4","type":"police"}},
{"type":"Feature","geometry":{"type":"Point","coordinates":[114.424287,30.647224]},"properties":{"name":"工人村派出所","xiaolei":"7322001","address":"工人村","zhonglei":"7322","dalei":"4","type":"police"}},
{"type":"Feature","geometry":{"type":"Point","coordinates":[114.450319,30.663993]},"properties":{"name":"工业港派出所","xiaolei":"7322001","address":"焦沙路","zhonglei":"7322","dalei":"4","type":"police"}},
{"type":"Feature","geometry":{"type":"Point","coordinates":[114.424017,30.657715]},"properties":{"name":"凤凰派出所","xiaolei":"7322001","address":"长青路232附3","zhonglei":"7322","dalei":"4","type":"police"}},
{"type":"Feature","geometry":{"type":"Point","coordinates":[114.455768,30.64757]},"properties":{"name":"建设派出所","xiaolei":"7322001","address":"建设乡","zhonglei":"7322","dalei":"4","type":"police"}},
{"type":"Feature","geometry":{"type":"Point","coordinates":[114.451958,30.585644]},"properties":{"name":"武东派出所","xiaolei":"7322001","address":"武东中路29","zhonglei":"7322","dalei":"4","type":"police"}},
{"type":"Feature","geometry":{"type":"Point","coordinates":[114.428559,30.649017]},"properties":{"name":"冶炼派出所","xiaolei":"7322001","address":"21号公路","zhonglei":"7322","dalei":"4","type":"police"}},
{"type":"Feature","geometry":{"type":"Point","coordinates":[114.437426,30.62339]},"properties":{"name":"武汉市公安局钢城分局铁路派出所","xiaolei":"7322001","address":"","zhonglei":"7322","dalei":"4","type":"police"}},
{"type":"Feature","geometry":{"type":"Point","coordinates":[114.376504,30.613578]},"properties":{"name":"武汉市公安局青山区分局","xiaolei":"7322001","address":"建设一路99","zhonglei":"7322","dalei":"4","type":"police"}},
{"type":"Feature","geometry":{"type":"Point","coordinates":[114.393356,30.645457]},"properties":{"name":"石山派出所","xiaolei":"7322001","address":"红钢二街25","zhonglei":"7322","dalei":"4","type":"police"}},
{"type":"Feature","geometry":{"type":"Point","coordinates":[114.388436,30.648443]},"properties":{"name":"青山派出所","xiaolei":"7322001","address":"临江大道886号","zhonglei":"7322","dalei":"4","type":"police"}},
{"type":"Feature","geometry":{"type":"Point","coordinates":[114.374893,30.628197]},"properties":{"name":"红卫路派出所","xiaolei":"7322001","address":"建设三路28号","zhonglei":"7322","dalei":"4","type":"police"}},
{"type":"Feature","geometry":{"type":"Point","coordinates":[114.420649,30.612785]},"properties":{"name":"武汉火车站派出所","xiaolei":"7322001","address":"白云路特1号","zhonglei":"7322","dalei":"4","type":"police"}},
{"type":"Feature","geometry":{"type":"Point","coordinates":[114.428162,30.588202]},"properties":{"name":"落雁派出所（三环线）","xiaolei":"7322001","address":"","zhonglei":"7322","dalei":"4","type":"police"}},
{"type":"Feature","geometry":{"type":"Point","coordinates":[114.435041,30.588483]},"properties":{"name":"落雁派出所","xiaolei":"7322001","address":"青王路497","zhonglei":"7322","dalei":"4","type":"police"}},
{"type":"Feature","geometry":{"type":"Point","coordinates":[114.485541,30.620239]},"properties":{"name":"建设乡派出所","xiaolei":"7322001","address":"","zhonglei":"7322","dalei":"4","type":"police"}},
{"type":"Feature","geometry":{"type":"Point","coordinates":[114.443444,30.59261]},"properties":{"name":"和平乡派出所","xiaolei":"7322001","address":"","zhonglei":"7322","dalei":"4","type":"police"}},
{"type":"Feature","geometry":{"type":"Point","coordinates":[114.376716,30.613274]},"properties":{"name":"武汉市公安局青山分局出入境接待室","xiaolei":"7322001","address":"","zhonglei":"7322","dalei":"4","type":"police"}},
{"type":"Feature","geometry":{"type":"Point","coordinates":[114.455644,30.64763]},"properties":{"name":"八吉府派出所","xiaolei":"7322001","address":"焦沙路","zhonglei":"7322","dalei":"4","type":"police"}},
{"type":"Feature","geometry":{"type":"Point","coordinates":[114.402913,30.644069]},"properties":{"name":"武汉铁路局桥工段、天兴洲大桥派出","xiaolei":"7322001","address":"和平大道1560号元兴苑4层","zhonglei":"7322","dalei":"4","type":"police"}},
{"type":"Feature","geometry":{"type":"Point","coordinates":[114.383782,30.64446]},"properties":{"name":"武汉市公安局青山区分局（钢城分局","xiaolei":"7322001","address":"临江大道814","zhonglei":"7322","dalei":"4","type":"police"}},
{"type":"Feature","geometry":{"type":"Point","coordinates":[114.424759,30.656914]},"properties":{"name":"青山镇派出所","xiaolei":"7322001","address":"","zhonglei":"7322","dalei":"4","type":"police"}},
{"type":"Feature","geometry":{"type":"Point","coordinates":[114.41975,30.612908]},"properties":{"name":"武汉车站铁路派出所","xiaolei":"7322001","address":"","zhonglei":"7322","dalei":"4","type":"police"}},
{"type":"Feature","geometry":{"type":"Point","coordinates":[114.383419,30.644644]},"properties":{"name":"武汉市公安局钢城分局","xiaolei":"7322001","address":"临江大道814号","zhonglei":"7322","dalei":"4","type":"police"}},
{"type":"Feature","geometry":{"type":"Point","coordinates":[114.391307,30.608499]},"properties":{"name":"和平派出所","xiaolei":"7322001","address":"","zhonglei":"7322","dalei":"4","type":"police"}},
{"type":"Feature","geometry":{"type":"Point","coordinates":[114.508684,30.601618]},"properties":{"name":"青化派出所","xiaolei":"7322001","address":"青化路88","zhonglei":"7322","dalei":"4","type":"police"}},
{"type":"Feature","geometry":{"type":"Point","coordinates":[114.223999,30.581601]},"properties":{"name":"宗关派出所","xiaolei":"7322001","address":"解放大道461附2","zhonglei":"7322","dalei":"4","type":"police"}},
{"type":"Feature","geometry":{"type":"Point","coordinates":[114.244311,30.558932]},"properties":{"name":"月湖派出所","xiaolei":"7322001","address":"琴台大道368号","zhonglei":"7322","dalei":"4","type":"police"}},
{"type":"Feature","geometry":{"type":"Point","coordinates":[114.203968,30.569843]},"properties":{"name":"江汉二桥派出所","xiaolei":"7322001","address":"知音西村69号","zhonglei":"7322","dalei":"4","type":"police"}},
{"type":"Feature","geometry":{"type":"Point","coordinates":[114.195544,30.566819]},"properties":{"name":"永丰派出所","xiaolei":"7322001","address":"龙阳大道","zhonglei":"7322","dalei":"4","type":"police"}},
{"type":"Feature","geometry":{"type":"Point","coordinates":[114.209635,30.536179]},"properties":{"name":"四新派出所","xiaolei":"7322001","address":"墨水湖南路附近","zhonglei":"7322","dalei":"4","type":"police"}},
{"type":"Feature","geometry":{"type":"Point","coordinates":[114.248462,30.572852]},"properties":{"name":"荣华派出所","xiaolei":"7322001","address":"建乐村8","zhonglei":"7322","dalei":"4","type":"police"}},
{"type":"Feature","geometry":{"type":"Point","coordinates":[114.249369,30.526076]},"properties":{"name":"洲头派出所","xiaolei":"7322001","address":"瑶琦园28","zhonglei":"7322","dalei":"4","type":"police"}},
{"type":"Feature","geometry":{"type":"Point","coordinates":[114.232467,30.577578]},"properties":{"name":"汉水桥派出所","xiaolei":"7322001","address":"解放大道294号","zhonglei":"7322","dalei":"4","type":"police"}},
{"type":"Feature","geometry":{"type":"Point","coordinates":[114.188355,30.554695]},"properties":{"name":"武汉市公安局监管处","xiaolei":"7322001","address":"","zhonglei":"7322","dalei":"4","type":"police"}},
{"type":"Feature","geometry":{"type":"Point","coordinates":[114.23501,30.521534]},"properties":{"name":"江堤派出所","xiaolei":"7322001","address":"江堤中路108","zhonglei":"7322","dalei":"4","type":"police"}},
{"type":"Feature","geometry":{"type":"Point","coordinates":[114.21207,30.559889]},"properties":{"name":"琴断口派出所（十升路）","xiaolei":"7322001","address":"十里后街100","zhonglei":"7322","dalei":"4","type":"police"}},
{"type":"Feature","geometry":{"type":"Point","coordinates":[114.135682,30.574342]},"properties":{"name":"武汉市公安局黄金口治安检查站","xiaolei":"7322001","address":"","zhonglei":"7322","dalei":"4","type":"police"}},
{"type":"Feature","geometry":{"type":"Point","coordinates":[114.233152,30.55692]},"properties":{"name":"五里墩派出所","xiaolei":"7322001","address":"汉阳大道","zhonglei":"7322","dalei":"4","type":"police"}},
{"type":"Feature","geometry":{"type":"Point","coordinates":[114.219163,30.556489]},"properties":{"name":"琴断口派出所（墨水湖北路）","xiaolei":"7322001","address":"","zhonglei":"7322","dalei":"4","type":"police"}},
{"type":"Feature","geometry":{"type":"Point","coordinates":[114.286088,30.578266]},"properties":{"name":"民权派出所","xiaolei":"7322001","address":"民生路131","zhonglei":"7322","dalei":"4","type":"police"}},
{"type":"Feature","geometry":{"type":"Point","coordinates":[114.277476,30.572204]},"properties":{"name":"武汉市公安局江汉分局市场派出所","xiaolei":"7322001","address":"友谊南路","zhonglei":"7322","dalei":"4","type":"police"}},
{"type":"Feature","geometry":{"type":"Point","coordinates":[114.279338,30.571582]},"properties":{"name":"满春派出所","xiaolei":"7322001","address":"民族路25号","zhonglei":"7322","dalei":"4","type":"police"}},
{"type":"Feature","geometry":{"type":"Point","coordinates":[114.286264,30.578207]},"properties":{"name":"花楼派出所","xiaolei":"7322001","address":"民生路131","zhonglei":"7322","dalei":"4","type":"police"}},
{"type":"Feature","geometry":{"type":"Point","coordinates":[114.287881,30.574086]},"properties":{"name":"长江航运公安局","xiaolei":"7322001","address":"黄陂街10","zhonglei":"7322","dalei":"4","type":"police"}},
{"type":"Feature","geometry":{"type":"Point","coordinates":[114.254488,30.525331]},"properties":{"name":"汉阳派出所","xiaolei":"7322001","address":"建港路22附近","zhonglei":"7322","dalei":"4","type":"police"}},
{"type":"Feature","geometry":{"type":"Point","coordinates":[114.254488,30.525331]},"properties":{"name":"汉阳水上巡逻警察队","xiaolei":"7322001","address":"","zhonglei":"7322","dalei":"4","type":"police"}},
{"type":"Feature","geometry":{"type":"Point","coordinates":[114.251861,30.552955]},"properties":{"name":"翠微派出所","xiaolei":"7322001","address":"汉阳大道228","zhonglei":"7322","dalei":"4","type":"police"}},
{"type":"Feature","geometry":{"type":"Point","coordinates":[114.274958,30.580804]},"properties":{"name":"民意派出所","xiaolei":"7322001","address":"民主街19","zhonglei":"7322","dalei":"4","type":"police"}},
{"type":"Feature","geometry":{"type":"Point","coordinates":[114.29501,30.582404]},"properties":{"name":"汉口派出所","xiaolei":"7322001","address":"沿江大道","zhonglei":"7322","dalei":"4","type":"police"}},
{"type":"Feature","geometry":{"type":"Point","coordinates":[114.29501,30.582404]},"properties":{"name":"汉口水上巡逻警察队","xiaolei":"7322001","address":"","zhonglei":"7322","dalei":"4","type":"police"}},
{"type":"Feature","geometry":{"type":"Point","coordinates":[114.283296,30.570728]},"properties":{"name":"武汉市公安局水上分局","xiaolei":"7322001","address":"大兴路63","zhonglei":"7322","dalei":"4","type":"police"}},
{"type":"Feature","geometry":{"type":"Point","coordinates":[114.286264,30.572293]},"properties":{"name":"民族街派出所","xiaolei":"7322001","address":"回龙巷2","zhonglei":"7322","dalei":"4","type":"police"}},
{"type":"Feature","geometry":{"type":"Point","coordinates":[114.264363,30.569698]},"properties":{"name":"利济派出所","xiaolei":"7322001","address":"存仁巷71","zhonglei":"7322","dalei":"4","type":"police"}},
{"type":"Feature","geometry":{"type":"Point","coordinates":[114.256726,30.568113]},"properties":{"name":"杨家河派出所","xiaolei":"7322001","address":"崇仁路20","zhonglei":"7322","dalei":"4","type":"police"}},
{"type":"Feature","geometry":{"type":"Point","coordinates":[114.258171,30.571392]},"properties":{"name":"武汉市公安局硚口区分局（中山大道","xiaolei":"7322001","address":"中山大道198","zhonglei":"7322","dalei":"4","type":"police"}},
{"type":"Feature","geometry":{"type":"Point","coordinates":[114.257449,30.57941]},"properties":{"name":"宝丰派出所","xiaolei":"7322001","address":"宝丰街18","zhonglei":"7322","dalei":"4","type":"police"}},
{"type":"Feature","geometry":{"type":"Point","coordinates":[114.269078,30.575328]},"properties":{"name":"六角亭街派出所","xiaolei":"7322001","address":"游艺路","zhonglei":"7322","dalei":"4","type":"police"}},
{"type":"Feature","geometry":{"type":"Point","coordinates":[114.355622,30.581877]},"properties":{"name":"武汉市公安局巡逻民警处","xiaolei":"7322001","address":"徐东大街169","zhonglei":"7322","dalei":"4","type":"police"}},
{"type":"Feature","geometry":{"type":"Point","coordinates":[114.30974,30.559964]},"properties":{"name":"积玉桥派出所","xiaolei":"7322001","address":"尚隆路23","zhonglei":"7322","dalei":"4","type":"police"}},
{"type":"Feature","geometry":{"type":"Point","coordinates":[114.340588,30.549624]},"properties":{"name":"水果湖派出所","xiaolei":"7322001","address":"水果湖路33","zhonglei":"7322","dalei":"4","type":"police"}},
{"type":"Feature","geometry":{"type":"Point","coordinates":[114.345438,30.529291]},"properties":{"name":"武汉市公安局洪山区分局","xiaolei":"7322001","address":"武珞路798","zhonglei":"7322","dalei":"4","type":"police"}},
{"type":"Feature","geometry":{"type":"Point","coordinates":[114.314288,30.555849]},"properties":{"name":"粮道街派出所","xiaolei":"7322001","address":"公正路1","zhonglei":"7322","dalei":"4","type":"police"}},
{"type":"Feature","geometry":{"type":"Point","coordinates":[114.272743,30.500867]},"properties":{"name":"武汉市公安局经济民警联队特种水泥","xiaolei":"7322001","address":"白沙洲工业园八坦路烽火园区西门","zhonglei":"7322","dalei":"4","type":"police"}},
{"type":"Feature","geometry":{"type":"Point","coordinates":[114.292178,30.523244]},"properties":{"name":"白沙洲派出所","xiaolei":"7322001","address":"陆家街234","zhonglei":"7322","dalei":"4","type":"police"}},
{"type":"Feature","geometry":{"type":"Point","coordinates":[114.308888,30.531014]},"properties":{"name":"站前派出所","xiaolei":"7322001","address":"中山路558","zhonglei":"7322","dalei":"4","type":"police"}},
{"type":"Feature","geometry":{"type":"Point","coordinates":[114.297808,30.539836]},"properties":{"name":"黄鹤楼街派出所警务室","xiaolei":"7322001","address":"","zhonglei":"7322","dalei":"4","type":"police"}},
{"type":"Feature","geometry":{"type":"Point","coordinates":[114.316614,30.529282]},"properties":{"name":"武汉铁路公安局","xiaolei":"7322001","address":"","zhonglei":"7322","dalei":"4","type":"police"}},
{"type":"Feature","geometry":{"type":"Point","coordinates":[114.324393,30.532711]},"properties":{"name":"湖北省公安厅出入境管理局","xiaolei":"7322001","address":"紫阳东路33号","zhonglei":"7322","dalei":"4","type":"police"}},
{"type":"Feature","geometry":{"type":"Point","coordinates":[114.324066,30.532756]},"properties":{"name":"湖北省公安厅人民来访接待室","xiaolei":"7322001","address":"紫阳东路33号","zhonglei":"7322","dalei":"4","type":"police"}},
{"type":"Feature","geometry":{"type":"Point","coordinates":[114.320942,30.529172]},"properties":{"name":"梅苑派出所","xiaolei":"7322001","address":"丁字桥路110","zhonglei":"7322","dalei":"4","type":"police"}},
{"type":"Feature","geometry":{"type":"Point","coordinates":[114.308452,30.516567]},"properties":{"name":"南湖派出所（恒安路）","xiaolei":"7322001","address":"恒安路247","zhonglei":"7322","dalei":"4","type":"police"}},
{"type":"Feature","geometry":{"type":"Point","coordinates":[114.295537,30.5511]},"properties":{"name":"中华路派出所","xiaolei":"7322001","address":"中华路76","zhonglei":"7322","dalei":"4","type":"police"}},
{"type":"Feature","geometry":{"type":"Point","coordinates":[114.360669,30.508271]},"properties":{"name":"洪山派出所","xiaolei":"7322001","address":"卓刀泉南路98","zhonglei":"7322","dalei":"4","type":"police"}},
{"type":"Feature","geometry":{"type":"Point","coordinates":[114.373206,30.519129]},"properties":{"name":"卓刀泉派出所","xiaolei":"7322001","address":"珞喻路486-488","zhonglei":"7322","dalei":"4","type":"police"}},
{"type":"Feature","geometry":{"type":"Point","coordinates":[114.362213,30.513825]},"properties":{"name":"卓刀泉派出所虎泉警务室","xiaolei":"7322001","address":"卓刀泉南路21","zhonglei":"7322","dalei":"4","type":"police"}},
{"type":"Feature","geometry":{"type":"Point","coordinates":[114.305494,30.5385]},"properties":{"name":"首义路派出所","xiaolei":"7322001","address":"首义路99","zhonglei":"7322","dalei":"4","type":"police"}},
{"type":"Feature","geometry":{"type":"Point","coordinates":[114.292828,30.539351]},"properties":{"name":"武汉市公安局武昌区分局","xiaolei":"7322001","address":"解放路248号","zhonglei":"7322","dalei":"4","type":"police"}},
{"type":"Feature","geometry":{"type":"Point","coordinates":[114.292828,30.539351]},"properties":{"name":"武昌区公安分局信访接待室","xiaolei":"7322001","address":"解放路248号","zhonglei":"7322","dalei":"4","type":"police"}},
{"type":"Feature","geometry":{"type":"Point","coordinates":[114.328177,30.520144]},"properties":{"name":"湖北省公安厅","xiaolei":"7322001","address":"雄楚大街181号","zhonglei":"7322","dalei":"4","type":"police"}},
{"type":"Feature","geometry":{"type":"Point","coordinates":[114.36042,30.532503]},"properties":{"name":"珞珈山派出所","xiaolei":"7322001","address":"八一路301","zhonglei":"7322","dalei":"4","type":"police"}},
{"type":"Feature","geometry":{"type":"Point","coordinates":[114.347987,30.512896]},"properties":{"name":"珞南派出所","xiaolei":"7322001","address":"雄楚大道257","zhonglei":"7322","dalei":"4","type":"police"}},
{"type":"Feature","geometry":{"type":"Point","coordinates":[114.324393,30.532711]},"properties":{"name":"湖北省公安厅居民身份证办证受理处","xiaolei":"7322001","address":"","zhonglei":"7322","dalei":"4","type":"police"}},
{"type":"Feature","geometry":{"type":"Point","coordinates":[114.315899,30.54644]},"properties":{"name":"中南路派出所民主路社区警务室","xiaolei":"7322001","address":"","zhonglei":"7322","dalei":"4","type":"police"}},
{"type":"Feature","geometry":{"type":"Point","coordinates":[114.292355,30.539906]},"properties":{"name":"武汉市公安局武昌分局出入境接待室","xiaolei":"7322001","address":"解放路248附2","zhonglei":"7322","dalei":"4","type":"police"}},
{"type":"Feature","geometry":{"type":"Point","coordinates":[114.293639,30.532345]},"properties":{"name":"紫阳路派出所","xiaolei":"7322001","address":"寻回街100号","zhonglei":"7322","dalei":"4","type":"police"}},
{"type":"Feature","geometry":{"type":"Point","coordinates":[114.266897,30.549972]},"properties":{"name":"建桥派出所","xiaolei":"7322001","address":"显正街100号","zhonglei":"7322","dalei":"4","type":"police"}},
{"type":"Feature","geometry":{"type":"Point","coordinates":[114.270266,30.57005]},"properties":{"name":"三曙派出所","xiaolei":"7322001","address":"安善巷15","zhonglei":"7322","dalei":"4","type":"police"}},
{"type":"Feature","geometry":{"type":"Point","coordinates":[114.270266,30.57005]},"properties":{"name":"汉正市场派出所","xiaolei":"7322001","address":"安善巷15","zhonglei":"7322","dalei":"4","type":"police"}},
{"type":"Feature","geometry":{"type":"Point","coordinates":[114.300522,30.565761]},"properties":{"name":"武汉市公安局水上分局大桥派出所","xiaolei":"7322001","address":"临江大道江滩168","zhonglei":"7322","dalei":"4","type":"police"}},
{"type":"Feature","geometry":{"type":"Point","coordinates":[114.288814,30.545699]},"properties":{"name":"黄鹤楼派出所","xiaolei":"7322001","address":"彭刘杨路37","zhonglei":"7322","dalei":"4","type":"police"}},
{"type":"Feature","geometry":{"type":"Point","coordinates":[114.3246,30.501893]},"properties":{"name":"北港派出所","xiaolei":"7322001","address":"","zhonglei":"7322","dalei":"4","type":"police"}},
{"type":"Feature","geometry":{"type":"Point","coordinates":[114.324393,30.532711]},"properties":{"name":"湖北省公安厅居民身份证制作中心","xiaolei":"7322001","address":"","zhonglei":"7322","dalei":"4","type":"police"}},
{"type":"Feature","geometry":{"type":"Point","coordinates":[114.291598,30.57955]},"properties":{"name":"长江航运公安局武汉分局","xiaolei":"7322001","address":"沿江大道133号广源大厦12层","zhonglei":"7322","dalei":"4","type":"police"}},
{"type":"Feature","geometry":{"type":"Point","coordinates":[114.325359,30.544154]},"properties":{"name":"中南路派出所","xiaolei":"7322001","address":"中南二路8","zhonglei":"7322","dalei":"4","type":"police"}},
{"type":"Feature","geometry":{"type":"Point","coordinates":[114.355622,30.581877]},"properties":{"name":"武汉市公安局巡逻民警支队","xiaolei":"7322001","address":"徐东大街169","zhonglei":"7322","dalei":"4","type":"police"}},
{"type":"Feature","geometry":{"type":"Point","coordinates":[114.319358,30.547794]},"properties":{"name":"中南路派出所安装社区警务室","xiaolei":"7322001","address":"民主二路18","zhonglei":"7322","dalei":"4","type":"police"}},
{"type":"Feature","geometry":{"type":"Point","coordinates":[114.251824,30.567859]},"properties":{"name":"汉中派出所（沿河大道）","xiaolei":"7322001","address":"沿河大道282","zhonglei":"7322","dalei":"4","type":"police"}},
{"type":"Feature","geometry":{"type":"Point","coordinates":[114.277101,30.555856]},"properties":{"name":"长江大桥派出所","xiaolei":"7322001","address":"洗马长街1","zhonglei":"7322","dalei":"4","type":"police"}},
{"type":"Feature","geometry":{"type":"Point","coordinates":[114.305293,30.540863]},"properties":{"name":"凤凰山派出所","xiaolei":"7322001","address":"","zhonglei":"7322","dalei":"4","type":"police"}},
{"type":"Feature","geometry":{"type":"Point","coordinates":[114.366658,30.56446]},"properties":{"name":"武汉市公安局东湖风景区分局","xiaolei":"7322001","address":"徐东路小刘家湾","zhonglei":"7322","dalei":"4","type":"police"}},
{"type":"Feature","geometry":{"type":"Point","coordinates":[114.366621,30.564477]},"properties":{"name":"听涛派出所","xiaolei":"7322001","address":"","zhonglei":"7322","dalei":"4","type":"police"}},
{"type":"Feature","geometry":{"type":"Point","coordinates":[114.316382,30.529289]},"properties":{"name":"武汉铁路公安局信访接待室","xiaolei":"7322001","address":"福安街武南一村","zhonglei":"7322","dalei":"4","type":"police"}},
{"type":"Feature","geometry":{"type":"Point","coordinates":[114.25804,30.571392]},"properties":{"name":"武汉市公安局刑科所硚口鉴定所","xiaolei":"7322001","address":"中山大道198附1","zhonglei":"7322","dalei":"4","type":"police"}},
{"type":"Feature","geometry":{"type":"Point","coordinates":[114.25804,30.571392]},"properties":{"name":"武汉市公安局硚口区分局出入境接待","xiaolei":"7322001","address":"中山大道198附1","zhonglei":"7322","dalei":"4","type":"police"}},
{"type":"Feature","geometry":{"type":"Point","coordinates":[114.258096,30.571399]},"properties":{"name":"武汉市公安局硚口区分局信访接待室","xiaolei":"7322001","address":"中山大道198附1","zhonglei":"7322","dalei":"4","type":"police"}},
{"type":"Feature","geometry":{"type":"Point","coordinates":[114.255946,30.531235]},"properties":{"name":"汉阳区公安分局居民身份证办证点","xiaolei":"7322001","address":"","zhonglei":"7322","dalei":"4","type":"police"}},
{"type":"Feature","geometry":{"type":"Point","coordinates":[114.255541,30.531177]},"properties":{"name":"武汉市公安局汉阳区分局","xiaolei":"7322001","address":"鹦鹉大道456","zhonglei":"7322","dalei":"4","type":"police"}},
{"type":"Feature","geometry":{"type":"Point","coordinates":[114.354766,30.573084]},"properties":{"name":"武汉市公安局交通管理局洪山大队水","xiaolei":"7322001","address":"中北路222","zhonglei":"7322","dalei":"4","type":"police"}},
{"type":"Feature","geometry":{"type":"Point","coordinates":[114.276722,30.565941]},"properties":{"name":"龙王庙派出所","xiaolei":"7322001","address":"沿河大道115","zhonglei":"7322","dalei":"4","type":"police"}},
{"type":"Feature","geometry":{"type":"Point","coordinates":[114.303713,30.560275]},"properties":{"name":"街道口派出所","xiaolei":"7322001","address":"沙湖苑路","zhonglei":"7322","dalei":"4","type":"police"}},
{"type":"Feature","geometry":{"type":"Point","coordinates":[114.272113,30.546067]},"properties":{"name":"建港路派出所","xiaolei":"7322001","address":"滨江大道江滩11","zhonglei":"7322","dalei":"4","type":"police"}},
{"type":"Feature","geometry":{"type":"Point","coordinates":[114.32504,30.523702]},"properties":{"name":"北港派出所沈家湾社区警务室","xiaolei":"7322001","address":"","zhonglei":"7322","dalei":"4","type":"police"}},
{"type":"Feature","geometry":{"type":"Point","coordinates":[114.33406,30.518141]},"properties":{"name":"武汉科技大学洪山校区社区警务室","xiaolei":"7322001","address":"雄楚大道199号洪山区","zhonglei":"7322","dalei":"4","type":"police"}},
{"type":"Feature","geometry":{"type":"Point","coordinates":[114.336326,30.514744]},"properties":{"name":"武汉理工大学校区警务室","xiaolei":"7322001","address":"","zhonglei":"7322","dalei":"4","type":"police"}},
{"type":"Feature","geometry":{"type":"Point","coordinates":[114.361799,30.568364]},"properties":{"name":"东亭派出所","xiaolei":"7322001","address":"","zhonglei":"7322","dalei":"4","type":"police"}},
{"type":"Feature","geometry":{"type":"Point","coordinates":[114.263934,30.538508]},"properties":{"name":"鹦鹉派出所","xiaolei":"7322001","address":"鹦鹉小道33号","zhonglei":"7322","dalei":"4","type":"police"}},
{"type":"Feature","geometry":{"type":"Point","coordinates":[114.308735,30.531003]},"properties":{"name":"武昌站站前派出所","xiaolei":"7322001","address":"中山路558","zhonglei":"7322","dalei":"4","type":"police"}},
{"type":"Feature","geometry":{"type":"Point","coordinates":[114.47813,30.508159]},"properties":{"name":"九峰派出所","xiaolei":"7322001","address":"王家店110号","zhonglei":"7322","dalei":"4","type":"police"}},
{"type":"Feature","geometry":{"type":"Point","coordinates":[114.436727,30.509853]},"properties":{"name":"武汉市公安局关山公安治安检查站","xiaolei":"7322001","address":"","zhonglei":"7322","dalei":"4","type":"police"}},
{"type":"Feature","geometry":{"type":"Point","coordinates":[114.446777,30.558268]},"properties":{"name":"武昌东车站派出所","xiaolei":"7322001","address":"","zhonglei":"7322","dalei":"4","type":"police"}},
{"type":"Feature","geometry":{"type":"Point","coordinates":[114.406542,30.502737]},"properties":{"name":"关山街派出所","xiaolei":"7322001","address":"关山街188号","zhonglei":"7322","dalei":"4","type":"police"}},
{"type":"Feature","geometry":{"type":"Point","coordinates":[114.381136,30.516849]},"properties":{"name":"武汉市公安局出入境管理处江南光谷","xiaolei":"7322001","address":"珞喻路548","zhonglei":"7322","dalei":"4","type":"police"}},
{"type":"Feature","geometry":{"type":"Point","coordinates":[114.377776,30.537492]},"properties":{"name":"武汉市公安局水上派出所","xiaolei":"7322001","address":"东湖东路6","zhonglei":"7322","dalei":"4","type":"police"}},
{"type":"Feature","geometry":{"type":"Point","coordinates":[114.400683,30.546834]},"properties":{"name":"磨山派出所","xiaolei":"7322001","address":"鲁磨路666","zhonglei":"7322","dalei":"4","type":"police"}},
{"type":"Feature","geometry":{"type":"Point","coordinates":[114.430315,30.50821]},"properties":{"name":"吹笛派出所（关东康居园西北）","xiaolei":"7322001","address":"珞喻东路619附2","zhonglei":"7322","dalei":"4","type":"police"}},
{"type":"Feature","geometry":{"type":"Point","coordinates":[114.450139,30.550004]},"properties":{"name":"武昌东车站铁路派出所","xiaolei":"7322001","address":"","zhonglei":"7322","dalei":"4","type":"police"}},
{"type":"Feature","geometry":{"type":"Point","coordinates":[114.41409,30.502657]},"properties":{"name":"关山派出所","xiaolei":"7322001","address":"关山大道","zhonglei":"7322","dalei":"4","type":"police"}},
{"type":"Feature","geometry":{"type":"Point","coordinates":[114.516139,30.542037]},"properties":{"name":"花山派出所","xiaolei":"7322001","address":"政府路11","zhonglei":"7322","dalei":"4","type":"police"}},
{"type":"Feature","geometry":{"type":"Point","coordinates":[114.147401,30.4831]},"properties":{"name":"武汉市公安局武汉经济技术开发区分","xiaolei":"7322001","address":"创业路88","zhonglei":"7322","dalei":"4","type":"police"}},
{"type":"Feature","geometry":{"type":"Point","coordinates":[114.148548,30.487162]},"properties":{"name":"汉强派出所","xiaolei":"7322001","address":"百业路52","zhonglei":"7322","dalei":"4","type":"police"}},
{"type":"Feature","geometry":{"type":"Point","coordinates":[114.161285,30.497294]},"properties":{"name":"神龙派出所","xiaolei":"7322001","address":"宁康路68","zhonglei":"7322","dalei":"4","type":"police"}},
{"type":"Feature","geometry":{"type":"Point","coordinates":[114.186287,30.46178]},"properties":{"name":"沌口派出所","xiaolei":"7322001","address":"沌口正街12","zhonglei":"7322","dalei":"4","type":"police"}},
{"type":"Feature","geometry":{"type":"Point","coordinates":[114.148553,30.487165]},"properties":{"name":"武汉市公安局武汉经济技术开发区分","xiaolei":"7322001","address":"百业路52","zhonglei":"7322","dalei":"4","type":"police"}},
{"type":"Feature","geometry":{"type":"Point","coordinates":[114.148551,30.487165]},"properties":{"name":"武汉市公安局开发区分局经济犯罪举","xiaolei":"7322001","address":"百业路52","zhonglei":"7322","dalei":"4","type":"police"}},
{"type":"Feature","geometry":{"type":"Point","coordinates":[114.129995,30.465891]},"properties":{"name":"蔡甸经济开发区派出所","xiaolei":"7322001","address":"珠山湖大道215","zhonglei":"7322","dalei":"4","type":"police"}},
{"type":"Feature","geometry":{"type":"Point","coordinates":[114.161306,30.497308]},"properties":{"name":"武汉市公安局打黑除恶经济技术开发","xiaolei":"7322001","address":"宁康路68","zhonglei":"7322","dalei":"4","type":"police"}},
{"type":"Feature","geometry":{"type":"Point","coordinates":[114.140585,30.483985]},"properties":{"name":"沌阳派出所（车城南路）","xiaolei":"7322001","address":"车城南路96","zhonglei":"7322","dalei":"4","type":"police"}},
{"type":"Feature","geometry":{"type":"Point","coordinates":[114.147282,30.482946]},"properties":{"name":"武汉经济技术开发区公安分局办证大","xiaolei":"7322001","address":"","zhonglei":"7322","dalei":"4","type":"police"}},
{"type":"Feature","geometry":{"type":"Point","coordinates":[114.147288,30.482951]},"properties":{"name":"武汉经济技术开发区公安分局出入境","xiaolei":"7322001","address":"","zhonglei":"7322","dalei":"4","type":"police"}},
{"type":"Feature","geometry":{"type":"Point","coordinates":[114.301075,30.477836]},"properties":{"name":"武昌南车站铁路派出所","xiaolei":"7322001","address":"武南铁路新村152","zhonglei":"7322","dalei":"4","type":"police"}},
{"type":"Feature","geometry":{"type":"Point","coordinates":[114.29876,30.477326]},"properties":{"name":"武汉铁路公安局武汉铁路公安处（武","xiaolei":"7322001","address":"武南铁路新村161","zhonglei":"7322","dalei":"4","type":"police"}},
{"type":"Feature","geometry":{"type":"Point","coordinates":[114.317948,30.470197]},"properties":{"name":"狮子山派出所（野芷湖西路）","xiaolei":"7322001","address":"马湖路8号","zhonglei":"7322","dalei":"4","type":"police"}},
{"type":"Feature","geometry":{"type":"Point","coordinates":[114.277786,30.491958]},"properties":{"name":"张家湾派出所","xiaolei":"7322001","address":"","zhonglei":"7322","dalei":"4","type":"police"}},
{"type":"Feature","geometry":{"type":"Point","coordinates":[114.30502,30.488729]},"properties":{"name":"南湖派出所","xiaolei":"7322001","address":"","zhonglei":"7322","dalei":"4","type":"police"}},
{"type":"Feature","geometry":{"type":"Point","coordinates":[114.318112,30.470211]},"properties":{"name":"狮子山派出所","xiaolei":"7322001","address":"","zhonglei":"7322","dalei":"4","type":"police"}},
{"type":"Feature","geometry":{"type":"Point","coordinates":[114.376956,30.437913]},"properties":{"name":"庙山公安分局","xiaolei":"7322001","address":"","zhonglei":"7322","dalei":"4","type":"police"}},
{"type":"Feature","geometry":{"type":"Point","coordinates":[114.425114,30.435928]},"properties":{"name":"藏龙岛派出所","xiaolei":"7322001","address":"灵杰路2","zhonglei":"7322","dalei":"4","type":"police"}},
{"type":"Feature","geometry":{"type":"Point","coordinates":[114.43931,30.449844]},"properties":{"name":"同心派出所（流芳大道）","xiaolei":"7322001","address":"","zhonglei":"7322","dalei":"4","type":"police"}},
{"type":"Feature","geometry":{"type":"Point","coordinates":[114.378776,30.44394]},"properties":{"name":"庙山派出所","xiaolei":"7322001","address":"民族大道339","zhonglei":"7322","dalei":"4","type":"police"}},
{"type":"Feature","geometry":{"type":"Point","coordinates":[114.400113,30.486646]},"properties":{"name":"关东派出所（纺织路）","xiaolei":"7322001","address":"曙光新村188号","zhonglei":"7322","dalei":"4","type":"police"}},
{"type":"Feature","geometry":{"type":"Point","coordinates":[114.390237,30.462626]},"properties":{"name":"茅店派出所","xiaolei":"7322001","address":"华师园北路汤湖社区","zhonglei":"7322","dalei":"4","type":"police"}},
{"type":"Feature","geometry":{"type":"Point","coordinates":[114.39873,30.461469]},"properties":{"name":"武汉市公安局东湖新技术开发区分局","xiaolei":"7322001","address":"大学园路8","zhonglei":"7322","dalei":"4","type":"police"}},
{"type":"Feature","geometry":{"type":"Point","coordinates":[114.387892,30.481256]},"properties":{"name":"铁箕山派出所","xiaolei":"7322001","address":"","zhonglei":"7322","dalei":"4","type":"police"}},
{"type":"Feature","geometry":{"type":"Point","coordinates":[114.426005,30.479619]},"properties":{"name":"关南派出所","xiaolei":"7322001","address":"","zhonglei":"7322","dalei":"4","type":"police"}},
{"type":"Feature","geometry":{"type":"Point","coordinates":[114.451905,30.434638]},"properties":{"name":"同心派出所","xiaolei":"7322001","address":"流芳街","zhonglei":"7322","dalei":"4","type":"police"}},
{"type":"Feature","geometry":{"type":"Point","coordinates":[114.398682,30.48227]},"properties":{"name":"关东派出所（南湖大道）","xiaolei":"7322001","address":"武汉市东湖新技术开发区","zhonglei":"7322","dalei":"4","type":"police"}},
{"type":"Feature","geometry":{"type":"Point","coordinates":[114.452131,30.434653]},"properties":{"name":"同心派出所","xiaolei":"7322001","address":"","zhonglei":"7322","dalei":"4","type":"police"}}
]}