{"type":"FeatureCollection", "features": [
{"type":"Feature","geometry":{"type":"Point","coordinates":[114.117526,30.73053]},"properties":{"name":"和平饭店","xiaolei":"7315012","address":"","zhonglei":"7315","dalei":"3","type":"rice"}},
{"type":"Feature","geometry":{"type":"Point","coordinates":[114.118343,30.732172]},"properties":{"name":"聚友农家酒店","xiaolei":"7315012","address":"","zhonglei":"7315","dalei":"3","type":"rice"}},
{"type":"Feature","geometry":{"type":"Point","coordinates":[114.120126,30.724974]},"properties":{"name":"建丰酒店","xiaolei":"7315012","address":"茅庙集街7","zhonglei":"7315","dalei":"3","type":"rice"}},
{"type":"Feature","geometry":{"type":"Point","coordinates":[114.119897,30.72668]},"properties":{"name":"祥和酒楼","xiaolei":"7315012","address":"","zhonglei":"7315","dalei":"3","type":"rice"}},
{"type":"Feature","geometry":{"type":"Point","coordinates":[114.117968,30.729325]},"properties":{"name":"银河酒楼","xiaolei":"7315012","address":"茅庙集街95","zhonglei":"7315","dalei":"3","type":"rice"}},
{"type":"Feature","geometry":{"type":"Point","coordinates":[114.119665,30.72704]},"properties":{"name":"柏泉古镇菊华酒楼","xiaolei":"7315012","address":"","zhonglei":"7315","dalei":"3","type":"rice"}},
{"type":"Feature","geometry":{"type":"Point","coordinates":[114.223867,30.732813]},"properties":{"name":"万兴楼酒轩","xiaolei":"7315012","address":"","zhonglei":"7315","dalei":"3","type":"rice"}},
{"type":"Feature","geometry":{"type":"Point","coordinates":[114.144406,30.694809]},"properties":{"name":"东港苑农庄","xiaolei":"7315012","address":"张柏路附近","zhonglei":"7315","dalei":"3","type":"rice"}},
{"type":"Feature","geometry":{"type":"Point","coordinates":[114.160971,30.681372]},"properties":{"name":"万家灯火农家菜馆","xiaolei":"7315012","address":"十字东街37","zhonglei":"7315","dalei":"3","type":"rice"}},
{"type":"Feature","geometry":{"type":"Point","coordinates":[114.246733,30.715118]},"properties":{"name":"湘轩人家","xiaolei":"7315052","address":"城经济开发区巨龙大道18号F天下","zhonglei":"7315","dalei":"3","type":"rice"}},
{"type":"Feature","geometry":{"type":"Point","coordinates":[114.244802,30.71609]},"properties":{"name":"简朴寨（盘龙城三十九分店）","xiaolei":"7315001","address":"巨龙大道露甲山路","zhonglei":"7315","dalei":"3","type":"rice"}},
{"type":"Feature","geometry":{"type":"Point","coordinates":[114.235867,30.721555]},"properties":{"name":"小湘村土菜馆（巨龙大道）","xiaolei":"7315052","address":"巨龙大道245附3","zhonglei":"7315","dalei":"3","type":"rice"}},
{"type":"Feature","geometry":{"type":"Point","coordinates":[114.240273,30.71869]},"properties":{"name":"天下公馆","xiaolei":"7315001","address":"巨龙大道196号","zhonglei":"7315","dalei":"3","type":"rice"}},
{"type":"Feature","geometry":{"type":"Point","coordinates":[114.24875,30.714064]},"properties":{"name":"武汉金菲浪餐饮有限公司","xiaolei":"7315012","address":"","zhonglei":"7315","dalei":"3","type":"rice"}},
{"type":"Feature","geometry":{"type":"Point","coordinates":[114.243902,30.71654]},"properties":{"name":"顺天食府","xiaolei":"7315012","address":"城附近","zhonglei":"7315","dalei":"3","type":"rice"}},
{"type":"Feature","geometry":{"type":"Point","coordinates":[114.232279,30.734965]},"properties":{"name":"小四川酒楼（宋岗三路）","xiaolei":"7315056","address":"宋岗三路9","zhonglei":"7315","dalei":"3","type":"rice"}},
{"type":"Feature","geometry":{"type":"Point","coordinates":[114.232925,30.734828]},"properties":{"name":"烹泰酒楼","xiaolei":"7315001","address":"宋岗三路50","zhonglei":"7315","dalei":"3","type":"rice"}},
{"type":"Feature","geometry":{"type":"Point","coordinates":[114.233146,30.734914]},"properties":{"name":"恒盛酒楼","xiaolei":"7315001","address":"宋岗三路58","zhonglei":"7315","dalei":"3","type":"rice"}},
{"type":"Feature","geometry":{"type":"Point","coordinates":[114.233279,30.734961]},"properties":{"name":"三峡人家（宋岗三路）","xiaolei":"7315012","address":"宋岗三路60","zhonglei":"7315","dalei":"3","type":"rice"}},
{"type":"Feature","geometry":{"type":"Point","coordinates":[114.234106,30.735322]},"properties":{"name":"大丈夫ｄｅ小厨房","xiaolei":"7315012","address":"城宋岗三路","zhonglei":"7315","dalei":"3","type":"rice"}},
{"type":"Feature","geometry":{"type":"Point","coordinates":[114.234282,30.735786]},"properties":{"name":"卧龙岗酒家","xiaolei":"7315012","address":"","zhonglei":"7315","dalei":"3","type":"rice"}},
{"type":"Feature","geometry":{"type":"Point","coordinates":[114.232751,30.735129]},"properties":{"name":"黄花涝渔庄（佳海分店）","xiaolei":"7315043","address":"宋岗三路21","zhonglei":"7315","dalei":"3","type":"rice"}},
{"type":"Feature","geometry":{"type":"Point","coordinates":[114.236894,30.733632]},"properties":{"name":"老重庆口味馆","xiaolei":"7315056","address":"佳海环行路131","zhonglei":"7315","dalei":"3","type":"rice"}},
{"type":"Feature","geometry":{"type":"Point","coordinates":[114.237776,30.737176]},"properties":{"name":"派乐汉堡","xiaolei":"7315015","address":"","zhonglei":"7315","dalei":"3","type":"rice"}},
{"type":"Feature","geometry":{"type":"Point","coordinates":[114.237276,30.737656]},"properties":{"name":"大别山庄","xiaolei":"7315012","address":"","zhonglei":"7315","dalei":"3","type":"rice"}},
{"type":"Feature","geometry":{"type":"Point","coordinates":[114.23788,30.73751]},"properties":{"name":"小四川农家菜","xiaolei":"7315056","address":"","zhonglei":"7315","dalei":"3","type":"rice"}},
{"type":"Feature","geometry":{"type":"Point","coordinates":[114.235021,30.738295]},"properties":{"name":"天天食府","xiaolei":"7315012","address":"","zhonglei":"7315","dalei":"3","type":"rice"}},
{"type":"Feature","geometry":{"type":"Point","coordinates":[114.235858,30.738125]},"properties":{"name":"肯德香","xiaolei":"7315015","address":"","zhonglei":"7315","dalei":"3","type":"rice"}},
{"type":"Feature","geometry":{"type":"Point","coordinates":[114.23623,30.733533]},"properties":{"name":"喜客来酒轩鲜鱼庄","xiaolei":"7315043","address":"佳海环行路238","zhonglei":"7315","dalei":"3","type":"rice"}},
{"type":"Feature","geometry":{"type":"Point","coordinates":[114.232421,30.737195]},"properties":{"name":"派乐汉堡（佳海环形路）","xiaolei":"7315015","address":"","zhonglei":"7315","dalei":"3","type":"rice"}},
{"type":"Feature","geometry":{"type":"Point","coordinates":[114.235545,30.733922]},"properties":{"name":"张家湾酒楼","xiaolei":"7315001","address":"宋岗路19","zhonglei":"7315","dalei":"3","type":"rice"}},
{"type":"Feature","geometry":{"type":"Point","coordinates":[114.235706,30.733604]},"properties":{"name":"小花源餐厅","xiaolei":"7315012","address":"宋岗路11","zhonglei":"7315","dalei":"3","type":"rice"}},
{"type":"Feature","geometry":{"type":"Point","coordinates":[114.24051,30.733075]},"properties":{"name":"华旺阁酒楼","xiaolei":"7315001","address":"","zhonglei":"7315","dalei":"3","type":"rice"}},
{"type":"Feature","geometry":{"type":"Point","coordinates":[114.234384,30.737727]},"properties":{"name":"会洪土菜馆","xiaolei":"7315012","address":"","zhonglei":"7315","dalei":"3","type":"rice"}},
{"type":"Feature","geometry":{"type":"Point","coordinates":[114.247797,30.714578]},"properties":{"name":"肥记虾庄","xiaolei":"7315012","address":"巨龙大道196附19","zhonglei":"7315","dalei":"3","type":"rice"}},
{"type":"Feature","geometry":{"type":"Point","coordinates":[114.247521,30.714747]},"properties":{"name":"巴山恩施土家酒楼","xiaolei":"7315012","address":"巨龙大道196附27","zhonglei":"7315","dalei":"3","type":"rice"}},
{"type":"Feature","geometry":{"type":"Point","coordinates":[114.157858,30.680305]},"properties":{"name":"楚天鲜平价美食","xiaolei":"7315012","address":"","zhonglei":"7315","dalei":"3","type":"rice"}},
{"type":"Feature","geometry":{"type":"Point","coordinates":[114.159628,30.6806]},"properties":{"name":"农院灶台","xiaolei":"7315012","address":"","zhonglei":"7315","dalei":"3","type":"rice"}},
{"type":"Feature","geometry":{"type":"Point","coordinates":[114.16093,30.681353]},"properties":{"name":"锦泰食府","xiaolei":"7315012","address":"","zhonglei":"7315","dalei":"3","type":"rice"}},
{"type":"Feature","geometry":{"type":"Point","coordinates":[114.154533,30.680435]},"properties":{"name":"喜瑞餐馆","xiaolei":"7315012","address":"","zhonglei":"7315","dalei":"3","type":"rice"}},
{"type":"Feature","geometry":{"type":"Point","coordinates":[114.158437,30.681327]},"properties":{"name":"映山红农家小店","xiaolei":"7315012","address":"径河街十字北路","zhonglei":"7315","dalei":"3","type":"rice"}},
{"type":"Feature","geometry":{"type":"Point","coordinates":[114.157518,30.680699]},"properties":{"name":"万家灯火酒店","xiaolei":"7315001","address":"十字东街23","zhonglei":"7315","dalei":"3","type":"rice"}},
{"type":"Feature","geometry":{"type":"Point","coordinates":[114.236429,30.721701]},"properties":{"name":"名流私房菜（盘龙城分店）","xiaolei":"7315012","address":"","zhonglei":"7315","dalei":"3","type":"rice"}},
{"type":"Feature","geometry":{"type":"Point","coordinates":[114.147058,30.674588]},"properties":{"name":"红芳钓鱼台","xiaolei":"7315012","address":"","zhonglei":"7315","dalei":"3","type":"rice"}},
{"type":"Feature","geometry":{"type":"Point","coordinates":[114.233501,30.737844]},"properties":{"name":"六六八餐厅","xiaolei":"7315012","address":"佳海环行路618","zhonglei":"7315","dalei":"3","type":"rice"}},
{"type":"Feature","geometry":{"type":"Point","coordinates":[114.233053,30.737551]},"properties":{"name":"仙洪餐馆","xiaolei":"7315012","address":"佳海环行路590","zhonglei":"7315","dalei":"3","type":"rice"}},
{"type":"Feature","geometry":{"type":"Point","coordinates":[114.232935,30.737484]},"properties":{"name":"心怡菜馆","xiaolei":"7315012","address":"佳海环行路578","zhonglei":"7315","dalei":"3","type":"rice"}},
{"type":"Feature","geometry":{"type":"Point","coordinates":[114.232926,30.737433]},"properties":{"name":"实惠餐馆","xiaolei":"7315012","address":"佳海环行路576","zhonglei":"7315","dalei":"3","type":"rice"}},
{"type":"Feature","geometry":{"type":"Point","coordinates":[114.232113,30.735616]},"properties":{"name":"菜根香餐厅","xiaolei":"7315012","address":"佳海环行路456","zhonglei":"7315","dalei":"3","type":"rice"}},
{"type":"Feature","geometry":{"type":"Point","coordinates":[114.24226,30.715473]},"properties":{"name":"川湘菜馆","xiaolei":"7315052","address":"","zhonglei":"7315","dalei":"3","type":"rice"}},
{"type":"Feature","geometry":{"type":"Point","coordinates":[114.236116,30.722178]},"properties":{"name":"小秦家菜馆","xiaolei":"7315012","address":"巨龙大道245号","zhonglei":"7315","dalei":"3","type":"rice"}},
{"type":"Feature","geometry":{"type":"Point","coordinates":[114.236282,30.733824]},"properties":{"name":"小石灶土菜馆","xiaolei":"7315012","address":"佳海环行路220","zhonglei":"7315","dalei":"3","type":"rice"}},
{"type":"Feature","geometry":{"type":"Point","coordinates":[114.236626,30.734015]},"properties":{"name":"鼎香居","xiaolei":"7315012","address":"佳海环行路206","zhonglei":"7315","dalei":"3","type":"rice"}},
{"type":"Feature","geometry":{"type":"Point","coordinates":[114.23749,30.735218]},"properties":{"name":"美如家饭店","xiaolei":"7315012","address":"佳海环行路108","zhonglei":"7315","dalei":"3","type":"rice"}},
{"type":"Feature","geometry":{"type":"Point","coordinates":[114.232329,30.735148]},"properties":{"name":"０７２８农家风味","xiaolei":"7315012","address":"宋岗三路11","zhonglei":"7315","dalei":"3","type":"rice"}},
{"type":"Feature","geometry":{"type":"Point","coordinates":[114.232472,30.735194]},"properties":{"name":"沔洪酒楼","xiaolei":"7315012","address":"宋岗三路15","zhonglei":"7315","dalei":"3","type":"rice"}},
{"type":"Feature","geometry":{"type":"Point","coordinates":[114.235826,30.732971]},"properties":{"name":"青松酒家","xiaolei":"7315012","address":"佳海环行路159","zhonglei":"7315","dalei":"3","type":"rice"}},
{"type":"Feature","geometry":{"type":"Point","coordinates":[114.234239,30.732867]},"properties":{"name":"聚福餐厅","xiaolei":"7315012","address":"佳海环行路213","zhonglei":"7315","dalei":"3","type":"rice"}},
{"type":"Feature","geometry":{"type":"Point","coordinates":[114.232078,30.73506]},"properties":{"name":"小四川酒楼","xiaolei":"7315012","address":"宋岗三路9","zhonglei":"7315","dalei":"3","type":"rice"}},
{"type":"Feature","geometry":{"type":"Point","coordinates":[114.232582,30.735212]},"properties":{"name":"盘龙家常菜","xiaolei":"7315012","address":"宋岗三路19","zhonglei":"7315","dalei":"3","type":"rice"}},
{"type":"Feature","geometry":{"type":"Point","coordinates":[114.232715,30.734608]},"properties":{"name":"仙桃之家","xiaolei":"7315012","address":"宋岗三路46","zhonglei":"7315","dalei":"3","type":"rice"}},
{"type":"Feature","geometry":{"type":"Point","coordinates":[114.235158,30.732811]},"properties":{"name":"食家庄","xiaolei":"7315012","address":"佳海环行路181","zhonglei":"7315","dalei":"3","type":"rice"}},
{"type":"Feature","geometry":{"type":"Point","coordinates":[114.248876,30.714226]},"properties":{"name":"金菲浪酒店","xiaolei":"7315012","address":"","zhonglei":"7315","dalei":"3","type":"rice"}},
{"type":"Feature","geometry":{"type":"Point","coordinates":[114.237466,30.733995]},"properties":{"name":"鸿饱食","xiaolei":"7315012","address":"","zhonglei":"7315","dalei":"3","type":"rice"}},
{"type":"Feature","geometry":{"type":"Point","coordinates":[114.233197,30.731661]},"properties":{"name":"钟情快餐","xiaolei":"7315015","address":"佳海步行三街73","zhonglei":"7315","dalei":"3","type":"rice"}},
{"type":"Feature","geometry":{"type":"Point","coordinates":[114.236179,30.733759]},"properties":{"name":"重庆鸡公煲","xiaolei":"7315056","address":"佳海环行路232","zhonglei":"7315","dalei":"3","type":"rice"}},
{"type":"Feature","geometry":{"type":"Point","coordinates":[114.23745,30.735104]},"properties":{"name":"建建酒楼","xiaolei":"7315012","address":"佳海环行路116","zhonglei":"7315","dalei":"3","type":"rice"}},
{"type":"Feature","geometry":{"type":"Point","coordinates":[114.233244,30.731875]},"properties":{"name":"新世纪餐厅","xiaolei":"7315012","address":"佳海步行三街83","zhonglei":"7315","dalei":"3","type":"rice"}},
{"type":"Feature","geometry":{"type":"Point","coordinates":[114.232106,30.735803]},"properties":{"name":"龙门鱼府","xiaolei":"7315012","address":"佳海环行路470","zhonglei":"7315","dalei":"3","type":"rice"}},
{"type":"Feature","geometry":{"type":"Point","coordinates":[114.246929,30.713838]},"properties":{"name":"龙Ａ．尚锅轩","xiaolei":"7315058","address":"巨龙大道205附18","zhonglei":"7315","dalei":"3","type":"rice"}},
{"type":"Feature","geometry":{"type":"Point","coordinates":[114.157782,30.680218]},"properties":{"name":"尝相聚美食","xiaolei":"7315012","address":"十字西街32","zhonglei":"7315","dalei":"3","type":"rice"}},
{"type":"Feature","geometry":{"type":"Point","coordinates":[114.2326,30.738]},"properties":{"name":"聚朋酒楼","xiaolei":"7315012","address":"佳海环行路459","zhonglei":"7315","dalei":"3","type":"rice"}},
{"type":"Feature","geometry":{"type":"Point","coordinates":[114.212905,30.73624]},"properties":{"name":"龙城小院","xiaolei":"7315012","address":"","zhonglei":"7315","dalei":"3","type":"rice"}},
{"type":"Feature","geometry":{"type":"Point","coordinates":[114.240223,30.711906]},"properties":{"name":"小辣椒酒楼","xiaolei":"7315012","address":"","zhonglei":"7315","dalei":"3","type":"rice"}},
{"type":"Feature","geometry":{"type":"Point","coordinates":[114.159841,30.681268]},"properties":{"name":"快乐人家（径河店）","xiaolei":"7315012","address":"","zhonglei":"7315","dalei":"3","type":"rice"}},
{"type":"Feature","geometry":{"type":"Point","coordinates":[114.194775,30.730883]},"properties":{"name":"老食人家","xiaolei":"7315012","address":"","zhonglei":"7315","dalei":"3","type":"rice"}},
{"type":"Feature","geometry":{"type":"Point","coordinates":[114.2326,30.733606]},"properties":{"name":"老地方川菜馆","xiaolei":"7315056","address":"","zhonglei":"7315","dalei":"3","type":"rice"}},
{"type":"Feature","geometry":{"type":"Point","coordinates":[114.235047,30.733438]},"properties":{"name":"辣妹子湘菜馆","xiaolei":"7315052","address":"","zhonglei":"7315","dalei":"3","type":"rice"}},
{"type":"Feature","geometry":{"type":"Point","coordinates":[114.357863,30.676488]},"properties":{"name":"碧云天酒楼","xiaolei":"7315001","address":"","zhonglei":"7315","dalei":"3","type":"rice"}},
{"type":"Feature","geometry":{"type":"Point","coordinates":[114.332204,30.667239]},"properties":{"name":"柳记牛肉面","xiaolei":"7315012","address":"","zhonglei":"7315","dalei":"3","type":"rice"}},
{"type":"Feature","geometry":{"type":"Point","coordinates":[114.366581,30.679374]},"properties":{"name":"东方牛肉馆","xiaolei":"7315012","address":"","zhonglei":"7315","dalei":"3","type":"rice"}},
{"type":"Feature","geometry":{"type":"Point","coordinates":[114.306523,30.730376]},"properties":{"name":"湖枫鱼鲜馆","xiaolei":"7315043","address":"","zhonglei":"7315","dalei":"3","type":"rice"}},
{"type":"Feature","geometry":{"type":"Point","coordinates":[114.305799,30.700394]},"properties":{"name":"家和兴酒家","xiaolei":"7315012","address":"","zhonglei":"7315","dalei":"3","type":"rice"}},
{"type":"Feature","geometry":{"type":"Point","coordinates":[114.305803,30.700271]},"properties":{"name":"晓丽菜馆","xiaolei":"7315012","address":"","zhonglei":"7315","dalei":"3","type":"rice"}},
{"type":"Feature","geometry":{"type":"Point","coordinates":[114.305814,30.699712]},"properties":{"name":"小会宾酒楼","xiaolei":"7315001","address":"","zhonglei":"7315","dalei":"3","type":"rice"}},
{"type":"Feature","geometry":{"type":"Point","coordinates":[114.367221,30.679141]},"properties":{"name":"翠竹山庄","xiaolei":"7315012","address":"谌家矶大道42","zhonglei":"7315","dalei":"3","type":"rice"}},
{"type":"Feature","geometry":{"type":"Point","coordinates":[114.324717,30.66725]},"properties":{"name":"川味酒家（汉黄路）","xiaolei":"7315056","address":"","zhonglei":"7315","dalei":"3","type":"rice"}},
{"type":"Feature","geometry":{"type":"Point","coordinates":[114.323236,30.669564]},"properties":{"name":"光明老街坊酒店（岱家山分店）","xiaolei":"7315012","address":"汉黄路28号附近","zhonglei":"7315","dalei":"3","type":"rice"}},
{"type":"Feature","geometry":{"type":"Point","coordinates":[114.354366,30.670914]},"properties":{"name":"兴业酒楼","xiaolei":"7315001","address":"谌家矶大道8附6","zhonglei":"7315","dalei":"3","type":"rice"}},
{"type":"Feature","geometry":{"type":"Point","coordinates":[114.348693,30.679031]},"properties":{"name":"鑫梦汉口人家","xiaolei":"7315012","address":"武汉港客运站底座","zhonglei":"7315","dalei":"3","type":"rice"}},
{"type":"Feature","geometry":{"type":"Point","coordinates":[114.369704,30.680884]},"properties":{"name":"古月轩","xiaolei":"7315012","address":"","zhonglei":"7315","dalei":"3","type":"rice"}},
{"type":"Feature","geometry":{"type":"Point","coordinates":[114.368119,30.693715]},"properties":{"name":"小艳阳餐厅","xiaolei":"7315012","address":"谌家矶大道55号附3号","zhonglei":"7315","dalei":"3","type":"rice"}},
{"type":"Feature","geometry":{"type":"Point","coordinates":[114.315672,30.701646]},"properties":{"name":"汉口北汽车餐厅","xiaolei":"7315012","address":"","zhonglei":"7315","dalei":"3","type":"rice"}},
{"type":"Feature","geometry":{"type":"Point","coordinates":[114.343539,30.716362]},"properties":{"name":"晶诚酒店","xiaolei":"7315012","address":"","zhonglei":"7315","dalei":"3","type":"rice"}},
{"type":"Feature","geometry":{"type":"Point","coordinates":[114.256042,30.711411]},"properties":{"name":"新皮匠土菜馆","xiaolei":"7315012","address":"巨龙大道179附2号","zhonglei":"7315","dalei":"3","type":"rice"}},
{"type":"Feature","geometry":{"type":"Point","coordinates":[114.256246,30.711383]},"properties":{"name":"盘龙酒轩美食城","xiaolei":"7315012","address":"巨龙大道177","zhonglei":"7315","dalei":"3","type":"rice"}},
{"type":"Feature","geometry":{"type":"Point","coordinates":[114.269552,30.71124]},"properties":{"name":"功夫好汉派餐厅","xiaolei":"7315012","address":"","zhonglei":"7315","dalei":"3","type":"rice"}},
{"type":"Feature","geometry":{"type":"Point","coordinates":[114.368101,30.693708]},"properties":{"name":"华莱士（城开·天兴花园北）","xiaolei":"7315015","address":"","zhonglei":"7315","dalei":"3","type":"rice"}},
{"type":"Feature","geometry":{"type":"Point","coordinates":[114.368016,30.693675]},"properties":{"name":"一品香粉面","xiaolei":"7315012","address":"","zhonglei":"7315","dalei":"3","type":"rice"}},
{"type":"Feature","geometry":{"type":"Point","coordinates":[114.367968,30.693658]},"properties":{"name":"炀炀快餐","xiaolei":"7315012","address":"","zhonglei":"7315","dalei":"3","type":"rice"}},
{"type":"Feature","geometry":{"type":"Point","coordinates":[114.365828,30.692747]},"properties":{"name":"佬表汤馆（谌家矶街社区卫生服务中","xiaolei":"7315012","address":"","zhonglei":"7315","dalei":"3","type":"rice"}},
{"type":"Feature","geometry":{"type":"Point","coordinates":[114.36452,30.692179]},"properties":{"name":"盘龙人和酒家","xiaolei":"7315012","address":"余山村13","zhonglei":"7315","dalei":"3","type":"rice"}},
{"type":"Feature","geometry":{"type":"Point","coordinates":[114.364043,30.691971]},"properties":{"name":"重庆鸡公煲（谌家矶街社区卫生服务","xiaolei":"7315056","address":"谌家矶余山村7号","zhonglei":"7315","dalei":"3","type":"rice"}},
{"type":"Feature","geometry":{"type":"Point","coordinates":[114.363582,30.691764]},"properties":{"name":"小江南酒家（兴盛路）","xiaolei":"7315012","address":"谌家矶新建村","zhonglei":"7315","dalei":"3","type":"rice"}},
{"type":"Feature","geometry":{"type":"Point","coordinates":[114.3649,30.688494]},"properties":{"name":"佳乐烧烤","xiaolei":"7315012","address":"","zhonglei":"7315","dalei":"3","type":"rice"}},
{"type":"Feature","geometry":{"type":"Point","coordinates":[114.323056,30.669895]},"properties":{"name":"五星美食城","xiaolei":"7315012","address":"综合市场旁","zhonglei":"7315","dalei":"3","type":"rice"}},
{"type":"Feature","geometry":{"type":"Point","coordinates":[114.251588,30.712504]},"properties":{"name":"鑫天地酒楼","xiaolei":"7315001","address":"巨龙大道199附7","zhonglei":"7315","dalei":"3","type":"rice"}},
{"type":"Feature","geometry":{"type":"Point","coordinates":[114.254958,30.697482]},"properties":{"name":"黄泥岗土菜（中国院子东南）","xiaolei":"7315012","address":"","zhonglei":"7315","dalei":"3","type":"rice"}},
{"type":"Feature","geometry":{"type":"Point","coordinates":[114.295767,30.698697]},"properties":{"name":"雅舒休闲会所","xiaolei":"7315001","address":"","zhonglei":"7315","dalei":"3","type":"rice"}},
{"type":"Feature","geometry":{"type":"Point","coordinates":[114.306197,30.697681]},"properties":{"name":"汉北酒楼","xiaolei":"7315001","address":"","zhonglei":"7315","dalei":"3","type":"rice"}},
{"type":"Feature","geometry":{"type":"Point","coordinates":[114.303331,30.72642]},"properties":{"name":"蒲洲渔庄","xiaolei":"7315043","address":"","zhonglei":"7315","dalei":"3","type":"rice"}},
{"type":"Feature","geometry":{"type":"Point","coordinates":[114.268988,30.711343]},"properties":{"name":"雨果时尚餐厅","xiaolei":"7315012","address":"城巨龙大道名流人和天地旁边","zhonglei":"7315","dalei":"3","type":"rice"}},
{"type":"Feature","geometry":{"type":"Point","coordinates":[114.330321,30.714931]},"properties":{"name":"福建平价海鲜酒楼","xiaolei":"7315043","address":"","zhonglei":"7315","dalei":"3","type":"rice"}},
{"type":"Feature","geometry":{"type":"Point","coordinates":[114.314144,30.704731]},"properties":{"name":"美滋美","xiaolei":"7315012","address":"","zhonglei":"7315","dalei":"3","type":"rice"}},
{"type":"Feature","geometry":{"type":"Point","coordinates":[114.313415,30.70384]},"properties":{"name":"玖闻天下经典生活馆","xiaolei":"7315012","address":"","zhonglei":"7315","dalei":"3","type":"rice"}},
{"type":"Feature","geometry":{"type":"Point","coordinates":[114.310278,30.695534]},"properties":{"name":"民间老屋（汉黄路）","xiaolei":"7315012","address":"滠口道贯泉","zhonglei":"7315","dalei":"3","type":"rice"}},
{"type":"Feature","geometry":{"type":"Point","coordinates":[114.348456,30.717701]},"properties":{"name":"新地苑酒店","xiaolei":"7315012","address":"滠阳大街164","zhonglei":"7315","dalei":"3","type":"rice"}},
{"type":"Feature","geometry":{"type":"Point","coordinates":[114.346809,30.714183]},"properties":{"name":"蓬莱酒店","xiaolei":"7315012","address":"滠新道23","zhonglei":"7315","dalei":"3","type":"rice"}},
{"type":"Feature","geometry":{"type":"Point","coordinates":[114.331987,30.712855]},"properties":{"name":"打渔翁餐厅（汉口北店）","xiaolei":"7315012","address":"","zhonglei":"7315","dalei":"3","type":"rice"}},
{"type":"Feature","geometry":{"type":"Point","coordinates":[114.343635,30.718275]},"properties":{"name":"简朴寨（汉口北店）","xiaolei":"7315012","address":"","zhonglei":"7315","dalei":"3","type":"rice"}},
{"type":"Feature","geometry":{"type":"Point","coordinates":[114.341163,30.666908]},"properties":{"name":"红楼酒店","xiaolei":"7315012","address":"","zhonglei":"7315","dalei":"3","type":"rice"}},
{"type":"Feature","geometry":{"type":"Point","coordinates":[114.331524,30.681269]},"properties":{"name":"龙源酒楼","xiaolei":"7315012","address":"","zhonglei":"7315","dalei":"3","type":"rice"}},
{"type":"Feature","geometry":{"type":"Point","coordinates":[114.250966,30.73442]},"properties":{"name":"必胜客（盘龙奥莱店）","xiaolei":"7315015","address":"盘龙城经济开发区盘龙大道51号奥克莱","zhonglei":"7315","dalei":"3","type":"rice"}},
{"type":"Feature","geometry":{"type":"Point","coordinates":[114.347604,30.719481]},"properties":{"name":"重庆酒家（巨龙大道）","xiaolei":"7315056","address":"","zhonglei":"7315","dalei":"3","type":"rice"}},
{"type":"Feature","geometry":{"type":"Point","coordinates":[114.349581,30.720068]},"properties":{"name":"驻龙农家菜馆","xiaolei":"7315012","address":"","zhonglei":"7315","dalei":"3","type":"rice"}},
{"type":"Feature","geometry":{"type":"Point","coordinates":[114.324393,30.66781]},"properties":{"name":"小四川餐厅","xiaolei":"7315012","address":"","zhonglei":"7315","dalei":"3","type":"rice"}},
{"type":"Feature","geometry":{"type":"Point","coordinates":[114.324548,30.667554]},"properties":{"name":"鑫怡美食","xiaolei":"7315012","address":"","zhonglei":"7315","dalei":"3","type":"rice"}},
{"type":"Feature","geometry":{"type":"Point","coordinates":[114.323056,30.669894]},"properties":{"name":"陈记炸酱面馆（汉黄路）","xiaolei":"7315012","address":"","zhonglei":"7315","dalei":"3","type":"rice"}},
{"type":"Feature","geometry":{"type":"Point","coordinates":[114.32424,30.667105]},"properties":{"name":"简朴寨（汉黄路）","xiaolei":"7315012","address":"汉黄路11号","zhonglei":"7315","dalei":"3","type":"rice"}},
{"type":"Feature","geometry":{"type":"Point","coordinates":[114.316074,30.666875]},"properties":{"name":"鹏记热干面（东勤佳苑西北）","xiaolei":"7315012","address":"","zhonglei":"7315","dalei":"3","type":"rice"}},
{"type":"Feature","geometry":{"type":"Point","coordinates":[114.366897,30.679494]},"properties":{"name":"美味厨林","xiaolei":"7315012","address":"","zhonglei":"7315","dalei":"3","type":"rice"}},
{"type":"Feature","geometry":{"type":"Point","coordinates":[114.365063,30.678609]},"properties":{"name":"鲜上鲜","xiaolei":"7315012","address":"","zhonglei":"7315","dalei":"3","type":"rice"}},
{"type":"Feature","geometry":{"type":"Point","coordinates":[114.361829,30.677343]},"properties":{"name":"三镇人家","xiaolei":"7315012","address":"","zhonglei":"7315","dalei":"3","type":"rice"}},
{"type":"Feature","geometry":{"type":"Point","coordinates":[114.254835,30.714538]},"properties":{"name":"黄泥岗土菜（盘龙大道）","xiaolei":"7315012","address":"","zhonglei":"7315","dalei":"3","type":"rice"}},
{"type":"Feature","geometry":{"type":"Point","coordinates":[114.254814,30.726323]},"properties":{"name":"金满酒楼","xiaolei":"7315001","address":"","zhonglei":"7315","dalei":"3","type":"rice"}},
{"type":"Feature","geometry":{"type":"Point","coordinates":[114.347194,30.71443]},"properties":{"name":"雨巢","xiaolei":"7315001","address":"","zhonglei":"7315","dalei":"3","type":"rice"}},
{"type":"Feature","geometry":{"type":"Point","coordinates":[114.348813,30.719204]},"properties":{"name":"同心顺餐厅","xiaolei":"7315012","address":"滠阳大街377","zhonglei":"7315","dalei":"3","type":"rice"}},
{"type":"Feature","geometry":{"type":"Point","coordinates":[114.314021,30.702657]},"properties":{"name":"简朴寨（汉口北旗舰店）","xiaolei":"7315012","address":"城经济开发区汉口北大道80号","zhonglei":"7315","dalei":"3","type":"rice"}},
{"type":"Feature","geometry":{"type":"Point","coordinates":[114.310733,30.694175]},"properties":{"name":"老街坊菜馆","xiaolei":"7315012","address":"","zhonglei":"7315","dalei":"3","type":"rice"}},
{"type":"Feature","geometry":{"type":"Point","coordinates":[114.310757,30.694111]},"properties":{"name":"美食美客餐厅（盘龙·瑞祥熙园西北）","xiaolei":"7315012","address":"","zhonglei":"7315","dalei":"3","type":"rice"}},
{"type":"Feature","geometry":{"type":"Point","coordinates":[114.310707,30.694241]},"properties":{"name":"万氏家常菜","xiaolei":"7315012","address":"","zhonglei":"7315","dalei":"3","type":"rice"}},
{"type":"Feature","geometry":{"type":"Point","coordinates":[114.295058,30.700049]},"properties":{"name":"小灶食堂","xiaolei":"7315012","address":"盘龙城步行街D-8","zhonglei":"7315","dalei":"3","type":"rice"}},
{"type":"Feature","geometry":{"type":"Point","coordinates":[114.292851,30.701237]},"properties":{"name":"Ｎｏ．１企业社区第一行政餐厅","xiaolei":"7315012","address":"","zhonglei":"7315","dalei":"3","type":"rice"}},
{"type":"Feature","geometry":{"type":"Point","coordinates":[114.295093,30.700533]},"properties":{"name":"盘龙鱼府（汉口北店）","xiaolei":"7315043","address":"","zhonglei":"7315","dalei":"3","type":"rice"}},
{"type":"Feature","geometry":{"type":"Point","coordinates":[114.295099,30.700642]},"properties":{"name":"百味轩（卓尔大厦东）","xiaolei":"7315012","address":"巨龙大道1号","zhonglei":"7315","dalei":"3","type":"rice"}},
{"type":"Feature","geometry":{"type":"Point","coordinates":[114.295091,30.70045]},"properties":{"name":"熊家菜","xiaolei":"7315012","address":"","zhonglei":"7315","dalei":"3","type":"rice"}},
{"type":"Feature","geometry":{"type":"Point","coordinates":[114.29509,30.700381]},"properties":{"name":"好益家","xiaolei":"7315012","address":"","zhonglei":"7315","dalei":"3","type":"rice"}},
{"type":"Feature","geometry":{"type":"Point","coordinates":[114.295099,30.70076]},"properties":{"name":"江西汤美食馆","xiaolei":"7315012","address":"","zhonglei":"7315","dalei":"3","type":"rice"}},
{"type":"Feature","geometry":{"type":"Point","coordinates":[114.258344,30.711053]},"properties":{"name":"喜福来农家菜馆","xiaolei":"7315012","address":"","zhonglei":"7315","dalei":"3","type":"rice"}},
{"type":"Feature","geometry":{"type":"Point","coordinates":[114.335549,30.716949]},"properties":{"name":"星灿食府","xiaolei":"7315012","address":"","zhonglei":"7315","dalei":"3","type":"rice"}},
{"type":"Feature","geometry":{"type":"Point","coordinates":[114.366782,30.693299]},"properties":{"name":"麦点餐厅（湖大分店）","xiaolei":"7315012","address":"","zhonglei":"7315","dalei":"3","type":"rice"}},
{"type":"Feature","geometry":{"type":"Point","coordinates":[114.35432,30.670811]},"properties":{"name":"郁金香酒楼","xiaolei":"7315001","address":"谌家矶大道8附5","zhonglei":"7315","dalei":"3","type":"rice"}},
{"type":"Feature","geometry":{"type":"Point","coordinates":[114.273922,30.668059]},"properties":{"name":"麦当劳","xiaolei":"7315015","address":"","zhonglei":"7315","dalei":"3","type":"rice"}},
{"type":"Feature","geometry":{"type":"Point","coordinates":[114.301884,30.725375]},"properties":{"name":"后湖水乡荷花餐厅","xiaolei":"7315012","address":"","zhonglei":"7315","dalei":"3","type":"rice"}},
{"type":"Feature","geometry":{"type":"Point","coordinates":[114.302955,30.726409]},"properties":{"name":"蒲州渔庄","xiaolei":"7315012","address":"","zhonglei":"7315","dalei":"3","type":"rice"}},
{"type":"Feature","geometry":{"type":"Point","coordinates":[114.307383,30.725974]},"properties":{"name":"后湖好吃饭庄","xiaolei":"7315012","address":"","zhonglei":"7315","dalei":"3","type":"rice"}},
{"type":"Feature","geometry":{"type":"Point","coordinates":[114.297173,30.702341]},"properties":{"name":"后湖水悦农庄","xiaolei":"7315012","address":"","zhonglei":"7315","dalei":"3","type":"rice"}},
{"type":"Feature","geometry":{"type":"Point","coordinates":[114.365076,30.678782]},"properties":{"name":"灶味香酒楼","xiaolei":"7315012","address":"谌家矶大道69","zhonglei":"7315","dalei":"3","type":"rice"}},
{"type":"Feature","geometry":{"type":"Point","coordinates":[114.348917,30.718539]},"properties":{"name":"百味轩","xiaolei":"7315012","address":"滠阳大街315","zhonglei":"7315","dalei":"3","type":"rice"}},
{"type":"Feature","geometry":{"type":"Point","coordinates":[114.347523,30.714285]},"properties":{"name":"江西汤一绝","xiaolei":"7315012","address":"","zhonglei":"7315","dalei":"3","type":"rice"}},
{"type":"Feature","geometry":{"type":"Point","coordinates":[114.271217,30.712216]},"properties":{"name":"粗茶淡饭","xiaolei":"7315012","address":"","zhonglei":"7315","dalei":"3","type":"rice"}},
{"type":"Feature","geometry":{"type":"Point","coordinates":[114.27174,30.71222]},"properties":{"name":"乐鑫美食馆","xiaolei":"7315012","address":"","zhonglei":"7315","dalei":"3","type":"rice"}},
{"type":"Feature","geometry":{"type":"Point","coordinates":[114.295197,30.70097]},"properties":{"name":"好地方餐厅","xiaolei":"7315012","address":"巨龙大道1号","zhonglei":"7315","dalei":"3","type":"rice"}},
{"type":"Feature","geometry":{"type":"Point","coordinates":[114.295215,30.701101]},"properties":{"name":"珍膳美","xiaolei":"7315012","address":"巨龙大道1号","zhonglei":"7315","dalei":"3","type":"rice"}},
{"type":"Feature","geometry":{"type":"Point","coordinates":[114.295208,30.701272]},"properties":{"name":"大掌柜生活菜","xiaolei":"7315012","address":"巨龙大道1号","zhonglei":"7315","dalei":"3","type":"rice"}},
{"type":"Feature","geometry":{"type":"Point","coordinates":[114.295238,30.701688]},"properties":{"name":"豆味堂","xiaolei":"7315012","address":"巨龙大道1号","zhonglei":"7315","dalei":"3","type":"rice"}},
{"type":"Feature","geometry":{"type":"Point","coordinates":[114.295245,30.701818]},"properties":{"name":"楚香园","xiaolei":"7315012","address":"巨龙大道1号","zhonglei":"7315","dalei":"3","type":"rice"}},
{"type":"Feature","geometry":{"type":"Point","coordinates":[114.295251,30.701952]},"properties":{"name":"７８酒食","xiaolei":"7315012","address":"巨龙大道1号","zhonglei":"7315","dalei":"3","type":"rice"}},
{"type":"Feature","geometry":{"type":"Point","coordinates":[114.349588,30.719906]},"properties":{"name":"龙饮山庄","xiaolei":"7315012","address":"滠阳大街411","zhonglei":"7315","dalei":"3","type":"rice"}},
{"type":"Feature","geometry":{"type":"Point","coordinates":[114.347656,30.716689]},"properties":{"name":"太郎酒楼","xiaolei":"7315012","address":"","zhonglei":"7315","dalei":"3","type":"rice"}},
{"type":"Feature","geometry":{"type":"Point","coordinates":[114.357286,30.676139]},"properties":{"name":"回春园酒家","xiaolei":"7315012","address":"","zhonglei":"7315","dalei":"3","type":"rice"}},
{"type":"Feature","geometry":{"type":"Point","coordinates":[114.344842,30.714731]},"properties":{"name":"湘阁酒楼","xiaolei":"7315012","address":"滠新道67","zhonglei":"7315","dalei":"3","type":"rice"}},
{"type":"Feature","geometry":{"type":"Point","coordinates":[114.363955,30.677422]},"properties":{"name":"豪爽农家菜馆","xiaolei":"7315012","address":"谌家矶大道34附5","zhonglei":"7315","dalei":"3","type":"rice"}},
{"type":"Feature","geometry":{"type":"Point","coordinates":[114.364387,30.688241]},"properties":{"name":"红武人家","xiaolei":"7315012","address":"","zhonglei":"7315","dalei":"3","type":"rice"}},
{"type":"Feature","geometry":{"type":"Point","coordinates":[114.365736,30.692823]},"properties":{"name":"重庆火锅城","xiaolei":"7315058","address":"","zhonglei":"7315","dalei":"3","type":"rice"}},
{"type":"Feature","geometry":{"type":"Point","coordinates":[114.366073,30.692991]},"properties":{"name":"雷记饺子馆","xiaolei":"7315012","address":"","zhonglei":"7315","dalei":"3","type":"rice"}},
{"type":"Feature","geometry":{"type":"Point","coordinates":[114.366016,30.69296]},"properties":{"name":"农家小院","xiaolei":"7315012","address":"","zhonglei":"7315","dalei":"3","type":"rice"}},
{"type":"Feature","geometry":{"type":"Point","coordinates":[114.34815,30.719427]},"properties":{"name":"渔村","xiaolei":"7315012","address":"","zhonglei":"7315","dalei":"3","type":"rice"}},
{"type":"Feature","geometry":{"type":"Point","coordinates":[114.347934,30.713953]},"properties":{"name":"滠口民生甜食馆","xiaolei":"7315012","address":"","zhonglei":"7315","dalei":"3","type":"rice"}},
{"type":"Feature","geometry":{"type":"Point","coordinates":[114.310766,30.694173]},"properties":{"name":"香锅泥鳅庄","xiaolei":"7315058","address":"","zhonglei":"7315","dalei":"3","type":"rice"}},
{"type":"Feature","geometry":{"type":"Point","coordinates":[114.311899,30.691189]},"properties":{"name":"醉仙酒楼","xiaolei":"7315012","address":"","zhonglei":"7315","dalei":"3","type":"rice"}},
{"type":"Feature","geometry":{"type":"Point","coordinates":[114.367822,30.693941]},"properties":{"name":"鑫源美食城","xiaolei":"7315012","address":"","zhonglei":"7315","dalei":"3","type":"rice"}},
{"type":"Feature","geometry":{"type":"Point","coordinates":[114.344989,30.715355]},"properties":{"name":"２８８酸菜鱼","xiaolei":"7315012","address":"","zhonglei":"7315","dalei":"3","type":"rice"}},
{"type":"Feature","geometry":{"type":"Point","coordinates":[114.315588,30.705345]},"properties":{"name":"津久美食家","xiaolei":"7315012","address":"","zhonglei":"7315","dalei":"3","type":"rice"}},
{"type":"Feature","geometry":{"type":"Point","coordinates":[114.363762,30.687989]},"properties":{"name":"行行行私房菜","xiaolei":"7315012","address":"","zhonglei":"7315","dalei":"3","type":"rice"}},
{"type":"Feature","geometry":{"type":"Point","coordinates":[114.310448,30.695012]},"properties":{"name":"巴渝川菜馆","xiaolei":"7315056","address":"","zhonglei":"7315","dalei":"3","type":"rice"}},
{"type":"Feature","geometry":{"type":"Point","coordinates":[114.345202,30.714598]},"properties":{"name":"水之林酒楼","xiaolei":"7315012","address":"","zhonglei":"7315","dalei":"3","type":"rice"}},
{"type":"Feature","geometry":{"type":"Point","coordinates":[114.414415,30.701693]},"properties":{"name":"发明酒楼","xiaolei":"7315001","address":"肖咀路220","zhonglei":"7315","dalei":"3","type":"rice"}},
{"type":"Feature","geometry":{"type":"Point","coordinates":[114.474471,30.707337]},"properties":{"name":"沙口中心餐厅","xiaolei":"7315012","address":"孙家墩50","zhonglei":"7315","dalei":"3","type":"rice"}},
{"type":"Feature","geometry":{"type":"Point","coordinates":[114.424847,30.708045]},"properties":{"name":"老乡长（武湖店）","xiaolei":"7315012","address":"","zhonglei":"7315","dalei":"3","type":"rice"}},
{"type":"Feature","geometry":{"type":"Point","coordinates":[114.377579,30.72461]},"properties":{"name":"老三餐馆","xiaolei":"7315012","address":"","zhonglei":"7315","dalei":"3","type":"rice"}},
{"type":"Feature","geometry":{"type":"Point","coordinates":[114.377594,30.724651]},"properties":{"name":"湘西阁私房菜","xiaolei":"7315052","address":"中国家具CBD内","zhonglei":"7315","dalei":"3","type":"rice"}},
{"type":"Feature","geometry":{"type":"Point","coordinates":[114.377626,30.724701]},"properties":{"name":"美味堂","xiaolei":"7315012","address":"","zhonglei":"7315","dalei":"3","type":"rice"}},
{"type":"Feature","geometry":{"type":"Point","coordinates":[114.377655,30.724751]},"properties":{"name":"新吉祥餐厅","xiaolei":"7315012","address":"中国家具CBD内","zhonglei":"7315","dalei":"3","type":"rice"}},
{"type":"Feature","geometry":{"type":"Point","coordinates":[114.377064,30.723584]},"properties":{"name":"十全美食城","xiaolei":"7315012","address":"","zhonglei":"7315","dalei":"3","type":"rice"}},
{"type":"Feature","geometry":{"type":"Point","coordinates":[114.377044,30.723709]},"properties":{"name":"馨东方美食","xiaolei":"7315012","address":"中国家具CBD内","zhonglei":"7315","dalei":"3","type":"rice"}},
{"type":"Feature","geometry":{"type":"Point","coordinates":[114.42471,30.708023]},"properties":{"name":"王老二养生砂锅","xiaolei":"7315012","address":"徐湾南区8","zhonglei":"7315","dalei":"3","type":"rice"}},
{"type":"Feature","geometry":{"type":"Point","coordinates":[114.409457,30.70294]},"properties":{"name":"笑口尝开当家私房菜","xiaolei":"7315012","address":"","zhonglei":"7315","dalei":"3","type":"rice"}},
{"type":"Feature","geometry":{"type":"Point","coordinates":[114.403551,30.699113]},"properties":{"name":"五湖四海","xiaolei":"7315012","address":"","zhonglei":"7315","dalei":"3","type":"rice"}},
{"type":"Feature","geometry":{"type":"Point","coordinates":[114.424556,30.708017]},"properties":{"name":"食家庄（泰合雅文东）","xiaolei":"7315012","address":"","zhonglei":"7315","dalei":"3","type":"rice"}},
{"type":"Feature","geometry":{"type":"Point","coordinates":[114.407204,30.700827]},"properties":{"name":"武湖食府","xiaolei":"7315012","address":"","zhonglei":"7315","dalei":"3","type":"rice"}},
{"type":"Feature","geometry":{"type":"Point","coordinates":[114.407399,30.700918]},"properties":{"name":"简朴田园寨（武湖旗舰店）","xiaolei":"7315012","address":"","zhonglei":"7315","dalei":"3","type":"rice"}},
{"type":"Feature","geometry":{"type":"Point","coordinates":[114.401887,30.698825]},"properties":{"name":"都市农庄","xiaolei":"7315012","address":"","zhonglei":"7315","dalei":"3","type":"rice"}},
{"type":"Feature","geometry":{"type":"Point","coordinates":[114.376308,30.683686]},"properties":{"name":"四季如春餐厅","xiaolei":"7315012","address":"","zhonglei":"7315","dalei":"3","type":"rice"}},
{"type":"Feature","geometry":{"type":"Point","coordinates":[114.410094,30.702163]},"properties":{"name":"陈记炸酱面馆（汉施路）","xiaolei":"7315012","address":"","zhonglei":"7315","dalei":"3","type":"rice"}},
{"type":"Feature","geometry":{"type":"Point","coordinates":[114.410319,30.702135]},"properties":{"name":"祥泰酒楼","xiaolei":"7315012","address":"武湖农场五通口梅教路","zhonglei":"7315","dalei":"3","type":"rice"}},
{"type":"Feature","geometry":{"type":"Point","coordinates":[114.420971,30.706421]},"properties":{"name":"食尚川味轩","xiaolei":"7315056","address":"","zhonglei":"7315","dalei":"3","type":"rice"}},
{"type":"Feature","geometry":{"type":"Point","coordinates":[114.415868,30.705278]},"properties":{"name":"当阳郭场火锅鸡","xiaolei":"7315012","address":"","zhonglei":"7315","dalei":"3","type":"rice"}},
{"type":"Feature","geometry":{"type":"Point","coordinates":[114.409475,30.702346]},"properties":{"name":"新厨娘","xiaolei":"7315012","address":"","zhonglei":"7315","dalei":"3","type":"rice"}},
{"type":"Feature","geometry":{"type":"Point","coordinates":[114.402469,30.699068]},"properties":{"name":"万福酒家","xiaolei":"7315012","address":"","zhonglei":"7315","dalei":"3","type":"rice"}},
{"type":"Feature","geometry":{"type":"Point","coordinates":[114.414956,30.702177]},"properties":{"name":"丰年农家饭庄","xiaolei":"7315012","address":"武湖农场肖咀路204号","zhonglei":"7315","dalei":"3","type":"rice"}},
{"type":"Feature","geometry":{"type":"Point","coordinates":[114.413604,30.701493]},"properties":{"name":"月心酒楼","xiaolei":"7315001","address":"","zhonglei":"7315","dalei":"3","type":"rice"}},
{"type":"Feature","geometry":{"type":"Point","coordinates":[114.409415,30.702789]},"properties":{"name":"新食尚（黄陂店）","xiaolei":"7315012","address":"","zhonglei":"7315","dalei":"3","type":"rice"}},
{"type":"Feature","geometry":{"type":"Point","coordinates":[114.377509,30.72387]},"properties":{"name":"万万家常菜","xiaolei":"7315012","address":"","zhonglei":"7315","dalei":"3","type":"rice"}},
{"type":"Feature","geometry":{"type":"Point","coordinates":[114.408809,30.703741]},"properties":{"name":"红村人家","xiaolei":"7315012","address":"梅教街44","zhonglei":"7315","dalei":"3","type":"rice"}},
{"type":"Feature","geometry":{"type":"Point","coordinates":[114.412736,30.675845]},"properties":{"name":"天缘庄","xiaolei":"7315012","address":"","zhonglei":"7315","dalei":"3","type":"rice"}},
{"type":"Feature","geometry":{"type":"Point","coordinates":[114.415235,30.702296]},"properties":{"name":"小食堂","xiaolei":"7315012","address":"肖咀路200","zhonglei":"7315","dalei":"3","type":"rice"}},
{"type":"Feature","geometry":{"type":"Point","coordinates":[114.392708,30.733218]},"properties":{"name":"唯一酒楼","xiaolei":"7315012","address":"","zhonglei":"7315","dalei":"3","type":"rice"}},
{"type":"Feature","geometry":{"type":"Point","coordinates":[114.408729,30.705073]},"properties":{"name":"农家乐大酒店","xiaolei":"7315012","address":"","zhonglei":"7315","dalei":"3","type":"rice"}},
{"type":"Feature","geometry":{"type":"Point","coordinates":[114.409303,30.702931]},"properties":{"name":"梅教简朴菜馆","xiaolei":"7315012","address":"","zhonglei":"7315","dalei":"3","type":"rice"}},
{"type":"Feature","geometry":{"type":"Point","coordinates":[114.414858,30.703362]},"properties":{"name":"可可农家饭","xiaolei":"7315012","address":"","zhonglei":"7315","dalei":"3","type":"rice"}},
{"type":"Feature","geometry":{"type":"Point","coordinates":[114.410918,30.701579]},"properties":{"name":"醉仙阁酒店","xiaolei":"7315012","address":"","zhonglei":"7315","dalei":"3","type":"rice"}},
{"type":"Feature","geometry":{"type":"Point","coordinates":[114.415187,30.702248]},"properties":{"name":"农家菜馆","xiaolei":"7315012","address":"","zhonglei":"7315","dalei":"3","type":"rice"}},
{"type":"Feature","geometry":{"type":"Point","coordinates":[114.377093,30.723166]},"properties":{"name":"聚鲜大酒楼","xiaolei":"7315012","address":"","zhonglei":"7315","dalei":"3","type":"rice"}},
{"type":"Feature","geometry":{"type":"Point","coordinates":[114.409367,30.702848]},"properties":{"name":"水货鲜鱼村","xiaolei":"7315012","address":"","zhonglei":"7315","dalei":"3","type":"rice"}},
{"type":"Feature","geometry":{"type":"Point","coordinates":[114.408001,30.706154]},"properties":{"name":"慧慧酒家","xiaolei":"7315012","address":"","zhonglei":"7315","dalei":"3","type":"rice"}},
{"type":"Feature","geometry":{"type":"Point","coordinates":[114.409091,30.703233]},"properties":{"name":"鑫源酒家","xiaolei":"7315012","address":"","zhonglei":"7315","dalei":"3","type":"rice"}},
{"type":"Feature","geometry":{"type":"Point","coordinates":[114.41449,30.703691]},"properties":{"name":"荆楚美味杜家鸡","xiaolei":"7315012","address":"","zhonglei":"7315","dalei":"3","type":"rice"}},
{"type":"Feature","geometry":{"type":"Point","coordinates":[114.410201,30.702072]},"properties":{"name":"红太阳农家菜","xiaolei":"7315012","address":"","zhonglei":"7315","dalei":"3","type":"rice"}},
{"type":"Feature","geometry":{"type":"Point","coordinates":[114.527452,30.714368]},"properties":{"name":"金诚食府","xiaolei":"7315012","address":"","zhonglei":"7315","dalei":"3","type":"rice"}},
{"type":"Feature","geometry":{"type":"Point","coordinates":[114.527633,30.710511]},"properties":{"name":"金迪新大酒店","xiaolei":"7315012","address":"","zhonglei":"7315","dalei":"3","type":"rice"}},
{"type":"Feature","geometry":{"type":"Point","coordinates":[114.520216,30.710783]},"properties":{"name":"回味饭馆","xiaolei":"7315012","address":"","zhonglei":"7315","dalei":"3","type":"rice"}},
{"type":"Feature","geometry":{"type":"Point","coordinates":[114.513776,30.711521]},"properties":{"name":"三胖子农家菜馆","xiaolei":"7315012","address":"","zhonglei":"7315","dalei":"3","type":"rice"}},
{"type":"Feature","geometry":{"type":"Point","coordinates":[114.515628,30.711282]},"properties":{"name":"好百年餐馆","xiaolei":"7315012","address":"","zhonglei":"7315","dalei":"3","type":"rice"}},
{"type":"Feature","geometry":{"type":"Point","coordinates":[114.520359,30.710784]},"properties":{"name":"情缘居美食","xiaolei":"7315012","address":"","zhonglei":"7315","dalei":"3","type":"rice"}},
{"type":"Feature","geometry":{"type":"Point","coordinates":[114.527668,30.716655]},"properties":{"name":"三哥家常菜","xiaolei":"7315012","address":"","zhonglei":"7315","dalei":"3","type":"rice"}},
{"type":"Feature","geometry":{"type":"Point","coordinates":[114.519843,30.710693]},"properties":{"name":"迪新酒楼","xiaolei":"7315012","address":"","zhonglei":"7315","dalei":"3","type":"rice"}},
{"type":"Feature","geometry":{"type":"Point","coordinates":[114.120274,30.628497]},"properties":{"name":"盈盈饺子馆","xiaolei":"7315012","address":"东吴大道619","zhonglei":"7315","dalei":"3","type":"rice"}},
{"type":"Feature","geometry":{"type":"Point","coordinates":[114.123912,30.622463]},"properties":{"name":"正宗兰州牛肉拉面（田园街）","xiaolei":"7315158","address":"田园街10","zhonglei":"7315","dalei":"3","type":"rice"}},
{"type":"Feature","geometry":{"type":"Point","coordinates":[114.124736,30.622458]},"properties":{"name":"旺旺小炒（田园街）","xiaolei":"7315012","address":"田园街44","zhonglei":"7315","dalei":"3","type":"rice"}},
{"type":"Feature","geometry":{"type":"Point","coordinates":[114.120518,30.628508]},"properties":{"name":"粥道（东吴大道）","xiaolei":"7315012","address":"东吴大道625","zhonglei":"7315","dalei":"3","type":"rice"}},
{"type":"Feature","geometry":{"type":"Point","coordinates":[114.12169,30.628545]},"properties":{"name":"永馨快餐","xiaolei":"7315012","address":"东吴大道665","zhonglei":"7315","dalei":"3","type":"rice"}},
{"type":"Feature","geometry":{"type":"Point","coordinates":[114.121702,30.597658]},"properties":{"name":"四通酒楼","xiaolei":"7315001","address":"慈惠墩285","zhonglei":"7315","dalei":"3","type":"rice"}},
{"type":"Feature","geometry":{"type":"Point","coordinates":[114.123661,30.627736]},"properties":{"name":"东西湖第一小贩中心南山美食广场","xiaolei":"7315012","address":"东吴大道644","zhonglei":"7315","dalei":"3","type":"rice"}},
{"type":"Feature","geometry":{"type":"Point","coordinates":[114.124451,30.628364]},"properties":{"name":"神户牛排（东吴大道）","xiaolei":"7315045","address":"东吴大道721","zhonglei":"7315","dalei":"3","type":"rice"}},
{"type":"Feature","geometry":{"type":"Point","coordinates":[114.122227,30.628596]},"properties":{"name":"重庆大师兄火锅（山水星辰店）","xiaolei":"7315058","address":"东吴大道677","zhonglei":"7315","dalei":"3","type":"rice"}},
{"type":"Feature","geometry":{"type":"Point","coordinates":[114.124991,30.626193]},"properties":{"name":"大家庭菜馆","xiaolei":"7315012","address":"南山路37","zhonglei":"7315","dalei":"3","type":"rice"}},
{"type":"Feature","geometry":{"type":"Point","coordinates":[114.121116,30.596622]},"properties":{"name":"福晟鱼庄","xiaolei":"7315043","address":"","zhonglei":"7315","dalei":"3","type":"rice"}},
{"type":"Feature","geometry":{"type":"Point","coordinates":[114.12453,30.626443]},"properties":{"name":"川味锅仔菜馆","xiaolei":"7315056","address":"","zhonglei":"7315","dalei":"3","type":"rice"}},
{"type":"Feature","geometry":{"type":"Point","coordinates":[114.124973,30.62644]},"properties":{"name":"南山映像酒店","xiaolei":"7315012","address":"","zhonglei":"7315","dalei":"3","type":"rice"}},
{"type":"Feature","geometry":{"type":"Point","coordinates":[114.123773,30.625318]},"properties":{"name":"宋氏私房菜","xiaolei":"7315012","address":"沁园街19","zhonglei":"7315","dalei":"3","type":"rice"}},
{"type":"Feature","geometry":{"type":"Point","coordinates":[114.123934,30.619692]},"properties":{"name":"好再来餐馆（东西湖大道辅路）","xiaolei":"7315012","address":"","zhonglei":"7315","dalei":"3","type":"rice"}},
{"type":"Feature","geometry":{"type":"Point","coordinates":[114.121886,30.61509]},"properties":{"name":"食里飘香餐厅","xiaolei":"7315012","address":"","zhonglei":"7315","dalei":"3","type":"rice"}},
{"type":"Feature","geometry":{"type":"Point","coordinates":[114.121682,30.615088]},"properties":{"name":"千滋百味生态餐厅","xiaolei":"7315012","address":"","zhonglei":"7315","dalei":"3","type":"rice"}},
{"type":"Feature","geometry":{"type":"Point","coordinates":[114.109818,30.614552]},"properties":{"name":"野山椒川菜馆","xiaolei":"7315056","address":"","zhonglei":"7315","dalei":"3","type":"rice"}},
{"type":"Feature","geometry":{"type":"Point","coordinates":[114.109627,30.614548]},"properties":{"name":"特色辣子鱼馆","xiaolei":"7315012","address":"","zhonglei":"7315","dalei":"3","type":"rice"}},
{"type":"Feature","geometry":{"type":"Point","coordinates":[114.109513,30.614555]},"properties":{"name":"川香风味馆","xiaolei":"7315056","address":"","zhonglei":"7315","dalei":"3","type":"rice"}},
{"type":"Feature","geometry":{"type":"Point","coordinates":[114.109441,30.614562]},"properties":{"name":"小四川平价美食坊","xiaolei":"7315056","address":"","zhonglei":"7315","dalei":"3","type":"rice"}},
{"type":"Feature","geometry":{"type":"Point","coordinates":[114.12256,30.614684]},"properties":{"name":"革新饭庄","xiaolei":"7315012","address":"革新大道七雄路","zhonglei":"7315","dalei":"3","type":"rice"}},
{"type":"Feature","geometry":{"type":"Point","coordinates":[114.12163,30.614645]},"properties":{"name":"味福餐厅","xiaolei":"7315012","address":"革新大道540","zhonglei":"7315","dalei":"3","type":"rice"}},
{"type":"Feature","geometry":{"type":"Point","coordinates":[114.122797,30.614689]},"properties":{"name":"土而奇家常菜馆","xiaolei":"7315012","address":"","zhonglei":"7315","dalei":"3","type":"rice"}},
{"type":"Feature","geometry":{"type":"Point","coordinates":[114.122682,30.628591]},"properties":{"name":"小城故事私房菜","xiaolei":"7315012","address":"东吴大道特8号","zhonglei":"7315","dalei":"3","type":"rice"}},
{"type":"Feature","geometry":{"type":"Point","coordinates":[114.120161,30.628639]},"properties":{"name":"天天平价酒轩","xiaolei":"7315012","address":"东吴大道623","zhonglei":"7315","dalei":"3","type":"rice"}},
{"type":"Feature","geometry":{"type":"Point","coordinates":[114.107997,30.613945]},"properties":{"name":"神农美食苑","xiaolei":"7315012","address":"革新大道476","zhonglei":"7315","dalei":"3","type":"rice"}},
{"type":"Feature","geometry":{"type":"Point","coordinates":[114.122641,30.614641]},"properties":{"name":"蜗居餐厅","xiaolei":"7315012","address":"革新大道542号","zhonglei":"7315","dalei":"3","type":"rice"}},
{"type":"Feature","geometry":{"type":"Point","coordinates":[114.121311,30.627928]},"properties":{"name":"重庆朝天门火锅","xiaolei":"7315058","address":"东吴大道622","zhonglei":"7315","dalei":"3","type":"rice"}},
{"type":"Feature","geometry":{"type":"Point","coordinates":[114.121951,30.615336]},"properties":{"name":"铂金酒轩（七雄路店）","xiaolei":"7315012","address":"","zhonglei":"7315","dalei":"3","type":"rice"}},
{"type":"Feature","geometry":{"type":"Point","coordinates":[114.111187,30.607148]},"properties":{"name":"银湖酒家","xiaolei":"7315012","address":"","zhonglei":"7315","dalei":"3","type":"rice"}},
{"type":"Feature","geometry":{"type":"Point","coordinates":[114.121659,30.628667]},"properties":{"name":"溢香家常菜","xiaolei":"7315012","address":"","zhonglei":"7315","dalei":"3","type":"rice"}},
{"type":"Feature","geometry":{"type":"Point","coordinates":[114.113596,30.608582]},"properties":{"name":"福满楼","xiaolei":"7315012","address":"","zhonglei":"7315","dalei":"3","type":"rice"}},
{"type":"Feature","geometry":{"type":"Point","coordinates":[114.214511,30.609116]},"properties":{"name":"汪大头包子店","xiaolei":"7315001","address":"云鹤一村314附14","zhonglei":"7315","dalei":"3","type":"rice"}},
{"type":"Feature","geometry":{"type":"Point","coordinates":[114.221703,30.585988]},"properties":{"name":"紫燕百味鸡（建设大道）","xiaolei":"7315001","address":"建设大道59","zhonglei":"7315","dalei":"3","type":"rice"}},
{"type":"Feature","geometry":{"type":"Point","coordinates":[114.246638,30.586709]},"properties":{"name":"紫燕百味鸡（宝丰一路）","xiaolei":"7315001","address":"宝丰二路105号","zhonglei":"7315","dalei":"3","type":"rice"}},
{"type":"Feature","geometry":{"type":"Point","coordinates":[114.204445,30.636559]},"properties":{"name":"动感美食","xiaolei":"7315043","address":"","zhonglei":"7315","dalei":"3","type":"rice"}},
{"type":"Feature","geometry":{"type":"Point","coordinates":[114.134962,30.62775]},"properties":{"name":"华洋新兴酒店（吴家山店）","xiaolei":"7315001","address":"吴祁街25号","zhonglei":"7315","dalei":"3","type":"rice"}},
{"type":"Feature","geometry":{"type":"Point","coordinates":[114.144854,30.620853]},"properties":{"name":"远大早点","xiaolei":"7315012","address":"二雅路14","zhonglei":"7315","dalei":"3","type":"rice"}},
{"type":"Feature","geometry":{"type":"Point","coordinates":[114.126554,30.627544]},"properties":{"name":"山里人家（东吴大道）","xiaolei":"7315012","address":"东吴大道六顺路769号","zhonglei":"7315","dalei":"3","type":"rice"}},
{"type":"Feature","geometry":{"type":"Point","coordinates":[114.137082,30.62288]},"properties":{"name":"实惠松滋鸡","xiaolei":"7315012","address":"田园街196","zhonglei":"7315","dalei":"3","type":"rice"}},
{"type":"Feature","geometry":{"type":"Point","coordinates":[114.137025,30.622877]},"properties":{"name":"辉辉松滋鸡","xiaolei":"7315012","address":"田园街194、1150","zhonglei":"7315","dalei":"3","type":"rice"}},
{"type":"Feature","geometry":{"type":"Point","coordinates":[114.13723,30.622896]},"properties":{"name":"小乐福松滋鸡","xiaolei":"7315012","address":"田园街202、1158","zhonglei":"7315","dalei":"3","type":"rice"}},
{"type":"Feature","geometry":{"type":"Point","coordinates":[114.138945,30.623021]},"properties":{"name":"秋林苑酒店","xiaolei":"7315012","address":"田园街258","zhonglei":"7315","dalei":"3","type":"rice"}},
{"type":"Feature","geometry":{"type":"Point","coordinates":[114.141018,30.623234]},"properties":{"name":"小平餐厅","xiaolei":"7315012","address":"田园街308","zhonglei":"7315","dalei":"3","type":"rice"}},
{"type":"Feature","geometry":{"type":"Point","coordinates":[114.134615,30.62312]},"properties":{"name":"乐意酒店（兆丰花园东北）","xiaolei":"7315012","address":"田园街207","zhonglei":"7315","dalei":"3","type":"rice"}},
{"type":"Feature","geometry":{"type":"Point","coordinates":[114.132214,30.624218]},"properties":{"name":"府河鱼庄","xiaolei":"7315012","address":"五环大道154-156","zhonglei":"7315","dalei":"3","type":"rice"}},
{"type":"Feature","geometry":{"type":"Point","coordinates":[114.138926,30.619869]},"properties":{"name":"东针酒店","xiaolei":"7315012","address":"东西湖大道7030","zhonglei":"7315","dalei":"3","type":"rice"}},
{"type":"Feature","geometry":{"type":"Point","coordinates":[114.147005,30.631377]},"properties":{"name":"小康人家","xiaolei":"7315012","address":"吴中路","zhonglei":"7315","dalei":"3","type":"rice"}},
{"type":"Feature","geometry":{"type":"Point","coordinates":[114.145012,30.632171]},"properties":{"name":"平平饭店","xiaolei":"7315012","address":"","zhonglei":"7315","dalei":"3","type":"rice"}},
{"type":"Feature","geometry":{"type":"Point","coordinates":[114.232743,30.627963]},"properties":{"name":"盛祥食府","xiaolei":"7315001","address":"","zhonglei":"7315","dalei":"3","type":"rice"}},
{"type":"Feature","geometry":{"type":"Point","coordinates":[114.231247,30.626312]},"properties":{"name":"汉口创业中心餐厅","xiaolei":"7315012","address":"江兴路6","zhonglei":"7315","dalei":"3","type":"rice"}},
{"type":"Feature","geometry":{"type":"Point","coordinates":[114.174801,30.613987]},"properties":{"name":"自然味生态园","xiaolei":"7315001","address":"长丰大道58号","zhonglei":"7315","dalei":"3","type":"rice"}},
{"type":"Feature","geometry":{"type":"Point","coordinates":[114.204963,30.610793]},"properties":{"name":"小四川家常菜（长丰大道）","xiaolei":"7315056","address":"","zhonglei":"7315","dalei":"3","type":"rice"}},
{"type":"Feature","geometry":{"type":"Point","coordinates":[114.194555,30.612036]},"properties":{"name":"兄弟烧烤店长丰分店","xiaolei":"7315012","address":"","zhonglei":"7315","dalei":"3","type":"rice"}},
{"type":"Feature","geometry":{"type":"Point","coordinates":[114.194258,30.612073]},"properties":{"name":"酒安酒家","xiaolei":"7315012","address":"","zhonglei":"7315","dalei":"3","type":"rice"}},
{"type":"Feature","geometry":{"type":"Point","coordinates":[114.194223,30.612076]},"properties":{"name":"乡香湘菜馆","xiaolei":"7315052","address":"","zhonglei":"7315","dalei":"3","type":"rice"}},
{"type":"Feature","geometry":{"type":"Point","coordinates":[114.194008,30.612107]},"properties":{"name":"小重庆家常菜馆","xiaolei":"7315056","address":"","zhonglei":"7315","dalei":"3","type":"rice"}},
{"type":"Feature","geometry":{"type":"Point","coordinates":[114.192405,30.612298]},"properties":{"name":"湖南（桂林）牛肉（杂）粉面馆","xiaolei":"7315012","address":"","zhonglei":"7315","dalei":"3","type":"rice"}},
{"type":"Feature","geometry":{"type":"Point","coordinates":[114.192346,30.612305]},"properties":{"name":"小毛酒家（长丰大道）","xiaolei":"7315012","address":"","zhonglei":"7315","dalei":"3","type":"rice"}},
{"type":"Feature","geometry":{"type":"Point","coordinates":[114.190658,30.612506]},"properties":{"name":"许记饭庄","xiaolei":"7315012","address":"","zhonglei":"7315","dalei":"3","type":"rice"}},
{"type":"Feature","geometry":{"type":"Point","coordinates":[114.190495,30.612522]},"properties":{"name":"重庆美味鲜","xiaolei":"7315056","address":"","zhonglei":"7315","dalei":"3","type":"rice"}},
{"type":"Feature","geometry":{"type":"Point","coordinates":[114.189932,30.612576]},"properties":{"name":"吉祥酒楼","xiaolei":"7315012","address":"长丰大道九组822号","zhonglei":"7315","dalei":"3","type":"rice"}},
{"type":"Feature","geometry":{"type":"Point","coordinates":[114.188178,30.612799]},"properties":{"name":"重庆好吃佬","xiaolei":"7315056","address":"","zhonglei":"7315","dalei":"3","type":"rice"}},
{"type":"Feature","geometry":{"type":"Point","coordinates":[114.188082,30.612809]},"properties":{"name":"重庆好又来小吃","xiaolei":"7315056","address":"","zhonglei":"7315","dalei":"3","type":"rice"}},
{"type":"Feature","geometry":{"type":"Point","coordinates":[114.179553,30.613853]},"properties":{"name":"兰州牛肉拉面（长丰大道）","xiaolei":"7315158","address":"","zhonglei":"7315","dalei":"3","type":"rice"}},
{"type":"Feature","geometry":{"type":"Point","coordinates":[114.159232,30.61611]},"properties":{"name":"霞峰酒楼","xiaolei":"7315001","address":"","zhonglei":"7315","dalei":"3","type":"rice"}},
{"type":"Feature","geometry":{"type":"Point","coordinates":[114.233388,30.612863]},"properties":{"name":"望丰园家常菜","xiaolei":"7315012","address":"一村常腾街58号","zhonglei":"7315","dalei":"3","type":"rice"}},
{"type":"Feature","geometry":{"type":"Point","coordinates":[114.233241,30.613284]},"properties":{"name":"新来汉牛肉粉面馆","xiaolei":"7315012","address":"","zhonglei":"7315","dalei":"3","type":"rice"}},
{"type":"Feature","geometry":{"type":"Point","coordinates":[114.229965,30.609133]},"properties":{"name":"田野老鸭汤","xiaolei":"7315001","address":"","zhonglei":"7315","dalei":"3","type":"rice"}},
{"type":"Feature","geometry":{"type":"Point","coordinates":[114.227927,30.608542]},"properties":{"name":"古田江胖火锅（发展大道）","xiaolei":"7315058","address":"","zhonglei":"7315","dalei":"3","type":"rice"}},
{"type":"Feature","geometry":{"type":"Point","coordinates":[114.227835,30.608539]},"properties":{"name":"旺旺平价餐厅（发展大道）","xiaolei":"7315012","address":"","zhonglei":"7315","dalei":"3","type":"rice"}},
{"type":"Feature","geometry":{"type":"Point","coordinates":[114.227753,30.608513]},"properties":{"name":"掉渣渣烧饼（发展大道）","xiaolei":"7315001","address":"","zhonglei":"7315","dalei":"3","type":"rice"}},
{"type":"Feature","geometry":{"type":"Point","coordinates":[114.227554,30.608504]},"properties":{"name":"桂林米粉红油系列粉面","xiaolei":"7315012","address":"","zhonglei":"7315","dalei":"3","type":"rice"}},
{"type":"Feature","geometry":{"type":"Point","coordinates":[114.19711,30.613124]},"properties":{"name":"多多益膳坊","xiaolei":"7315012","address":"","zhonglei":"7315","dalei":"3","type":"rice"}},
{"type":"Feature","geometry":{"type":"Point","coordinates":[114.242542,30.615543]},"properties":{"name":"瑚之锦酒楼","xiaolei":"7315001","address":"","zhonglei":"7315","dalei":"3","type":"rice"}},
{"type":"Feature","geometry":{"type":"Point","coordinates":[114.163125,30.612239]},"properties":{"name":"袁记热干面","xiaolei":"7315012","address":"","zhonglei":"7315","dalei":"3","type":"rice"}},
{"type":"Feature","geometry":{"type":"Point","coordinates":[114.186598,30.59477]},"properties":{"name":"汪记排档","xiaolei":"7315012","address":"","zhonglei":"7315","dalei":"3","type":"rice"}},
{"type":"Feature","geometry":{"type":"Point","coordinates":[114.188781,30.59356]},"properties":{"name":"麻哥特色油焖大虾","xiaolei":"7315012","address":"","zhonglei":"7315","dalei":"3","type":"rice"}},
{"type":"Feature","geometry":{"type":"Point","coordinates":[114.190999,30.592796]},"properties":{"name":"晶成餐馆","xiaolei":"7315012","address":"","zhonglei":"7315","dalei":"3","type":"rice"}},
{"type":"Feature","geometry":{"type":"Point","coordinates":[114.187158,30.59488]},"properties":{"name":"正宗兰州牛肉拉面（古田路）","xiaolei":"7315012","address":"","zhonglei":"7315","dalei":"3","type":"rice"}},
{"type":"Feature","geometry":{"type":"Point","coordinates":[114.185792,30.594574]},"properties":{"name":"翰林酒店","xiaolei":"7315012","address":"古田二路9号","zhonglei":"7315","dalei":"3","type":"rice"}},
{"type":"Feature","geometry":{"type":"Point","coordinates":[114.185774,30.594546]},"properties":{"name":"川湘酒店（古田二路）","xiaolei":"7315056","address":"古田二路17号","zhonglei":"7315","dalei":"3","type":"rice"}},
{"type":"Feature","geometry":{"type":"Point","coordinates":[114.183174,30.592187]},"properties":{"name":"老三元牛肉面馆","xiaolei":"7315012","address":"","zhonglei":"7315","dalei":"3","type":"rice"}},
{"type":"Feature","geometry":{"type":"Point","coordinates":[114.186247,30.594416]},"properties":{"name":"湖南面馆（古田二路）","xiaolei":"7315012","address":"","zhonglei":"7315","dalei":"3","type":"rice"}},
{"type":"Feature","geometry":{"type":"Point","coordinates":[114.186337,30.594571]},"properties":{"name":"传红小吃","xiaolei":"7315015","address":"","zhonglei":"7315","dalei":"3","type":"rice"}},
{"type":"Feature","geometry":{"type":"Point","coordinates":[114.186407,30.594665]},"properties":{"name":"梅妹烧烤小吃店","xiaolei":"7315012","address":"","zhonglei":"7315","dalei":"3","type":"rice"}},
{"type":"Feature","geometry":{"type":"Point","coordinates":[114.187806,30.596629]},"properties":{"name":"高乐庄酒店","xiaolei":"7315001","address":"古田二路古田二路解放大道56号与交汇","zhonglei":"7315","dalei":"3","type":"rice"}},
{"type":"Feature","geometry":{"type":"Point","coordinates":[114.190496,30.600006]},"properties":{"name":"麦肯炸鸡（解放大道）","xiaolei":"7315015","address":"","zhonglei":"7315","dalei":"3","type":"rice"}},
{"type":"Feature","geometry":{"type":"Point","coordinates":[114.1906,30.599956]},"properties":{"name":"正宗湖南米粉（解放大道）","xiaolei":"7315012","address":"","zhonglei":"7315","dalei":"3","type":"rice"}},
{"type":"Feature","geometry":{"type":"Point","coordinates":[114.197695,30.593365]},"properties":{"name":"半边鱼家常菜","xiaolei":"7315012","address":"","zhonglei":"7315","dalei":"3","type":"rice"}},
{"type":"Feature","geometry":{"type":"Point","coordinates":[114.144292,30.601702]},"properties":{"name":"润佳农庄","xiaolei":"7315012","address":"","zhonglei":"7315","dalei":"3","type":"rice"}},
{"type":"Feature","geometry":{"type":"Point","coordinates":[114.151035,30.619084]},"properties":{"name":"红梅餐厅","xiaolei":"7315012","address":"","zhonglei":"7315","dalei":"3","type":"rice"}},
{"type":"Feature","geometry":{"type":"Point","coordinates":[114.134305,30.62738]},"properties":{"name":"松滋鸡馆（吴祁街）","xiaolei":"7315012","address":"吴祁街42","zhonglei":"7315","dalei":"3","type":"rice"}},
{"type":"Feature","geometry":{"type":"Point","coordinates":[114.134389,30.627387]},"properties":{"name":"地道松滋鸡","xiaolei":"7315012","address":"吴祁街44","zhonglei":"7315","dalei":"3","type":"rice"}},
{"type":"Feature","geometry":{"type":"Point","coordinates":[114.135175,30.627422]},"properties":{"name":"小谢酒家（吴祁街）","xiaolei":"7315012","address":"吴祁街60","zhonglei":"7315","dalei":"3","type":"rice"}},
{"type":"Feature","geometry":{"type":"Point","coordinates":[114.135351,30.627436]},"properties":{"name":"三全餐馆","xiaolei":"7315012","address":"吴祁街64","zhonglei":"7315","dalei":"3","type":"rice"}},
{"type":"Feature","geometry":{"type":"Point","coordinates":[114.137616,30.627984]},"properties":{"name":"大众美的餐厅","xiaolei":"7315012","address":"吴祁街118","zhonglei":"7315","dalei":"3","type":"rice"}},
{"type":"Feature","geometry":{"type":"Point","coordinates":[114.135332,30.627804]},"properties":{"name":"胡记全土味火锅馆","xiaolei":"7315058","address":"吴祁街27","zhonglei":"7315","dalei":"3","type":"rice"}},
{"type":"Feature","geometry":{"type":"Point","coordinates":[114.136051,30.627919]},"properties":{"name":"天红酒家","xiaolei":"7315012","address":"吴祁街45","zhonglei":"7315","dalei":"3","type":"rice"}},
{"type":"Feature","geometry":{"type":"Point","coordinates":[114.131535,30.629248]},"properties":{"name":"中奥迎山酒店","xiaolei":"7315001","address":"五环大道238","zhonglei":"7315","dalei":"3","type":"rice"}},
{"type":"Feature","geometry":{"type":"Point","coordinates":[114.130317,30.622958]},"properties":{"name":"福华涮肥牛","xiaolei":"7315058","address":"田园街89","zhonglei":"7315","dalei":"3","type":"rice"}},
{"type":"Feature","geometry":{"type":"Point","coordinates":[114.128205,30.622891]},"properties":{"name":"月月红小炒","xiaolei":"7315012","address":"田园街43","zhonglei":"7315","dalei":"3","type":"rice"}},
{"type":"Feature","geometry":{"type":"Point","coordinates":[114.129274,30.626097]},"properties":{"name":"无名酒楼（东吴大道）","xiaolei":"7315001","address":"东吴大道754-756","zhonglei":"7315","dalei":"3","type":"rice"}},
{"type":"Feature","geometry":{"type":"Point","coordinates":[114.130376,30.626]},"properties":{"name":"老地方酒店","xiaolei":"7315001","address":"东吴大道792","zhonglei":"7315","dalei":"3","type":"rice"}},
{"type":"Feature","geometry":{"type":"Point","coordinates":[114.140313,30.625204]},"properties":{"name":"大地菜馆","xiaolei":"7315012","address":"三秀路280","zhonglei":"7315","dalei":"3","type":"rice"}},
{"type":"Feature","geometry":{"type":"Point","coordinates":[114.137136,30.620383]},"properties":{"name":"紫云轩台湾风情酒楼","xiaolei":"7315001","address":"东西湖大道1818号金山大厦","zhonglei":"7315","dalei":"3","type":"rice"}},
{"type":"Feature","geometry":{"type":"Point","coordinates":[114.136411,30.621297]},"properties":{"name":"蒸菜馆","xiaolei":"7315012","address":"四明路46","zhonglei":"7315","dalei":"3","type":"rice"}},
{"type":"Feature","geometry":{"type":"Point","coordinates":[114.135916,30.62078]},"properties":{"name":"重庆川菜馆（四明路）","xiaolei":"7315056","address":"四明路117","zhonglei":"7315","dalei":"3","type":"rice"}},
{"type":"Feature","geometry":{"type":"Point","coordinates":[114.128826,30.629583]},"properties":{"name":"荆楚缘酒家","xiaolei":"7315012","address":"环山路111","zhonglei":"7315","dalei":"3","type":"rice"}},
{"type":"Feature","geometry":{"type":"Point","coordinates":[114.131806,30.61517]},"properties":{"name":"华坤大酒店","xiaolei":"7315001","address":"","zhonglei":"7315","dalei":"3","type":"rice"}},
{"type":"Feature","geometry":{"type":"Point","coordinates":[114.137299,30.61395]},"properties":{"name":"诚晨平价食宿","xiaolei":"7315012","address":"","zhonglei":"7315","dalei":"3","type":"rice"}},
{"type":"Feature","geometry":{"type":"Point","coordinates":[114.136943,30.613889]},"properties":{"name":"东北餐厅","xiaolei":"7315057","address":"","zhonglei":"7315","dalei":"3","type":"rice"}},
{"type":"Feature","geometry":{"type":"Point","coordinates":[114.140573,30.613912]},"properties":{"name":"闻香来卤菜馆","xiaolei":"7315012","address":"","zhonglei":"7315","dalei":"3","type":"rice"}},
{"type":"Feature","geometry":{"type":"Point","coordinates":[114.144922,30.616876]},"properties":{"name":"二毛酒家（市场西二路）","xiaolei":"7315012","address":"","zhonglei":"7315","dalei":"3","type":"rice"}},
{"type":"Feature","geometry":{"type":"Point","coordinates":[114.144927,30.616608]},"properties":{"name":"首家餐厅","xiaolei":"7315012","address":"","zhonglei":"7315","dalei":"3","type":"rice"}},
{"type":"Feature","geometry":{"type":"Point","coordinates":[114.145042,30.614718]},"properties":{"name":"紫龙酒家","xiaolei":"7315012","address":"","zhonglei":"7315","dalei":"3","type":"rice"}},
{"type":"Feature","geometry":{"type":"Point","coordinates":[114.14509,30.614202]},"properties":{"name":"芳华苑饭庄","xiaolei":"7315012","address":"","zhonglei":"7315","dalei":"3","type":"rice"}},
{"type":"Feature","geometry":{"type":"Point","coordinates":[114.231892,30.634324]},"properties":{"name":"星星酒店（花园二村东南）","xiaolei":"7315012","address":"香樟一路6","zhonglei":"7315","dalei":"3","type":"rice"}},
{"type":"Feature","geometry":{"type":"Point","coordinates":[114.229432,30.639769]},"properties":{"name":"常青小吃城","xiaolei":"7315012","address":"","zhonglei":"7315","dalei":"3","type":"rice"}},
{"type":"Feature","geometry":{"type":"Point","coordinates":[114.229993,30.641761]},"properties":{"name":"诗华酒轩","xiaolei":"7315012","address":"常青花园中路商业步街","zhonglei":"7315","dalei":"3","type":"rice"}},
{"type":"Feature","geometry":{"type":"Point","coordinates":[114.244481,30.650059]},"properties":{"name":"鑫城酒楼","xiaolei":"7315001","address":"","zhonglei":"7315","dalei":"3","type":"rice"}},
{"type":"Feature","geometry":{"type":"Point","coordinates":[114.244477,30.650861]},"properties":{"name":"龙鼎大酒店","xiaolei":"7315012","address":"","zhonglei":"7315","dalei":"3","type":"rice"}},
{"type":"Feature","geometry":{"type":"Point","coordinates":[114.247299,30.650646]},"properties":{"name":"水云间美食城（将军路）","xiaolei":"7315012","address":"将军路47号","zhonglei":"7315","dalei":"3","type":"rice"}},
{"type":"Feature","geometry":{"type":"Point","coordinates":[114.24892,30.651364]},"properties":{"name":"东方滋补酒店","xiaolei":"7315012","address":"将军路65","zhonglei":"7315","dalei":"3","type":"rice"}},
{"type":"Feature","geometry":{"type":"Point","coordinates":[114.14818,30.612607]},"properties":{"name":"秀荣餐馆","xiaolei":"7315012","address":"","zhonglei":"7315","dalei":"3","type":"rice"}},
{"type":"Feature","geometry":{"type":"Point","coordinates":[114.245027,30.614371]},"properties":{"name":"江锋物业管理有限公司餐厅","xiaolei":"7315012","address":"常青路164号武汉科技大厦5层","zhonglei":"7315","dalei":"3","type":"rice"}},
{"type":"Feature","geometry":{"type":"Point","coordinates":[114.246525,30.614883]},"properties":{"name":"张家界牛肉粉面","xiaolei":"7315012","address":"","zhonglei":"7315","dalei":"3","type":"rice"}},
{"type":"Feature","geometry":{"type":"Point","coordinates":[114.246512,30.6149]},"properties":{"name":"蔡婆家常菜","xiaolei":"7315012","address":"","zhonglei":"7315","dalei":"3","type":"rice"}},
{"type":"Feature","geometry":{"type":"Point","coordinates":[114.241047,30.612545]},"properties":{"name":"熙隆粉面馆","xiaolei":"7315012","address":"","zhonglei":"7315","dalei":"3","type":"rice"}},
{"type":"Feature","geometry":{"type":"Point","coordinates":[114.2411,30.612493]},"properties":{"name":"满口香","xiaolei":"7315012","address":"","zhonglei":"7315","dalei":"3","type":"rice"}},
{"type":"Feature","geometry":{"type":"Point","coordinates":[114.243984,30.610365]},"properties":{"name":"７２８餐厅","xiaolei":"7315012","address":"复兴村振兴路","zhonglei":"7315","dalei":"3","type":"rice"}},
{"type":"Feature","geometry":{"type":"Point","coordinates":[114.240147,30.608566]},"properties":{"name":"西北牛肉拉面","xiaolei":"7315158","address":"","zhonglei":"7315","dalei":"3","type":"rice"}},
{"type":"Feature","geometry":{"type":"Point","coordinates":[114.239995,30.608133]},"properties":{"name":"民生甜食馆（复兴村店）","xiaolei":"7315012","address":"振兴路120","zhonglei":"7315","dalei":"3","type":"rice"}},
{"type":"Feature","geometry":{"type":"Point","coordinates":[114.237623,30.607423]},"properties":{"name":"味美轩牛肉面粉馆","xiaolei":"7315012","address":"振兴路68","zhonglei":"7315","dalei":"3","type":"rice"}},
{"type":"Feature","geometry":{"type":"Point","coordinates":[114.236966,30.607232]},"properties":{"name":"黄鹤餐厅（振兴路）","xiaolei":"7315012","address":"振兴路38","zhonglei":"7315","dalei":"3","type":"rice"}},
{"type":"Feature","geometry":{"type":"Point","coordinates":[114.238507,30.60848]},"properties":{"name":"川江美食","xiaolei":"7315056","address":"常青街道振兴三路","zhonglei":"7315","dalei":"3","type":"rice"}},
{"type":"Feature","geometry":{"type":"Point","coordinates":[114.23843,30.608615]},"properties":{"name":"哈尔滨肥肥饺子馆","xiaolei":"7315012","address":"","zhonglei":"7315","dalei":"3","type":"rice"}},
{"type":"Feature","geometry":{"type":"Point","coordinates":[114.237964,30.608447]},"properties":{"name":"复兴餐厅","xiaolei":"7315012","address":"","zhonglei":"7315","dalei":"3","type":"rice"}},
{"type":"Feature","geometry":{"type":"Point","coordinates":[114.235075,30.608653]},"properties":{"name":"鲜鱼糊汤粉","xiaolei":"7315012","address":"","zhonglei":"7315","dalei":"3","type":"rice"}},
{"type":"Feature","geometry":{"type":"Point","coordinates":[114.233488,30.609225]},"properties":{"name":"天缘酒店","xiaolei":"7315001","address":"发展大道38号省新华书店对面","zhonglei":"7315","dalei":"3","type":"rice"}},
{"type":"Feature","geometry":{"type":"Point","coordinates":[114.234022,30.609339]},"properties":{"name":"辛矮子牛肉面粉馆","xiaolei":"7315012","address":"","zhonglei":"7315","dalei":"3","type":"rice"}},
{"type":"Feature","geometry":{"type":"Point","coordinates":[114.234107,30.609361]},"properties":{"name":"兰州牛肉拉面（二环线）","xiaolei":"7315158","address":"发展大道40附6","zhonglei":"7315","dalei":"3","type":"rice"}},
{"type":"Feature","geometry":{"type":"Point","coordinates":[114.224739,30.604267]},"properties":{"name":"聚宾园餐厅","xiaolei":"7315012","address":"常码头377","zhonglei":"7315","dalei":"3","type":"rice"}},
{"type":"Feature","geometry":{"type":"Point","coordinates":[114.225159,30.592484]},"properties":{"name":"一品轩","xiaolei":"7315001","address":"下双墩73","zhonglei":"7315","dalei":"3","type":"rice"}},
{"type":"Feature","geometry":{"type":"Point","coordinates":[114.230017,30.589198]},"properties":{"name":"碧丽农家菜","xiaolei":"7315012","address":"","zhonglei":"7315","dalei":"3","type":"rice"}},
{"type":"Feature","geometry":{"type":"Point","coordinates":[114.230612,30.588811]},"properties":{"name":"新海景酒店（双墩店）","xiaolei":"7315001","address":"建设大道169","zhonglei":"7315","dalei":"3","type":"rice"}},
{"type":"Feature","geometry":{"type":"Point","coordinates":[114.240543,30.588331]},"properties":{"name":"李记茶餐厅","xiaolei":"7315015","address":"建设大道367附1","zhonglei":"7315","dalei":"3","type":"rice"}},
{"type":"Feature","geometry":{"type":"Point","coordinates":[114.241062,30.58802]},"properties":{"name":"周记小吃","xiaolei":"7315012","address":"建设大道375附4","zhonglei":"7315","dalei":"3","type":"rice"}},
{"type":"Feature","geometry":{"type":"Point","coordinates":[114.241193,30.587916]},"properties":{"name":"兰州拉面馆","xiaolei":"7315158","address":"建设大道383","zhonglei":"7315","dalei":"3","type":"rice"}},
{"type":"Feature","geometry":{"type":"Point","coordinates":[114.24139,30.587784]},"properties":{"name":"胡胖子牛肉面粉馆","xiaolei":"7315012","address":"建设大道391","zhonglei":"7315","dalei":"3","type":"rice"}},
{"type":"Feature","geometry":{"type":"Point","coordinates":[114.243145,30.58671]},"properties":{"name":"湘味王（建设大道）","xiaolei":"7315052","address":"","zhonglei":"7315","dalei":"3","type":"rice"}},
{"type":"Feature","geometry":{"type":"Point","coordinates":[114.243739,30.586478]},"properties":{"name":"三镇民生甜食馆（建设大道）","xiaolei":"7315012","address":"建设大道419","zhonglei":"7315","dalei":"3","type":"rice"}},
{"type":"Feature","geometry":{"type":"Point","coordinates":[114.246156,30.586914]},"properties":{"name":"百乐黄牛肉粉面馆","xiaolei":"7315012","address":"","zhonglei":"7315","dalei":"3","type":"rice"}},
{"type":"Feature","geometry":{"type":"Point","coordinates":[114.246172,30.586703]},"properties":{"name":"万家炸酱面","xiaolei":"7315012","address":"","zhonglei":"7315","dalei":"3","type":"rice"}},
{"type":"Feature","geometry":{"type":"Point","coordinates":[114.246997,30.586906]},"properties":{"name":"兰州拉面（建设大道）","xiaolei":"7315158","address":"","zhonglei":"7315","dalei":"3","type":"rice"}},
{"type":"Feature","geometry":{"type":"Point","coordinates":[114.247073,30.58693]},"properties":{"name":"川菜馆（建设大道）","xiaolei":"7315056","address":"","zhonglei":"7315","dalei":"3","type":"rice"}},
{"type":"Feature","geometry":{"type":"Point","coordinates":[114.246296,30.610784]},"properties":{"name":"麦当劳（百盛店）","xiaolei":"7315015","address":"常青路284号","zhonglei":"7315","dalei":"3","type":"rice"}},
{"type":"Feature","geometry":{"type":"Point","coordinates":[114.247832,30.585945]},"properties":{"name":"晓晓餐厅（宝丰一路）","xiaolei":"7315012","address":"宝丰路384号","zhonglei":"7315","dalei":"3","type":"rice"}},
{"type":"Feature","geometry":{"type":"Point","coordinates":[114.247788,30.586005]},"properties":{"name":"广水猴三餐馆","xiaolei":"7315012","address":"","zhonglei":"7315","dalei":"3","type":"rice"}},
{"type":"Feature","geometry":{"type":"Point","coordinates":[114.247709,30.586306]},"properties":{"name":"铁锅小灶（宝丰一路）","xiaolei":"7315012","address":"","zhonglei":"7315","dalei":"3","type":"rice"}},
{"type":"Feature","geometry":{"type":"Point","coordinates":[114.195841,30.608772]},"properties":{"name":"德意素食餐厅","xiaolei":"7315050","address":"古田二路127","zhonglei":"7315","dalei":"3","type":"rice"}},
{"type":"Feature","geometry":{"type":"Point","coordinates":[114.179453,30.609495]},"properties":{"name":"老王快餐","xiaolei":"7315012","address":"古田一路20","zhonglei":"7315","dalei":"3","type":"rice"}},
{"type":"Feature","geometry":{"type":"Point","coordinates":[114.179333,30.608689]},"properties":{"name":"胡记旺角半边鱼","xiaolei":"7315012","address":"","zhonglei":"7315","dalei":"3","type":"rice"}},
{"type":"Feature","geometry":{"type":"Point","coordinates":[114.181783,30.605119]},"properties":{"name":"正宗兰州牛肉拉面（古田社区南）","xiaolei":"7315158","address":"","zhonglei":"7315","dalei":"3","type":"rice"}},
{"type":"Feature","geometry":{"type":"Point","coordinates":[114.181981,30.605009]},"properties":{"name":"李记热干面牛肉面馆","xiaolei":"7315012","address":"","zhonglei":"7315","dalei":"3","type":"rice"}},
{"type":"Feature","geometry":{"type":"Point","coordinates":[114.182473,30.604752]},"properties":{"name":"红梅岭平价美食（解放大道）","xiaolei":"7315012","address":"解放大道19","zhonglei":"7315","dalei":"3","type":"rice"}},
{"type":"Feature","geometry":{"type":"Point","coordinates":[114.182871,30.604561]},"properties":{"name":"艾客莱尚品私房菜","xiaolei":"7315012","address":"解放大道23号","zhonglei":"7315","dalei":"3","type":"rice"}},
{"type":"Feature","geometry":{"type":"Point","coordinates":[114.189354,30.601221]},"properties":{"name":"非凡小炒","xiaolei":"7315012","address":"解放大道53附3","zhonglei":"7315","dalei":"3","type":"rice"}},
{"type":"Feature","geometry":{"type":"Point","coordinates":[114.189437,30.601166]},"properties":{"name":"兰州牛肉拉面（解放大道）","xiaolei":"7315158","address":"","zhonglei":"7315","dalei":"3","type":"rice"}},
{"type":"Feature","geometry":{"type":"Point","coordinates":[114.17989,30.605359]},"properties":{"name":"国荣酒楼","xiaolei":"7315012","address":"铁路大厂一路和解放大道交叉口对面","zhonglei":"7315","dalei":"3","type":"rice"}},
{"type":"Feature","geometry":{"type":"Point","coordinates":[114.178445,30.606076]},"properties":{"name":"丰华园酒楼","xiaolei":"7315001","address":"古田一路和解放大道交叉口","zhonglei":"7315","dalei":"3","type":"rice"}},
{"type":"Feature","geometry":{"type":"Point","coordinates":[114.210344,30.603259]},"properties":{"name":"重庆鱼庄（古田四路）","xiaolei":"7315056","address":"","zhonglei":"7315","dalei":"3","type":"rice"}},
{"type":"Feature","geometry":{"type":"Point","coordinates":[114.212885,30.609221]},"properties":{"name":"肯德基（长丰餐厅）","xiaolei":"7315015","address":"长丰大道古田四路交叉路口天泽一方1","zhonglei":"7315","dalei":"3","type":"rice"}},
{"type":"Feature","geometry":{"type":"Point","coordinates":[114.202245,30.610697]},"properties":{"name":"黄毛餐馆","xiaolei":"7315012","address":"","zhonglei":"7315","dalei":"3","type":"rice"}},
{"type":"Feature","geometry":{"type":"Point","coordinates":[114.197111,30.610316]},"properties":{"name":"雪源酒家","xiaolei":"7315012","address":"古田二路","zhonglei":"7315","dalei":"3","type":"rice"}},
{"type":"Feature","geometry":{"type":"Point","coordinates":[114.197293,30.601945]},"properties":{"name":"鱼佳菜馆","xiaolei":"7315012","address":"","zhonglei":"7315","dalei":"3","type":"rice"}},
{"type":"Feature","geometry":{"type":"Point","coordinates":[114.246957,30.617505]},"properties":{"name":"老四川香辣馆","xiaolei":"7315056","address":"","zhonglei":"7315","dalei":"3","type":"rice"}},
{"type":"Feature","geometry":{"type":"Point","coordinates":[114.245598,30.619076]},"properties":{"name":"一杯长酒店","xiaolei":"7315012","address":"汉口火车站银敦路特1号","zhonglei":"7315","dalei":"3","type":"rice"}},
{"type":"Feature","geometry":{"type":"Point","coordinates":[114.244503,30.618338]},"properties":{"name":"菲菲餐厅","xiaolei":"7315012","address":"","zhonglei":"7315","dalei":"3","type":"rice"}},
{"type":"Feature","geometry":{"type":"Point","coordinates":[114.242449,30.617323]},"properties":{"name":"重庆美食店","xiaolei":"7315056","address":"","zhonglei":"7315","dalei":"3","type":"rice"}},
{"type":"Feature","geometry":{"type":"Point","coordinates":[114.248956,30.633067]},"properties":{"name":"农家小院（杨汊湖店）","xiaolei":"7315012","address":"新湾五路152","zhonglei":"7315","dalei":"3","type":"rice"}},
{"type":"Feature","geometry":{"type":"Point","coordinates":[114.245103,30.633289]},"properties":{"name":"简朴寨菜馆（杨汊湖店）","xiaolei":"7315154","address":"长港路301号","zhonglei":"7315","dalei":"3","type":"rice"}},
{"type":"Feature","geometry":{"type":"Point","coordinates":[114.24871,30.63444]},"properties":{"name":"地道小馆","xiaolei":"7315012","address":"长港路339","zhonglei":"7315","dalei":"3","type":"rice"}},
{"type":"Feature","geometry":{"type":"Point","coordinates":[114.242776,30.634554]},"properties":{"name":"玮玮小吃","xiaolei":"7315012","address":"新湾路36","zhonglei":"7315","dalei":"3","type":"rice"}},
{"type":"Feature","geometry":{"type":"Point","coordinates":[114.240117,30.633756]},"properties":{"name":"老七餐馆（新湾路）","xiaolei":"7315012","address":"","zhonglei":"7315","dalei":"3","type":"rice"}},
{"type":"Feature","geometry":{"type":"Point","coordinates":[114.233607,30.629264]},"properties":{"name":"秀丽酒轩","xiaolei":"7315012","address":"常青路","zhonglei":"7315","dalei":"3","type":"rice"}},
{"type":"Feature","geometry":{"type":"Point","coordinates":[114.23365,30.629294]},"properties":{"name":"旺婆鸡汤馆","xiaolei":"7315012","address":"","zhonglei":"7315","dalei":"3","type":"rice"}},
{"type":"Feature","geometry":{"type":"Point","coordinates":[114.233702,30.629331]},"properties":{"name":"湖南特色米粉（新湾南路）","xiaolei":"7315012","address":"","zhonglei":"7315","dalei":"3","type":"rice"}},
{"type":"Feature","geometry":{"type":"Point","coordinates":[114.23379,30.62939]},"properties":{"name":"旺旺牛杂馆","xiaolei":"7315012","address":"","zhonglei":"7315","dalei":"3","type":"rice"}},
{"type":"Feature","geometry":{"type":"Point","coordinates":[114.234192,30.629667]},"properties":{"name":"板爷酒楼","xiaolei":"7315001","address":"民航小区路","zhonglei":"7315","dalei":"3","type":"rice"}},
{"type":"Feature","geometry":{"type":"Point","coordinates":[114.246431,30.586114]},"properties":{"name":"荆州青莲酒家（宝丰店）","xiaolei":"7315001","address":"宝丰路105号","zhonglei":"7315","dalei":"3","type":"rice"}},
{"type":"Feature","geometry":{"type":"Point","coordinates":[114.232291,30.586732]},"properties":{"name":"醉香隆（汉口双墩店）","xiaolei":"7315012","address":"汉口建设大道158号","zhonglei":"7315","dalei":"3","type":"rice"}},
{"type":"Feature","geometry":{"type":"Point","coordinates":[114.222969,30.58695]},"properties":{"name":"妈祖饭店","xiaolei":"7315012","address":"建设大道135号","zhonglei":"7315","dalei":"3","type":"rice"}},
{"type":"Feature","geometry":{"type":"Point","coordinates":[114.221894,30.584796]},"properties":{"name":"兰州牛肉拉面（建设大道）","xiaolei":"7315158","address":"","zhonglei":"7315","dalei":"3","type":"rice"}},
{"type":"Feature","geometry":{"type":"Point","coordinates":[114.222413,30.587401]},"properties":{"name":"小鱼儿餐厅","xiaolei":"7315012","address":"建设大道97","zhonglei":"7315","dalei":"3","type":"rice"}},
{"type":"Feature","geometry":{"type":"Point","coordinates":[114.222763,30.599401]},"properties":{"name":"迎君酒家","xiaolei":"7315012","address":"","zhonglei":"7315","dalei":"3","type":"rice"}},
{"type":"Feature","geometry":{"type":"Point","coordinates":[114.223341,30.602835]},"properties":{"name":"纪胖子面粉馆","xiaolei":"7315012","address":"","zhonglei":"7315","dalei":"3","type":"rice"}},
{"type":"Feature","geometry":{"type":"Point","coordinates":[114.226021,30.608248]},"properties":{"name":"义兴园餐厅","xiaolei":"7315012","address":"发展二村58附3","zhonglei":"7315","dalei":"3","type":"rice"}},
{"type":"Feature","geometry":{"type":"Point","coordinates":[114.21409,30.609106]},"properties":{"name":"福沃德汉堡炸鸡（新墩分店）","xiaolei":"7315015","address":"云鹤一村313附2","zhonglei":"7315","dalei":"3","type":"rice"}},
{"type":"Feature","geometry":{"type":"Point","coordinates":[114.213824,30.608768]},"properties":{"name":"罗姐热干面","xiaolei":"7315012","address":"","zhonglei":"7315","dalei":"3","type":"rice"}},
{"type":"Feature","geometry":{"type":"Point","coordinates":[114.213847,30.608627]},"properties":{"name":"西北兰州牛肉拉面（汉西二路）","xiaolei":"7315158","address":"云鹤一村313附7","zhonglei":"7315","dalei":"3","type":"rice"}},
{"type":"Feature","geometry":{"type":"Point","coordinates":[114.219659,30.58438]},"properties":{"name":"古田江胖火锅（解放大道）","xiaolei":"7315058","address":"解放大道405号","zhonglei":"7315","dalei":"3","type":"rice"}},
{"type":"Feature","geometry":{"type":"Point","coordinates":[114.219605,30.584418]},"properties":{"name":"胖嫂面馆","xiaolei":"7315012","address":"","zhonglei":"7315","dalei":"3","type":"rice"}},
{"type":"Feature","geometry":{"type":"Point","coordinates":[114.219537,30.584463]},"properties":{"name":"２００８香辣虾","xiaolei":"7315056","address":"解放大道401号","zhonglei":"7315","dalei":"3","type":"rice"}},
{"type":"Feature","geometry":{"type":"Point","coordinates":[114.21943,30.584539]},"properties":{"name":"都是客餐厅","xiaolei":"7315012","address":"","zhonglei":"7315","dalei":"3","type":"rice"}},
{"type":"Feature","geometry":{"type":"Point","coordinates":[114.219209,30.584722]},"properties":{"name":"胖胖大酒楼","xiaolei":"7315001","address":"解放大道397","zhonglei":"7315","dalei":"3","type":"rice"}},
{"type":"Feature","geometry":{"type":"Point","coordinates":[114.219095,30.584797]},"properties":{"name":"吟诗酒轩","xiaolei":"7315012","address":"解放大道391号","zhonglei":"7315","dalei":"3","type":"rice"}},
{"type":"Feature","geometry":{"type":"Point","coordinates":[114.218972,30.584885]},"properties":{"name":"伟伟烧烤店","xiaolei":"7315012","address":"","zhonglei":"7315","dalei":"3","type":"rice"}},
{"type":"Feature","geometry":{"type":"Point","coordinates":[114.218934,30.584915]},"properties":{"name":"佬俵蒸汤馆（解放大道）","xiaolei":"7315012","address":"解放大道365号","zhonglei":"7315","dalei":"3","type":"rice"}},
{"type":"Feature","geometry":{"type":"Point","coordinates":[114.218668,30.585101]},"properties":{"name":"重庆平价鱼庄","xiaolei":"7315056","address":"解放大道391","zhonglei":"7315","dalei":"3","type":"rice"}},
{"type":"Feature","geometry":{"type":"Point","coordinates":[114.218835,30.585351]},"properties":{"name":"菁菁饺子","xiaolei":"7315012","address":"解放大道393","zhonglei":"7315","dalei":"3","type":"rice"}},
{"type":"Feature","geometry":{"type":"Point","coordinates":[114.218858,30.585377]},"properties":{"name":"晶晶小吃","xiaolei":"7315012","address":"解放大道393","zhonglei":"7315","dalei":"3","type":"rice"}},
{"type":"Feature","geometry":{"type":"Point","coordinates":[114.211588,30.589337]},"properties":{"name":"洁惠餐厅","xiaolei":"7315012","address":"解放大道333附13","zhonglei":"7315","dalei":"3","type":"rice"}},
{"type":"Feature","geometry":{"type":"Point","coordinates":[114.214304,30.592344]},"properties":{"name":"三楚园","xiaolei":"7315012","address":"古田五路6附11","zhonglei":"7315","dalei":"3","type":"rice"}},
{"type":"Feature","geometry":{"type":"Point","coordinates":[114.213534,30.592113]},"properties":{"name":"新洲餐馆","xiaolei":"7315012","address":"古田五路13附5","zhonglei":"7315","dalei":"3","type":"rice"}},
{"type":"Feature","geometry":{"type":"Point","coordinates":[114.211695,30.589902]},"properties":{"name":"刘师傅豆皮","xiaolei":"7315012","address":"","zhonglei":"7315","dalei":"3","type":"rice"}},
{"type":"Feature","geometry":{"type":"Point","coordinates":[114.211313,30.589551]},"properties":{"name":"魏记牛肉牛杂粉面馆","xiaolei":"7315012","address":"","zhonglei":"7315","dalei":"3","type":"rice"}},
{"type":"Feature","geometry":{"type":"Point","coordinates":[114.210139,30.589747]},"properties":{"name":"三镇民生甜食馆（韩家店）","xiaolei":"7315012","address":"解放大道329附3","zhonglei":"7315","dalei":"3","type":"rice"}},
{"type":"Feature","geometry":{"type":"Point","coordinates":[114.208133,30.593961]},"properties":{"name":"兰州牛肉拉面（古田四路）","xiaolei":"7315158","address":"","zhonglei":"7315","dalei":"3","type":"rice"}},
{"type":"Feature","geometry":{"type":"Point","coordinates":[114.209567,30.600685]},"properties":{"name":"雀盛园酒楼","xiaolei":"7315001","address":"古田四路38附3-5","zhonglei":"7315","dalei":"3","type":"rice"}},
{"type":"Feature","geometry":{"type":"Point","coordinates":[114.197264,30.603434]},"properties":{"name":"小四川川味酒家","xiaolei":"7315056","address":"","zhonglei":"7315","dalei":"3","type":"rice"}},
{"type":"Feature","geometry":{"type":"Point","coordinates":[114.225167,30.621556]},"properties":{"name":"小四川菜馆（香缇美景北）","xiaolei":"7315056","address":"","zhonglei":"7315","dalei":"3","type":"rice"}},
{"type":"Feature","geometry":{"type":"Point","coordinates":[114.225375,30.621162]},"properties":{"name":"寻常人家（香缇美景东北）","xiaolei":"7315012","address":"建四路2","zhonglei":"7315","dalei":"3","type":"rice"}},
{"type":"Feature","geometry":{"type":"Point","coordinates":[114.226217,30.621048]},"properties":{"name":"兰州牛肉拉面（江达路）","xiaolei":"7315012","address":"","zhonglei":"7315","dalei":"3","type":"rice"}},
{"type":"Feature","geometry":{"type":"Point","coordinates":[114.227171,30.621377]},"properties":{"name":"川味美酒家","xiaolei":"7315056","address":"","zhonglei":"7315","dalei":"3","type":"rice"}},
{"type":"Feature","geometry":{"type":"Point","coordinates":[114.184044,30.630621]},"properties":{"name":"蜀湘村","xiaolei":"7315052","address":"金银湖南街2附28","zhonglei":"7315","dalei":"3","type":"rice"}},
{"type":"Feature","geometry":{"type":"Point","coordinates":[114.184097,30.630618]},"properties":{"name":"佳惠餐厅（金港湾店）","xiaolei":"7315012","address":"金银湖南街2附32","zhonglei":"7315","dalei":"3","type":"rice"}},
{"type":"Feature","geometry":{"type":"Point","coordinates":[114.185897,30.629183]},"properties":{"name":"阿歪酒楼","xiaolei":"7315001","address":"金银湖南街1号","zhonglei":"7315","dalei":"3","type":"rice"}},
{"type":"Feature","geometry":{"type":"Point","coordinates":[114.187653,30.629183]},"properties":{"name":"超超川味酒家","xiaolei":"7315056","address":"","zhonglei":"7315","dalei":"3","type":"rice"}},
{"type":"Feature","geometry":{"type":"Point","coordinates":[114.187595,30.629561]},"properties":{"name":"正宗兰州牛肉拉面（鑫桥小区东南）","xiaolei":"7315158","address":"","zhonglei":"7315","dalei":"3","type":"rice"}},
{"type":"Feature","geometry":{"type":"Point","coordinates":[114.187342,30.629556]},"properties":{"name":"２５８平价美食","xiaolei":"7315012","address":"","zhonglei":"7315","dalei":"3","type":"rice"}},
{"type":"Feature","geometry":{"type":"Point","coordinates":[114.187118,30.629553]},"properties":{"name":"李记卤菜店","xiaolei":"7315012","address":"","zhonglei":"7315","dalei":"3","type":"rice"}},
{"type":"Feature","geometry":{"type":"Point","coordinates":[114.193555,30.650532]},"properties":{"name":"重庆川菜馆（碧海花园东南）","xiaolei":"7315056","address":"","zhonglei":"7315","dalei":"3","type":"rice"}},
{"type":"Feature","geometry":{"type":"Point","coordinates":[114.240039,30.643323]},"properties":{"name":"中心美食城","xiaolei":"7315012","address":"公园南路10","zhonglei":"7315","dalei":"3","type":"rice"}},
{"type":"Feature","geometry":{"type":"Point","coordinates":[114.224579,30.605909]},"properties":{"name":"口味佳餐厅","xiaolei":"7315012","address":"常码头104","zhonglei":"7315","dalei":"3","type":"rice"}},
{"type":"Feature","geometry":{"type":"Point","coordinates":[114.219374,30.634694]},"properties":{"name":"九和盛青菜园子","xiaolei":"7315012","address":"金南一路5附2","zhonglei":"7315","dalei":"3","type":"rice"}},
{"type":"Feature","geometry":{"type":"Point","coordinates":[114.219232,30.634932]},"properties":{"name":"吉祥馄饨（东方马城店）","xiaolei":"7315015","address":"","zhonglei":"7315","dalei":"3","type":"rice"}},
{"type":"Feature","geometry":{"type":"Point","coordinates":[114.219697,30.584354]},"properties":{"name":"潮兴粥府","xiaolei":"7315012","address":"解放大道和建设大道交叉口附近","zhonglei":"7315","dalei":"3","type":"rice"}},
{"type":"Feature","geometry":{"type":"Point","coordinates":[114.217278,30.58642]},"properties":{"name":"肯德基（汉西餐厅）","xiaolei":"7315015","address":"解放大道201号","zhonglei":"7315","dalei":"3","type":"rice"}},
{"type":"Feature","geometry":{"type":"Point","coordinates":[114.214861,30.604417]},"properties":{"name":"德豪酒店","xiaolei":"7315001","address":"","zhonglei":"7315","dalei":"3","type":"rice"}},
{"type":"Feature","geometry":{"type":"Point","coordinates":[114.223213,30.586339]},"properties":{"name":"汇友酒轩","xiaolei":"7315012","address":"新合后街97号","zhonglei":"7315","dalei":"3","type":"rice"}},
{"type":"Feature","geometry":{"type":"Point","coordinates":[114.243755,30.585486]},"properties":{"name":"乡情鱼锅排档","xiaolei":"7315012","address":"建设大道营房南村","zhonglei":"7315","dalei":"3","type":"rice"}},
{"type":"Feature","geometry":{"type":"Point","coordinates":[114.237706,30.587784]},"properties":{"name":"味真简餐","xiaolei":"7315012","address":"","zhonglei":"7315","dalei":"3","type":"rice"}},
{"type":"Feature","geometry":{"type":"Point","coordinates":[114.21284,30.608853]},"properties":{"name":"户部巷（长丰分店）","xiaolei":"7315012","address":"","zhonglei":"7315","dalei":"3","type":"rice"}},
{"type":"Feature","geometry":{"type":"Point","coordinates":[114.248461,30.615709]},"properties":{"name":"永和（银墩路）","xiaolei":"7315015","address":"发展大道176号怡景商务大厦","zhonglei":"7315","dalei":"3","type":"rice"}},
{"type":"Feature","geometry":{"type":"Point","coordinates":[114.246575,30.614828]},"properties":{"name":"一盆香","xiaolei":"7315012","address":"汉口站派出所旁","zhonglei":"7315","dalei":"3","type":"rice"}},
{"type":"Feature","geometry":{"type":"Point","coordinates":[114.247136,30.6171]},"properties":{"name":"斌斌牛肉面馆","xiaolei":"7315012","address":"","zhonglei":"7315","dalei":"3","type":"rice"}},
{"type":"Feature","geometry":{"type":"Point","coordinates":[114.246929,30.617561]},"properties":{"name":"经典川菜馆","xiaolei":"7315056","address":"","zhonglei":"7315","dalei":"3","type":"rice"}},
{"type":"Feature","geometry":{"type":"Point","coordinates":[114.234484,30.628189]},"properties":{"name":"肯德基（民航新村餐厅）","xiaolei":"7315015","address":"常青路168号中百仓储超市常青店1层","zhonglei":"7315","dalei":"3","type":"rice"}},
{"type":"Feature","geometry":{"type":"Point","coordinates":[114.234772,30.628545]},"properties":{"name":"蓝色海岸西餐厅","xiaolei":"7315060","address":"常青路168号","zhonglei":"7315","dalei":"3","type":"rice"}},
{"type":"Feature","geometry":{"type":"Point","coordinates":[114.234641,30.628465]},"properties":{"name":"味千拉面（武汉常青路店）","xiaolei":"7315015","address":"常青路168号","zhonglei":"7315","dalei":"3","type":"rice"}},
{"type":"Feature","geometry":{"type":"Point","coordinates":[114.234194,30.629875]},"properties":{"name":"味美思家常菜（新湾南路）","xiaolei":"7315012","address":"常青路168号民航新村","zhonglei":"7315","dalei":"3","type":"rice"}},
{"type":"Feature","geometry":{"type":"Point","coordinates":[114.248775,30.633701]},"properties":{"name":"袁记特色红油牛肉牛杂粉面馆","xiaolei":"7315012","address":"新湾五路154","zhonglei":"7315","dalei":"3","type":"rice"}},
{"type":"Feature","geometry":{"type":"Point","coordinates":[114.192621,30.60426]},"properties":{"name":"天子川菜五七虾子王（丰盛楼Ａ座东","xiaolei":"7315056","address":"","zhonglei":"7315","dalei":"3","type":"rice"}},
{"type":"Feature","geometry":{"type":"Point","coordinates":[114.181799,30.606412]},"properties":{"name":"红梅岭（古田社区西南）","xiaolei":"7315012","address":"上铁路大厂36号","zhonglei":"7315","dalei":"3","type":"rice"}},
{"type":"Feature","geometry":{"type":"Point","coordinates":[114.240795,30.588193]},"properties":{"name":"湖南米粉（建设大道）","xiaolei":"7315012","address":"建设大道371附3-4","zhonglei":"7315","dalei":"3","type":"rice"}},
{"type":"Feature","geometry":{"type":"Point","coordinates":[114.237938,30.621398]},"properties":{"name":"佬俵蒸汤馆（华安里社区东南）","xiaolei":"7315012","address":"","zhonglei":"7315","dalei":"3","type":"rice"}},
{"type":"Feature","geometry":{"type":"Point","coordinates":[114.237674,30.62118]},"properties":{"name":"小四川平价美食","xiaolei":"7315012","address":"","zhonglei":"7315","dalei":"3","type":"rice"}},
{"type":"Feature","geometry":{"type":"Point","coordinates":[114.23758,30.621101]},"properties":{"name":"好运来菜馆（华安里社区西南）","xiaolei":"7315012","address":"","zhonglei":"7315","dalei":"3","type":"rice"}},
{"type":"Feature","geometry":{"type":"Point","coordinates":[114.237511,30.621052]},"properties":{"name":"天天湘菜馆","xiaolei":"7315052","address":"五村50","zhonglei":"7315","dalei":"3","type":"rice"}},
{"type":"Feature","geometry":{"type":"Point","coordinates":[114.233705,30.641647]},"properties":{"name":"肯德基（常青花园餐厅）","xiaolei":"7315015","address":"公园环路2号武商量贩1层","zhonglei":"7315","dalei":"3","type":"rice"}},
{"type":"Feature","geometry":{"type":"Point","coordinates":[114.200625,30.594858]},"properties":{"name":"小艳阳餐厅（解放大道）","xiaolei":"7315012","address":"解放大道80","zhonglei":"7315","dalei":"3","type":"rice"}},
{"type":"Feature","geometry":{"type":"Point","coordinates":[114.213861,30.587464]},"properties":{"name":"小天地平价美食","xiaolei":"7315012","address":"解放大道","zhonglei":"7315","dalei":"3","type":"rice"}},
{"type":"Feature","geometry":{"type":"Point","coordinates":[114.135576,30.620274]},"properties":{"name":"小东花酒店","xiaolei":"7315012","address":"东西湖大道6185","zhonglei":"7315","dalei":"3","type":"rice"}},
{"type":"Feature","geometry":{"type":"Point","coordinates":[114.197212,30.592286]},"properties":{"name":"小川府特色盖浇饭","xiaolei":"7315056","address":"","zhonglei":"7315","dalei":"3","type":"rice"}},
{"type":"Feature","geometry":{"type":"Point","coordinates":[114.213467,30.585438]},"properties":{"name":"文杰酒楼","xiaolei":"7315001","address":"","zhonglei":"7315","dalei":"3","type":"rice"}},
{"type":"Feature","geometry":{"type":"Point","coordinates":[114.132006,30.652687]},"properties":{"name":"王氏农庄","xiaolei":"7315012","address":"","zhonglei":"7315","dalei":"3","type":"rice"}},
{"type":"Feature","geometry":{"type":"Point","coordinates":[114.154062,30.604748]},"properties":{"name":"土味堂","xiaolei":"7315012","address":"","zhonglei":"7315","dalei":"3","type":"rice"}},
{"type":"Feature","geometry":{"type":"Point","coordinates":[114.249023,30.650995]},"properties":{"name":"天天家常菜（将军路）","xiaolei":"7315012","address":"将军一路红绿灯十字路口","zhonglei":"7315","dalei":"3","type":"rice"}},
{"type":"Feature","geometry":{"type":"Point","coordinates":[114.141225,30.602135]},"properties":{"name":"舒心乡味菜","xiaolei":"7315012","address":"","zhonglei":"7315","dalei":"3","type":"rice"}},