{"type":"FeatureCollection", "features": [
{"type":"Feature","geometry":{"type":"Point","coordinates":[114.251757,30.719452]},"properties":{"name":"Ｆ天下伯爵高尔夫练习场","xiaolei":"-9999","address":"巨龙大道","zhonglei":"9911","dalei":"9","type":"sport"}},
{"type":"Feature","geometry":{"type":"Point","coordinates":[114.294081,30.699823]},"properties":{"name":"卓尔体育会所","xiaolei":"7374006","address":"","zhonglei":"7374","dalei":"9","type":"sport"}},
{"type":"Feature","geometry":{"type":"Point","coordinates":[114.416806,30.701524]},"properties":{"name":"湖北省博兴武术馆","xiaolei":"7374006","address":"","zhonglei":"7374","dalei":"9","type":"sport"}},
{"type":"Feature","geometry":{"type":"Point","coordinates":[114.46142,30.720069]},"properties":{"name":"田园高尔夫俱乐部","xiaolei":"-9999","address":"中心路","zhonglei":"9911","dalei":"9","type":"sport"}},
{"type":"Feature","geometry":{"type":"Point","coordinates":[114.218255,30.642455]},"properties":{"name":"武汉金银湖国际高尔夫球会","xiaolei":"-9999","address":"金山大道金银湖","zhonglei":"9911","dalei":"9","type":"sport"}},
{"type":"Feature","geometry":{"type":"Point","coordinates":[114.171289,30.609711]},"properties":{"name":"武汉有机网球俱乐部","xiaolei":"-9999","address":"工农路10号","zhonglei":"9369","dalei":"9","type":"sport"}},
{"type":"Feature","geometry":{"type":"Point","coordinates":[114.130565,30.633788]},"properties":{"name":"吴家山游泳池","xiaolei":"-9999","address":"吴家山","zhonglei":"7338","dalei":"9","type":"sport"}},
{"type":"Feature","geometry":{"type":"Point","coordinates":[114.231362,30.644212]},"properties":{"name":"常青花园游泳池","xiaolei":"-9999","address":"常青花园二十四村","zhonglei":"7338","dalei":"9","type":"sport"}},
{"type":"Feature","geometry":{"type":"Point","coordinates":[114.230664,30.646994]},"properties":{"name":"海燕美容健身会所","xiaolei":"7320002","address":"","zhonglei":"7320","dalei":"9","type":"sport"}},
{"type":"Feature","geometry":{"type":"Point","coordinates":[114.245673,30.614746]},"properties":{"name":"天竺高温瑜伽会所（武汉科技大厦东","xiaolei":"7320002","address":"发展大道166号江锋大厦B座5层0504室","zhonglei":"7320","dalei":"9","type":"sport"}},
{"type":"Feature","geometry":{"type":"Point","coordinates":[114.22354,30.633836]},"properties":{"name":"东方马城国际赛马场","xiaolei":"7374005","address":"金银湖金南一路1号","zhonglei":"7374","dalei":"9","type":"sport"}},
{"type":"Feature","geometry":{"type":"Point","coordinates":[114.191296,30.653926]},"properties":{"name":"碧海花园游泳池","xiaolei":"-9999","address":"金山大道金银湖路","zhonglei":"7338","dalei":"9","type":"sport"}},
{"type":"Feature","geometry":{"type":"Point","coordinates":[114.213038,30.588824]},"properties":{"name":"四中腾龙跆拳道馆","xiaolei":"7374018","address":"解放大道347","zhonglei":"7374","dalei":"9","type":"sport"}},
{"type":"Feature","geometry":{"type":"Point","coordinates":[114.243243,30.585696]},"properties":{"name":"营南健身苑","xiaolei":"7320004","address":"","zhonglei":"7320","dalei":"9","type":"sport"}},
{"type":"Feature","geometry":{"type":"Point","coordinates":[114.243212,30.584624]},"properties":{"name":"韩爱萍羽毛球俱乐部","xiaolei":"7374017","address":"营房路128号","zhonglei":"7374","dalei":"9","type":"sport"}},
{"type":"Feature","geometry":{"type":"Point","coordinates":[114.243212,30.584624]},"properties":{"name":"舍宾瑜珈会馆","xiaolei":"7320002","address":"","zhonglei":"7320","dalei":"9","type":"sport"}},
{"type":"Feature","geometry":{"type":"Point","coordinates":[114.200939,30.600255]},"properties":{"name":"怡心园","xiaolei":"7320004","address":"","zhonglei":"7320","dalei":"9","type":"sport"}},
{"type":"Feature","geometry":{"type":"Point","coordinates":[114.243298,30.632177]},"properties":{"name":"阳光乒乓球馆","xiaolei":"7374015","address":"长港路88附5号2层","zhonglei":"7374","dalei":"9","type":"sport"}},
{"type":"Feature","geometry":{"type":"Point","coordinates":[114.144757,30.622728]},"properties":{"name":"翼翔羽毛球馆","xiaolei":"7374017","address":"二雅路62","zhonglei":"7374","dalei":"9","type":"sport"}},
{"type":"Feature","geometry":{"type":"Point","coordinates":[114.223555,30.633747]},"properties":{"name":"武汉赛马俱乐部","xiaolei":"7374005","address":"","zhonglei":"7374","dalei":"9","type":"sport"}},
{"type":"Feature","geometry":{"type":"Point","coordinates":[114.218015,30.640553]},"properties":{"name":"武汉金银湖国际高尔夫球会（南门）","xiaolei":"-9999","address":"金山大道金银湖","zhonglei":"9911","dalei":"9","type":"sport"}},
{"type":"Feature","geometry":{"type":"Point","coordinates":[114.233097,30.645086]},"properties":{"name":"小海豚婴儿游泳馆","xiaolei":"-9999","address":"","zhonglei":"7338","dalei":"9","type":"sport"}},
{"type":"Feature","geometry":{"type":"Point","coordinates":[114.244982,30.612082]},"properties":{"name":"三江羽毛球馆","xiaolei":"7374017","address":"常青路47","zhonglei":"7374","dalei":"9","type":"sport"}},
{"type":"Feature","geometry":{"type":"Point","coordinates":[114.241612,30.626013]},"properties":{"name":"宏大乒乓球俱乐部","xiaolei":"7374015","address":"金色雅园金源苑大门口","zhonglei":"7374","dalei":"9","type":"sport"}},
{"type":"Feature","geometry":{"type":"Point","coordinates":[114.24339,30.62939]},"properties":{"name":"莱美健身俱乐部","xiaolei":"7320002","address":"金湾三路金色雅园三期","zhonglei":"7320","dalei":"9","type":"sport"}},
{"type":"Feature","geometry":{"type":"Point","coordinates":[114.222,30.624049]},"properties":{"name":"常青园羽毛球馆","xiaolei":"7374017","address":"江兴路22","zhonglei":"7374","dalei":"9","type":"sport"}},
{"type":"Feature","geometry":{"type":"Point","coordinates":[114.130347,30.635654]},"properties":{"name":"东西湖区全民健身中心","xiaolei":"7320002","address":"五环大道105","zhonglei":"7320","dalei":"9","type":"sport"}},
{"type":"Feature","geometry":{"type":"Point","coordinates":[114.148156,30.631466]},"properties":{"name":"凌云跆拳道俱乐部","xiaolei":"7374018","address":"","zhonglei":"7374","dalei":"9","type":"sport"}},
{"type":"Feature","geometry":{"type":"Point","coordinates":[114.234979,30.629668]},"properties":{"name":"南航股份湖北分公司篮球场","xiaolei":"7374012","address":"民航里2号","zhonglei":"7374","dalei":"9","type":"sport"}},
{"type":"Feature","geometry":{"type":"Point","coordinates":[114.237927,30.607473]},"properties":{"name":"武汉奥林乒乓球俱乐部","xiaolei":"7374015","address":"","zhonglei":"7374","dalei":"9","type":"sport"}},
{"type":"Feature","geometry":{"type":"Point","coordinates":[114.192608,30.591507]},"properties":{"name":"缘动力时尚运动会所","xiaolei":"7374006","address":"古田路48","zhonglei":"7374","dalei":"9","type":"sport"}},
{"type":"Feature","geometry":{"type":"Point","coordinates":[114.210057,30.589136]},"properties":{"name":"瑞鑫健身会所","xiaolei":"7320002","address":"解放大道148号古田四路汉水熙园2A栋","zhonglei":"7320","dalei":"9","type":"sport"}},
{"type":"Feature","geometry":{"type":"Point","coordinates":[114.211278,30.612456]},"properties":{"name":"武道跆拳道馆","xiaolei":"7374018","address":"","zhonglei":"7374","dalei":"9","type":"sport"}},
{"type":"Feature","geometry":{"type":"Point","coordinates":[114.213038,30.588824]},"properties":{"name":"四中羽毛球馆","xiaolei":"7374017","address":"解放大道347","zhonglei":"7374","dalei":"9","type":"sport"}},
{"type":"Feature","geometry":{"type":"Point","coordinates":[114.132749,30.626406]},"properties":{"name":"正统跆拳道忠武馆","xiaolei":"7374018","address":"","zhonglei":"7374","dalei":"9","type":"sport"}},
{"type":"Feature","geometry":{"type":"Point","coordinates":[114.135366,30.626313]},"properties":{"name":"嘉华溜冰城","xiaolei":"7374006","address":"东吴大道895","zhonglei":"7374","dalei":"9","type":"sport"}},
{"type":"Feature","geometry":{"type":"Point","coordinates":[114.139525,30.623566]},"properties":{"name":"凌云跆拳道","xiaolei":"7374018","address":"","zhonglei":"7374","dalei":"9","type":"sport"}},
{"type":"Feature","geometry":{"type":"Point","coordinates":[114.132207,30.624357]},"properties":{"name":"晓晓瑜伽","xiaolei":"7320002","address":"五环大道162","zhonglei":"7320","dalei":"9","type":"sport"}},
{"type":"Feature","geometry":{"type":"Point","coordinates":[114.187158,30.605459]},"properties":{"name":"卓承运动馆","xiaolei":"7374006","address":"","zhonglei":"7374","dalei":"9","type":"sport"}},
{"type":"Feature","geometry":{"type":"Point","coordinates":[114.220452,30.585381]},"properties":{"name":"宗关街健身中心","xiaolei":"7320002","address":"","zhonglei":"7320","dalei":"9","type":"sport"}},
{"type":"Feature","geometry":{"type":"Point","coordinates":[114.203045,30.603615]},"properties":{"name":"湖北警官学院警体馆","xiaolei":"7374006","address":"","zhonglei":"7374","dalei":"9","type":"sport"}},
{"type":"Feature","geometry":{"type":"Point","coordinates":[114.204525,30.603361]},"properties":{"name":"湖北警官学院警体训练场","xiaolei":"7374006","address":"","zhonglei":"7374","dalei":"9","type":"sport"}},
{"type":"Feature","geometry":{"type":"Point","coordinates":[114.203747,30.603437]},"properties":{"name":"中国前卫湖北警院职业足球俱乐部","xiaolei":"7374004","address":"","zhonglei":"7374","dalei":"9","type":"sport"}},
{"type":"Feature","geometry":{"type":"Point","coordinates":[114.195669,30.598036]},"properties":{"name":"武英搏击俱乐部","xiaolei":"7374006","address":"解放大道109附59","zhonglei":"7374","dalei":"9","type":"sport"}},
{"type":"Feature","geometry":{"type":"Point","coordinates":[114.249527,30.607772]},"properties":{"name":"武汉王家墩商务区网球活动中心","xiaolei":"-9999","address":"","zhonglei":"9369","dalei":"9","type":"sport"}},
{"type":"Feature","geometry":{"type":"Point","coordinates":[114.125782,30.622855]},"properties":{"name":"元泉瑜伽（杏花路）","xiaolei":"7320002","address":"吴家山六顺路长青李西村21栋单元6层","zhonglei":"7320","dalei":"9","type":"sport"}},
{"type":"Feature","geometry":{"type":"Point","coordinates":[114.144103,30.623909]},"properties":{"name":"明珠小区篮球场","xiaolei":"7374012","address":"","zhonglei":"7374","dalei":"9","type":"sport"}},
{"type":"Feature","geometry":{"type":"Point","coordinates":[114.195302,30.594663]},"properties":{"name":"好孩子婴儿泳疗馆","xiaolei":"-9999","address":"","zhonglei":"7338","dalei":"9","type":"sport"}},
{"type":"Feature","geometry":{"type":"Point","coordinates":[114.234842,30.645261]},"properties":{"name":"常青花园网球运动中心","xiaolei":"-9999","address":"","zhonglei":"9369","dalei":"9","type":"sport"}},
{"type":"Feature","geometry":{"type":"Point","coordinates":[114.236274,30.645849]},"properties":{"name":"乒乓球台球羽毛球运动会所","xiaolei":"7374017","address":"公园环路128","zhonglei":"7374","dalei":"9","type":"sport"}},
{"type":"Feature","geometry":{"type":"Point","coordinates":[114.219012,30.655191]},"properties":{"name":"武汉工业学院金银湖校区体育馆","xiaolei":"7374006","address":"","zhonglei":"7374","dalei":"9","type":"sport"}},
{"type":"Feature","geometry":{"type":"Point","coordinates":[114.233802,30.644277]},"properties":{"name":"中心公园篮球场","xiaolei":"7374012","address":"","zhonglei":"7374","dalei":"9","type":"sport"}},
{"type":"Feature","geometry":{"type":"Point","coordinates":[114.275293,30.594081]},"properties":{"name":"炎龙运动休闲场馆","xiaolei":"7320002","address":"台北一路86","zhonglei":"7320","dalei":"9","type":"sport"}},
{"type":"Feature","geometry":{"type":"Point","coordinates":[114.267102,30.58384]},"properties":{"name":"武展运动休闲馆","xiaolei":"7374006","address":"汉商武展购物中心B1","zhonglei":"7374","dalei":"9","type":"sport"}},
{"type":"Feature","geometry":{"type":"Point","coordinates":[114.256744,30.590693]},"properties":{"name":"帆鸣体育会所","xiaolei":"7374006","address":"万松横路54","zhonglei":"7374","dalei":"9","type":"sport"}},
{"type":"Feature","geometry":{"type":"Point","coordinates":[114.26825,30.589096]},"properties":{"name":"湖北省体育局新华路体育中心","xiaolei":"7374006","address":"新华路17号","zhonglei":"7374","dalei":"9","type":"sport"}},
{"type":"Feature","geometry":{"type":"Point","coordinates":[114.259078,30.595989]},"properties":{"name":"兆龙健身俱乐部","xiaolei":"7320002","address":"建设大道524","zhonglei":"7320","dalei":"9","type":"sport"}},
{"type":"Feature","geometry":{"type":"Point","coordinates":[114.266928,30.593583]},"properties":{"name":"天竺高温瑜伽会所（银松路）","xiaolei":"7320002","address":"银松路124","zhonglei":"7320","dalei":"9","type":"sport"}},
{"type":"Feature","geometry":{"type":"Point","coordinates":[114.268253,30.589094]},"properties":{"name":"新华路体育场","xiaolei":"7374006","address":"新华路17","zhonglei":"7374","dalei":"9","type":"sport"}},
{"type":"Feature","geometry":{"type":"Point","coordinates":[114.269778,30.589637]},"properties":{"name":"湖北省体育局新华路体育中心（东北","xiaolei":"7374006","address":"新华路17号","zhonglei":"7374","dalei":"9","type":"sport"}},
{"type":"Feature","geometry":{"type":"Point","coordinates":[114.292534,30.58839]},"properties":{"name":"合作路体育馆","xiaolei":"7374006","address":"合作路34","zhonglei":"7374","dalei":"9","type":"sport"}},
{"type":"Feature","geometry":{"type":"Point","coordinates":[114.250985,30.588381]},"properties":{"name":"地大羽毛球馆","xiaolei":"7374017","address":"校内大学生活动中心3层","zhonglei":"7374","dalei":"9","type":"sport"}},
{"type":"Feature","geometry":{"type":"Point","coordinates":[114.255237,30.590695]},"properties":{"name":"十二中四季恒温游泳馆","xiaolei":"-9999","address":"航空小路15号","zhonglei":"7338","dalei":"9","type":"sport"}},
{"type":"Feature","geometry":{"type":"Point","coordinates":[114.256391,30.585791]},"properties":{"name":"华中科技大学同济医学院体育馆","xiaolei":"7374006","address":"","zhonglei":"7374","dalei":"9","type":"sport"}},
{"type":"Feature","geometry":{"type":"Point","coordinates":[114.255498,30.586157]},"properties":{"name":"华中科技大学同济医学院体育场","xiaolei":"7374006","address":"","zhonglei":"7374","dalei":"9","type":"sport"}},
{"type":"Feature","geometry":{"type":"Point","coordinates":[114.277119,30.592739]},"properties":{"name":"门球场","xiaolei":"7374006","address":"","zhonglei":"7374","dalei":"9","type":"sport"}},
{"type":"Feature","geometry":{"type":"Point","coordinates":[114.280377,30.591584]},"properties":{"name":"武汉市青少年宫青少年体育俱乐部","xiaolei":"7374006","address":"解放大道1435号","zhonglei":"7374","dalei":"9","type":"sport"}},
{"type":"Feature","geometry":{"type":"Point","coordinates":[114.275429,30.596784]},"properties":{"name":"非度健身会馆","xiaolei":"7320002","address":"中侨观邸B座1-2层","zhonglei":"7320","dalei":"9","type":"sport"}},
{"type":"Feature","geometry":{"type":"Point","coordinates":[114.285448,30.589838]},"properties":{"name":"银球乒乓馆","xiaolei":"7374015","address":"黄石路40号江岸区青少年科技活动中心","zhonglei":"7374","dalei":"9","type":"sport"}},
{"type":"Feature","geometry":{"type":"Point","coordinates":[114.362436,30.623902]},"properties":{"name":"武钢宾馆游泳池","xiaolei":"-9999","address":"三弓路3","zhonglei":"7338","dalei":"9","type":"sport"}},
{"type":"Feature","geometry":{"type":"Point","coordinates":[114.34458,30.609261]},"properties":{"name":"东方龙搏击俱乐部（和平大道）","xiaolei":"7374006","address":"余家头特1号武商量贩余家头店3层","zhonglei":"7374","dalei":"9","type":"sport"}},
{"type":"Feature","geometry":{"type":"Point","coordinates":[114.343327,30.590138]},"properties":{"name":"火车头体育场","xiaolei":"7374006","address":"徐东大街47","zhonglei":"7374","dalei":"9","type":"sport"}},
{"type":"Feature","geometry":{"type":"Point","coordinates":[114.367053,30.609635]},"properties":{"name":"宇凡体育运动（园林路）","xiaolei":"7320002","address":"园林路81","zhonglei":"7320","dalei":"9","type":"sport"}},
{"type":"Feature","geometry":{"type":"Point","coordinates":[114.374949,30.622415]},"properties":{"name":"龙武跆拳道馆","xiaolei":"7374018","address":"钢花117街一冶商业大楼","zhonglei":"7374","dalei":"9","type":"sport"}},
{"type":"Feature","geometry":{"type":"Point","coordinates":[114.367333,30.62716]},"properties":{"name":"武汉科技大学体育馆","xiaolei":"7374006","address":"科技大学青山校区内","zhonglei":"7374","dalei":"9","type":"sport"}},
{"type":"Feature","geometry":{"type":"Point","coordinates":[114.3424,30.589576]},"properties":{"name":"火车头体育场（西门）","xiaolei":"7374006","address":"徐东大街47","zhonglei":"7374","dalei":"9","type":"sport"}},
{"type":"Feature","geometry":{"type":"Point","coordinates":[114.341857,30.590836]},"properties":{"name":"武汉天竺高温瑜伽会所","xiaolei":"7320002","address":"徐东路7号凯旋门广场A座9层907","zhonglei":"7320","dalei":"9","type":"sport"}},
{"type":"Feature","geometry":{"type":"Point","coordinates":[114.348887,30.611002]},"properties":{"name":"武汉理工大学余家头校区游泳池","xiaolei":"-9999","address":"理工大学余家头校区内","zhonglei":"7338","dalei":"9","type":"sport"}},
{"type":"Feature","geometry":{"type":"Point","coordinates":[114.348628,30.610737]},"properties":{"name":"武汉理工大学余家头校区网球场","xiaolei":"-9999","address":"","zhonglei":"9369","dalei":"9","type":"sport"}},
{"type":"Feature","geometry":{"type":"Point","coordinates":[114.3251,30.585743]},"properties":{"name":"武车体育场","xiaolei":"7374006","address":"","zhonglei":"7374","dalei":"9","type":"sport"}},
{"type":"Feature","geometry":{"type":"Point","coordinates":[114.324707,30.585272]},"properties":{"name":"武车体育场（西南门）","xiaolei":"7374006","address":"","zhonglei":"7374","dalei":"9","type":"sport"}},
{"type":"Feature","geometry":{"type":"Point","coordinates":[114.337981,30.591011]},"properties":{"name":"帕菲克国际健身中心（徐家棚街徐东","xiaolei":"7320002","address":"徐东大街18号销品茂","zhonglei":"7320","dalei":"9","type":"sport"}},
{"type":"Feature","geometry":{"type":"Point","coordinates":[114.330486,30.583752]},"properties":{"name":"体育馆（武汉理工大学友谊小区西南","xiaolei":"7374006","address":"","zhonglei":"7374","dalei":"9","type":"sport"}},
{"type":"Feature","geometry":{"type":"Point","coordinates":[114.259135,30.629306]},"properties":{"name":"清波健身中心（姑嫂树路）","xiaolei":"7320002","address":"姑嫂树路8号","zhonglei":"7320","dalei":"9","type":"sport"}},
{"type":"Feature","geometry":{"type":"Point","coordinates":[114.254126,30.627239]},"properties":{"name":"一中四季游泳馆","xiaolei":"-9999","address":"红旗渠路旁","zhonglei":"7338","dalei":"9","type":"sport"}},
{"type":"Feature","geometry":{"type":"Point","coordinates":[114.268158,30.654376]},"properties":{"name":"梦湖香郡网球场","xiaolei":"-9999","address":"","zhonglei":"9369","dalei":"9","type":"sport"}},
{"type":"Feature","geometry":{"type":"Point","coordinates":[114.277953,30.644762]},"properties":{"name":"塔子湖体育中心","xiaolei":"7374006","address":"潇湘路","zhonglei":"7374","dalei":"9","type":"sport"}},
{"type":"Feature","geometry":{"type":"Point","coordinates":[114.281618,30.645445]},"properties":{"name":"塔子湖体育中心篮球场","xiaolei":"7374012","address":"","zhonglei":"7374","dalei":"9","type":"sport"}},
{"type":"Feature","geometry":{"type":"Point","coordinates":[114.258715,30.632454]},"properties":{"name":"渝雅羽毛球馆（后湖大道）","xiaolei":"7374017","address":"潇湘路特1号","zhonglei":"7374","dalei":"9","type":"sport"}},
{"type":"Feature","geometry":{"type":"Point","coordinates":[114.317219,30.621145]},"properties":{"name":"滨江游泳池","xiaolei":"-9999","address":"汉口江滩三期附近","zhonglei":"7338","dalei":"9","type":"sport"}},
{"type":"Feature","geometry":{"type":"Point","coordinates":[114.280982,30.613307]},"properties":{"name":"跆英跆拳道正道馆（黄孝河路）","xiaolei":"7374018","address":"汉口黄孝河路30号育才幼儿园正对面","zhonglei":"7374","dalei":"9","type":"sport"}},
{"type":"Feature","geometry":{"type":"Point","coordinates":[114.286288,30.620656]},"properties":{"name":"武汉武英搏击俱乐部","xiaolei":"7320002","address":"江大路附近","zhonglei":"7320","dalei":"9","type":"sport"}},
{"type":"Feature","geometry":{"type":"Point","coordinates":[114.267701,30.615947]},"properties":{"name":"标靶健康会馆","xiaolei":"7320002","address":"香港路390","zhonglei":"7320","dalei":"9","type":"sport"}},
{"type":"Feature","geometry":{"type":"Point","coordinates":[114.280143,30.62021]},"properties":{"name":"帕菲克国际健身俱乐部（黄孝河路）","xiaolei":"7320002","address":"黄孝河路49号圆梦圆国际广场4层","zhonglei":"7320","dalei":"9","type":"sport"}},
{"type":"Feature","geometry":{"type":"Point","coordinates":[114.307237,30.605237]},"properties":{"name":"汉口江滩游泳池","xiaolei":"-9999","address":"沿江大道江滩98","zhonglei":"7338","dalei":"9","type":"sport"}},
{"type":"Feature","geometry":{"type":"Point","coordinates":[114.323009,30.62844]},"properties":{"name":"汉口江景高尔夫俱乐部","xiaolei":"-9999","address":"沿江大道江滩148","zhonglei":"9911","dalei":"9","type":"sport"}},
{"type":"Feature","geometry":{"type":"Point","coordinates":[114.264177,30.603944]},"properties":{"name":"汉口文化体育中心","xiaolei":"7374006","address":"新华路247","zhonglei":"7374","dalei":"9","type":"sport"}},
{"type":"Feature","geometry":{"type":"Point","coordinates":[114.264421,30.605129]},"properties":{"name":"北湖网球俱乐部","xiaolei":"-9999","address":"汉口文体中心内","zhonglei":"9369","dalei":"9","type":"sport"}},
{"type":"Feature","geometry":{"type":"Point","coordinates":[114.264177,30.603944]},"properties":{"name":"北湖体育场","xiaolei":"7374006","address":"","zhonglei":"7374","dalei":"9","type":"sport"}},
{"type":"Feature","geometry":{"type":"Point","coordinates":[114.266792,30.614805]},"properties":{"name":"朝雨轩乒乓球馆","xiaolei":"7374015","address":"唐家墩路46号阳光大厦905室","zhonglei":"7374","dalei":"9","type":"sport"}},
{"type":"Feature","geometry":{"type":"Point","coordinates":[114.266807,30.614504]},"properties":{"name":"缔美健身中心","xiaolei":"7320002","address":"唐家墩路44","zhonglei":"7320","dalei":"9","type":"sport"}},
{"type":"Feature","geometry":{"type":"Point","coordinates":[114.26461,30.603061]},"properties":{"name":"汉口文化体育中心（东二门）","xiaolei":"7374006","address":"下路8号","zhonglei":"7374","dalei":"9","type":"sport"}},
{"type":"Feature","geometry":{"type":"Point","coordinates":[114.263859,30.604498]},"properties":{"name":"武英跆拳道馆","xiaolei":"7374018","address":"","zhonglei":"7374","dalei":"9","type":"sport"}},
{"type":"Feature","geometry":{"type":"Point","coordinates":[114.264835,30.601276]},"properties":{"name":"江汉区乒乓球俱乐部","xiaolei":"7374015","address":"新华路239","zhonglei":"7374","dalei":"9","type":"sport"}},
{"type":"Feature","geometry":{"type":"Point","coordinates":[114.262799,30.603965]},"properties":{"name":"汉口文化体育中心（西门）","xiaolei":"7374006","address":"","zhonglei":"7374","dalei":"9","type":"sport"}},
{"type":"Feature","geometry":{"type":"Point","coordinates":[114.265228,30.598796]},"properties":{"name":"一兆韦德健身（锦江会所）","xiaolei":"7320002","address":"建设大道707号","zhonglei":"7320","dalei":"9","type":"sport"}},
{"type":"Feature","geometry":{"type":"Point","coordinates":[114.264545,30.604732]},"properties":{"name":"汉口文化体育中心（东一门）","xiaolei":"7374006","address":"新华路247号","zhonglei":"7374","dalei":"9","type":"sport"}},
{"type":"Feature","geometry":{"type":"Point","coordinates":[114.26749,30.587995]},"properties":{"name":"羽毛球馆（武汉市社会体育指导中心","xiaolei":"7374017","address":"","zhonglei":"7374","dalei":"9","type":"sport"}},
{"type":"Feature","geometry":{"type":"Point","coordinates":[114.26777,30.588302]},"properties":{"name":"湖北金沙赛鸽俱乐部","xiaolei":"7374006","address":"新华路体育场内","zhonglei":"7374","dalei":"9","type":"sport"}},
{"type":"Feature","geometry":{"type":"Point","coordinates":[114.267378,30.589572]},"properties":{"name":"湖北金沙翔祥赛鸽俱乐部","xiaolei":"7374006","address":"新华路","zhonglei":"7374","dalei":"9","type":"sport"}},
{"type":"Feature","geometry":{"type":"Point","coordinates":[114.254948,30.647001]},"properties":{"name":"武汉斯帕特体育健身中心","xiaolei":"7320002","address":"","zhonglei":"7320","dalei":"9","type":"sport"}},
{"type":"Feature","geometry":{"type":"Point","coordinates":[114.273329,30.640978]},"properties":{"name":"江岸区体育特色学校体育场","xiaolei":"7374006","address":"","zhonglei":"7374","dalei":"9","type":"sport"}},
{"type":"Feature","geometry":{"type":"Point","coordinates":[114.281214,30.600437]},"properties":{"name":"高雄台球乒乓球馆","xiaolei":"7374015","address":"","zhonglei":"7374","dalei":"9","type":"sport"}},
{"type":"Feature","geometry":{"type":"Point","coordinates":[114.284712,30.605334]},"properties":{"name":"贝比乐婴泳馆","xiaolei":"-9999","address":"","zhonglei":"7338","dalei":"9","type":"sport"}},
{"type":"Feature","geometry":{"type":"Point","coordinates":[114.289731,30.589487]},"properties":{"name":"中体倍力健身俱乐部（数码港店）","xiaolei":"7320002","address":"大智路6号5层","zhonglei":"7320","dalei":"9","type":"sport"}},
{"type":"Feature","geometry":{"type":"Point","coordinates":[114.265505,30.613694]},"properties":{"name":"金仕堡健身天骋会所","xiaolei":"7320002","address":"唐家墩路21附6号华联商厦","zhonglei":"7320","dalei":"9","type":"sport"}},
{"type":"Feature","geometry":{"type":"Point","coordinates":[114.350884,30.615865]},"properties":{"name":"博大溜冰城","xiaolei":"-9999","address":"","zhonglei":"9360","dalei":"9","type":"sport"}},
{"type":"Feature","geometry":{"type":"Point","coordinates":[114.337985,30.591012]},"properties":{"name":"帕菲克国际网球俱乐部","xiaolei":"-9999","address":"徐东大街18号销品茂","zhonglei":"9369","dalei":"9","type":"sport"}},
{"type":"Feature","geometry":{"type":"Point","coordinates":[114.301448,30.608364]},"properties":{"name":"七一恒温游泳馆","xiaolei":"-9999","address":"京汉大道1433号武汉七一中学旁","zhonglei":"7338","dalei":"9","type":"sport"}},
{"type":"Feature","geometry":{"type":"Point","coordinates":[114.324595,30.632122]},"properties":{"name":"湖北武汉滨江高尔夫俱乐部","xiaolei":"-9999","address":"沿江大道江滩150号","zhonglei":"9911","dalei":"9","type":"sport"}},
{"type":"Feature","geometry":{"type":"Point","coordinates":[114.251528,30.603289]},"properties":{"name":"武汉王家墩商务区羽毛球活动中心","xiaolei":"7374017","address":"","zhonglei":"7374","dalei":"9","type":"sport"}},
{"type":"Feature","geometry":{"type":"Point","coordinates":[114.280508,30.643566]},"properties":{"name":"乐泽国际运动天地","xiaolei":"7320002","address":"后湖大道99号","zhonglei":"7320","dalei":"9","type":"sport"}},
{"type":"Feature","geometry":{"type":"Point","coordinates":[114.290463,30.586771]},"properties":{"name":"长青藤会馆高尔夫研修中心","xiaolei":"-9999","address":"胜利街77号B1层","zhonglei":"9911","dalei":"9","type":"sport"}},
{"type":"Feature","geometry":{"type":"Point","coordinates":[114.314188,30.63445]},"properties":{"name":"伟士宏宇羽毛球馆","xiaolei":"7374017","address":"二七横路50","zhonglei":"7374","dalei":"9","type":"sport"}},
{"type":"Feature","geometry":{"type":"Point","coordinates":[114.313981,30.628877]},"properties":{"name":"百川跆拳道馆（解放大道）","xiaolei":"7374018","address":"解放大道2229号江岸铁路文化宫3层","zhonglei":"7374","dalei":"9","type":"sport"}},
{"type":"Feature","geometry":{"type":"Point","coordinates":[114.268252,30.589099]},"properties":{"name":"湖北省全民健身中心（新华路）","xiaolei":"7320002","address":"新华路17号","zhonglei":"7320","dalei":"9","type":"sport"}},
{"type":"Feature","geometry":{"type":"Point","coordinates":[114.268864,30.59012]},"properties":{"name":"湖北省网球管理中心俱乐部","xiaolei":"-9999","address":"新华路17号新华路","zhonglei":"9369","dalei":"9","type":"sport"}},
{"type":"Feature","geometry":{"type":"Point","coordinates":[114.316636,30.658335]},"properties":{"name":"凯撒健身（后湖大道）","xiaolei":"7320002","address":"后湖大道特8号新生活摩尔城","zhonglei":"7320","dalei":"9","type":"sport"}},
{"type":"Feature","geometry":{"type":"Point","coordinates":[114.259499,30.633191]},"properties":{"name":"汉口花园跆拳道馆","xiaolei":"7374018","address":"后湖大道","zhonglei":"7374","dalei":"9","type":"sport"}},
{"type":"Feature","geometry":{"type":"Point","coordinates":[114.292312,30.588185]},"properties":{"name":"合作路体育馆（西门）","xiaolei":"7374006","address":"合作路34","zhonglei":"7374","dalei":"9","type":"sport"}},
{"type":"Feature","geometry":{"type":"Point","coordinates":[114.312712,30.664265]},"properties":{"name":"百川跆拳道馆（安居路）","xiaolei":"7374018","address":"","zhonglei":"7374","dalei":"9","type":"sport"}},
{"type":"Feature","geometry":{"type":"Point","coordinates":[114.263469,30.603583]},"properties":{"name":"一百度健身俱乐部","xiaolei":"7320002","address":"","zhonglei":"7320","dalei":"9","type":"sport"}},
{"type":"Feature","geometry":{"type":"Point","coordinates":[114.344368,30.589905]},"properties":{"name":"宁友羽毛球馆","xiaolei":"7374017","address":"","zhonglei":"7374","dalei":"9","type":"sport"}},
{"type":"Feature","geometry":{"type":"Point","coordinates":[114.345047,30.590274]},"properties":{"name":"东方龙搏击俱乐部","xiaolei":"7320002","address":"","zhonglei":"7320","dalei":"9","type":"sport"}},
{"type":"Feature","geometry":{"type":"Point","coordinates":[114.342715,30.589869]},"properties":{"name":"火车头游泳馆","xiaolei":"-9999","address":"徐东大街47","zhonglei":"7338","dalei":"9","type":"sport"}},
{"type":"Feature","geometry":{"type":"Point","coordinates":[114.270014,30.588536]},"properties":{"name":"新华路体育场（东南门）","xiaolei":"7374006","address":"","zhonglei":"7374","dalei":"9","type":"sport"}},
{"type":"Feature","geometry":{"type":"Point","coordinates":[114.346843,30.59358]},"properties":{"name":"天地羽毛球馆","xiaolei":"7374017","address":"徐东大街","zhonglei":"7374","dalei":"9","type":"sport"}},
{"type":"Feature","geometry":{"type":"Point","coordinates":[114.27427,30.585728]},"properties":{"name":"单洞新村小学乒乓球馆","xiaolei":"7374015","address":"单洞三路","zhonglei":"7374","dalei":"9","type":"sport"}},
{"type":"Feature","geometry":{"type":"Point","coordinates":[114.280261,30.609397]},"properties":{"name":"赛格国际健身美容俱乐部","xiaolei":"7320002","address":"建设大道937号王府花园","zhonglei":"7320","dalei":"9","type":"sport"}},
{"type":"Feature","geometry":{"type":"Point","coordinates":[114.32114,30.62632]},"properties":{"name":"武汉市汉口江滩足球练习场","xiaolei":"7374004","address":"","zhonglei":"7374","dalei":"9","type":"sport"}},
{"type":"Feature","geometry":{"type":"Point","coordinates":[114.319658,30.623548]},"properties":{"name":"武汉市汉口江滩篮球场","xiaolei":"7374012","address":"","zhonglei":"7374","dalei":"9","type":"sport"}},
{"type":"Feature","geometry":{"type":"Point","coordinates":[114.318556,30.622372]},"properties":{"name":"汉口江滩羽毛球馆","xiaolei":"7374017","address":"","zhonglei":"7374","dalei":"9","type":"sport"}},
{"type":"Feature","geometry":{"type":"Point","coordinates":[114.349335,30.610397]},"properties":{"name":"武汉理工大学余家头校区体育馆","xiaolei":"7374006","address":"和平大道1178","zhonglei":"7374","dalei":"9","type":"sport"}},
{"type":"Feature","geometry":{"type":"Point","coordinates":[114.33621,30.61179]},"properties":{"name":"武昌江滩体育运动中心","xiaolei":"7374006","address":"","zhonglei":"7374","dalei":"9","type":"sport"}},
{"type":"Feature","geometry":{"type":"Point","coordinates":[114.304617,30.609843]},"properties":{"name":"康斐斯健身","xiaolei":"7320002","address":"芦沟桥路68号","zhonglei":"7320","dalei":"9","type":"sport"}},
{"type":"Feature","geometry":{"type":"Point","coordinates":[114.305827,30.602939]},"properties":{"name":"汉口江滩网球运动中心","xiaolei":"-9999","address":"沿江大道江滩90","zhonglei":"9369","dalei":"9","type":"sport"}},
{"type":"Feature","geometry":{"type":"Point","coordinates":[114.305818,30.602939]},"properties":{"name":"长江网球俱乐部","xiaolei":"-9999","address":"沿江大道江滩90","zhonglei":"9369","dalei":"9","type":"sport"}},
{"type":"Feature","geometry":{"type":"Point","coordinates":[114.316956,30.633333]},"properties":{"name":"馨梦羽毛球馆","xiaolei":"7374017","address":"解放大道2389号2层","zhonglei":"7374","dalei":"9","type":"sport"}},
{"type":"Feature","geometry":{"type":"Point","coordinates":[114.339423,30.663126]},"properties":{"name":"智博长江羽球会所","xiaolei":"7374017","address":"堤角前街18号","zhonglei":"7374","dalei":"9","type":"sport"}},
{"type":"Feature","geometry":{"type":"Point","coordinates":[114.362747,30.59451]},"properties":{"name":"铁机集团天和体育运动俱乐部","xiaolei":"7374006","address":"铁机路581号附近","zhonglei":"7374","dalei":"9","type":"sport"}},
{"type":"Feature","geometry":{"type":"Point","coordinates":[114.362912,30.593512]},"properties":{"name":"天和体育运动俱乐部高尔练习场","xiaolei":"-9999","address":"爱家国际华城","zhonglei":"9911","dalei":"9","type":"sport"}},
{"type":"Feature","geometry":{"type":"Point","coordinates":[114.291634,30.593252]},"properties":{"name":"爱可思健身生活馆","xiaolei":"7320002","address":"魔块家居装饰城4层","zhonglei":"7320","dalei":"9","type":"sport"}},
{"type":"Feature","geometry":{"type":"Point","coordinates":[114.293067,30.593489]},"properties":{"name":"武汉静馨瑜伽养生馆","xiaolei":"7320002","address":"长青广场","zhonglei":"7320","dalei":"9","type":"sport"}},
{"type":"Feature","geometry":{"type":"Point","coordinates":[114.267532,30.589811]},"properties":{"name":"九头鸟滑翔伞俱乐部","xiaolei":"7374006","address":"","zhonglei":"7374","dalei":"9","type":"sport"}},
{"type":"Feature","geometry":{"type":"Point","coordinates":[114.262028,30.592802]},"properties":{"name":"跆英跆拳道正道馆（青松社区东南）","xiaolei":"7374018","address":"","zhonglei":"7374","dalei":"9","type":"sport"}},
{"type":"Feature","geometry":{"type":"Point","coordinates":[114.280807,30.584857]},"properties":{"name":"美玲瑜伽","xiaolei":"7320002","address":"江汉四路3号科技王A座","zhonglei":"7320","dalei":"9","type":"sport"}},
{"type":"Feature","geometry":{"type":"Point","coordinates":[114.268802,30.588319]},"properties":{"name":"中信银行新华高尔夫俱乐部","xiaolei":"-9999","address":"新华路17号","zhonglei":"9911","dalei":"9","type":"sport"}},
{"type":"Feature","geometry":{"type":"Point","coordinates":[114.350158,30.608969]},"properties":{"name":"武汉理工大学余家头校区体育运动场","xiaolei":"7374006","address":"","zhonglei":"7374","dalei":"9","type":"sport"}},
{"type":"Feature","geometry":{"type":"Point","coordinates":[114.349345,30.610405]},"properties":{"name":"中远航海体能训练中心","xiaolei":"7374006","address":"和平大道1178","zhonglei":"7374","dalei":"9","type":"sport"}},
{"type":"Feature","geometry":{"type":"Point","coordinates":[114.340846,30.59462]},"properties":{"name":"凯撒健身（友谊大道）","xiaolei":"7320002","address":"友谊大道508号新干线生活广场2层","zhonglei":"7320","dalei":"9","type":"sport"}},
{"type":"Feature","geometry":{"type":"Point","coordinates":[114.342986,30.593626]},"properties":{"name":"花园乒乓球馆（徐东一路）","xiaolei":"7374015","address":"","zhonglei":"7374","dalei":"9","type":"sport"}},
{"type":"Feature","geometry":{"type":"Point","coordinates":[114.287675,30.593503]},"properties":{"name":"威尼斯恒温游泳会所","xiaolei":"-9999","address":"京汉大道889","zhonglei":"7338","dalei":"9","type":"sport"}},
{"type":"Feature","geometry":{"type":"Point","coordinates":[114.282218,30.603636]},"properties":{"name":"贝比乐婴儿游泳","xiaolei":"-9999","address":"香港路121号安和九龙阁B座7层701","zhonglei":"7338","dalei":"9","type":"sport"}},
{"type":"Feature","geometry":{"type":"Point","coordinates":[114.280804,30.584857]},"properties":{"name":"科技王健身会馆","xiaolei":"7320002","address":"江汉四路3号科技王","zhonglei":"7320","dalei":"9","type":"sport"}},
{"type":"Feature","geometry":{"type":"Point","coordinates":[114.363295,30.62405]},"properties":{"name":"武汉科技大学门球场","xiaolei":"7374006","address":"","zhonglei":"7374","dalei":"9","type":"sport"}},
{"type":"Feature","geometry":{"type":"Point","coordinates":[114.365246,30.619522]},"properties":{"name":"贝比乐徐氏婴儿游泳馆","xiaolei":"-9999","address":"","zhonglei":"7338","dalei":"9","type":"sport"}},
{"type":"Feature","geometry":{"type":"Point","coordinates":[114.27519,30.594006]},"properties":{"name":"炎龙羽毛球馆","xiaolei":"7374017","address":"台北一路86号","zhonglei":"7374","dalei":"9","type":"sport"}},
{"type":"Feature","geometry":{"type":"Point","coordinates":[114.276848,30.593483]},"properties":{"name":"武汉市青少年宫羽毛球运动中心","xiaolei":"7374017","address":"","zhonglei":"7374","dalei":"9","type":"sport"}},
{"type":"Feature","geometry":{"type":"Point","coordinates":[114.276613,30.593952]},"properties":{"name":"武汉市青少年宫网球运动中心","xiaolei":"-9999","address":"台北路51","zhonglei":"9369","dalei":"9","type":"sport"}},
{"type":"Feature","geometry":{"type":"Point","coordinates":[114.276573,30.594624]},"properties":{"name":"武汉市青少年宫水上世界","xiaolei":"7374006","address":"","zhonglei":"7374","dalei":"9","type":"sport"}},
{"type":"Feature","geometry":{"type":"Point","coordinates":[114.277307,30.59517]},"properties":{"name":"武汉市青少年宫田径足球场","xiaolei":"7374004","address":"台北一路31号","zhonglei":"7374","dalei":"9","type":"sport"}},
{"type":"Feature","geometry":{"type":"Point","coordinates":[114.293979,30.584518]},"properties":{"name":"天知乒乓球俱乐部","xiaolei":"7374015","address":"沿江大道145号2层","zhonglei":"7374","dalei":"9","type":"sport"}},
{"type":"Feature","geometry":{"type":"Point","coordinates":[114.294131,30.584404]},"properties":{"name":"翱翔羽毛球","xiaolei":"7374017","address":"沿江大道145","zhonglei":"7374","dalei":"9","type":"sport"}},
{"type":"Feature","geometry":{"type":"Point","coordinates":[114.370882,30.611651]},"properties":{"name":"泡泡龙婴儿游泳馆","xiaolei":"-9999","address":"","zhonglei":"7338","dalei":"9","type":"sport"}},
{"type":"Feature","geometry":{"type":"Point","coordinates":[114.367053,30.609635]},"properties":{"name":"思达跆拳道馆","xiaolei":"7374018","address":"","zhonglei":"7374","dalei":"9","type":"sport"}},
{"type":"Feature","geometry":{"type":"Point","coordinates":[114.367053,30.609635]},"properties":{"name":"沛欣瑜伽（青山店）","xiaolei":"7320002","address":"","zhonglei":"7320","dalei":"9","type":"sport"}},
{"type":"Feature","geometry":{"type":"Point","coordinates":[114.263177,30.626317]},"properties":{"name":"Ｖ搏羽球中心","xiaolei":"7374017","address":"","zhonglei":"7374","dalei":"9","type":"sport"}},
{"type":"Feature","geometry":{"type":"Point","coordinates":[114.275711,30.583827]},"properties":{"name":"天竺仕瑜伽","xiaolei":"7320002","address":"","zhonglei":"7320","dalei":"9","type":"sport"}},
{"type":"Feature","geometry":{"type":"Point","coordinates":[114.255699,30.597921]},"properties":{"name":"汉奥羽球中心青年馆","xiaolei":"7374017","address":"青阳路21","zhonglei":"7374","dalei":"9","type":"sport"}},
{"type":"Feature","geometry":{"type":"Point","coordinates":[114.264213,30.604422]},"properties":{"name":"北湖高尔夫练习场","xiaolei":"-9999","address":"新华下路11号汉口文体中心A区北门","zhonglei":"9911","dalei":"9","type":"sport"}},
{"type":"Feature","geometry":{"type":"Point","coordinates":[114.254865,30.588667]},"properties":{"name":"万松街航空社区全民健身中心","xiaolei":"7320002","address":"","zhonglei":"7320","dalei":"9","type":"sport"}},
{"type":"Feature","geometry":{"type":"Point","coordinates":[114.25311,30.591241]},"properties":{"name":"万松街电力社区老年运动场","xiaolei":"7374006","address":"","zhonglei":"7374","dalei":"9","type":"sport"}},
{"type":"Feature","geometry":{"type":"Point","coordinates":[114.299102,30.6023]},"properties":{"name":"四唯街麟趾社区体育健身中心","xiaolei":"7374006","address":"","zhonglei":"7374","dalei":"9","type":"sport"}},
{"type":"Feature","geometry":{"type":"Point","coordinates":[114.300684,30.603665]},"properties":{"name":"四唯街五福社区体育健身中心","xiaolei":"7374006","address":"","zhonglei":"7374","dalei":"9","type":"sport"}},
{"type":"Feature","geometry":{"type":"Point","coordinates":[114.298656,30.607267]},"properties":{"name":"四唯街袁家社区体育健身中心","xiaolei":"7374006","address":"袁家墩130","zhonglei":"7374","dalei":"9","type":"sport"}},
{"type":"Feature","geometry":{"type":"Point","coordinates":[114.29905,30.5901]},"properties":{"name":"江滩公园游泳馆","xiaolei":"-9999","address":"","zhonglei":"7338","dalei":"9","type":"sport"}},
{"type":"Feature","geometry":{"type":"Point","coordinates":[114.321682,30.627015]},"properties":{"name":"盈佳网球","xiaolei":"-9999","address":"","zhonglei":"9369","dalei":"9","type":"sport"}},
{"type":"Feature","geometry":{"type":"Point","coordinates":[114.321045,30.627186]},"properties":{"name":"盈佳俱乐部","xiaolei":"7374006","address":"","zhonglei":"7374","dalei":"9","type":"sport"}},
{"type":"Feature","geometry":{"type":"Point","coordinates":[114.314534,30.625022]},"properties":{"name":"二七街福建社区体育健身中心","xiaolei":"7320002","address":"下正街55","zhonglei":"7320","dalei":"9","type":"sport"}},
{"type":"Feature","geometry":{"type":"Point","coordinates":[114.292414,30.597983]},"properties":{"name":"水沐莲花瑜伽馆","xiaolei":"7320002","address":"京汉大道959","zhonglei":"7320","dalei":"9","type":"sport"}},
{"type":"Feature","geometry":{"type":"Point","coordinates":[114.312043,30.652264]},"properties":{"name":"武源青少年儿童生活馆","xiaolei":"7374018","address":"百步亭花园路94","zhonglei":"7374","dalei":"9","type":"sport"}},
{"type":"Feature","geometry":{"type":"Point","coordinates":[114.311691,30.652672]},"properties":{"name":"金立新乒乓球馆","xiaolei":"7374015","address":"百步亭花园路136-140","zhonglei":"7374","dalei":"9","type":"sport"}},
{"type":"Feature","geometry":{"type":"Point","coordinates":[114.317056,30.648222]},"properties":{"name":"康悦健身文体中心","xiaolei":"7320002","address":"","zhonglei":"7320","dalei":"9","type":"sport"}},
{"type":"Feature","geometry":{"type":"Point","coordinates":[114.293497,30.623415]},"properties":{"name":"雪莲体育馆","xiaolei":"7374006","address":"黄浦大街","zhonglei":"7374","dalei":"9","type":"sport"}},
{"type":"Feature","geometry":{"type":"Point","coordinates":[114.311777,30.661946]},"properties":{"name":"乐动健康运动生活馆","xiaolei":"7320002","address":"","zhonglei":"7320","dalei":"9","type":"sport"}},
{"type":"Feature","geometry":{"type":"Point","coordinates":[114.313464,30.66054]},"properties":{"name":"可丽儿婴幼儿游泳ＳＰＡ生活馆","xiaolei":"-9999","address":"","zhonglei":"7338","dalei":"9","type":"sport"}},
{"type":"Feature","geometry":{"type":"Point","coordinates":[114.313355,30.661338]},"properties":{"name":"文卉康健馆","xiaolei":"7320002","address":"","zhonglei":"7320","dalei":"9","type":"sport"}},
{"type":"Feature","geometry":{"type":"Point","coordinates":[114.279402,30.643286]},"properties":{"name":"水立方健身水疗","xiaolei":"7320002","address":"","zhonglei":"7320","dalei":"9","type":"sport"}},
{"type":"Feature","geometry":{"type":"Point","coordinates":[114.343432,30.589754]},"properties":{"name":"火车头羽毛球馆","xiaolei":"7374017","address":"徐东大街53附近","zhonglei":"7374","dalei":"9","type":"sport"}},
{"type":"Feature","geometry":{"type":"Point","coordinates":[114.367308,30.627253]},"properties":{"name":"武汉科技大学青山校区体育馆","xiaolei":"7374006","address":"","zhonglei":"7374","dalei":"9","type":"sport"}},
{"type":"Feature","geometry":{"type":"Point","coordinates":[114.312178,30.642753]},"properties":{"name":"红鼎羽毛球运动馆","xiaolei":"7374017","address":"","zhonglei":"7374","dalei":"9","type":"sport"}},
{"type":"Feature","geometry":{"type":"Point","coordinates":[114.29224,30.588376]},"properties":{"name":"合作路体育馆羽毛球馆","xiaolei":"7374006","address":"合作路34","zhonglei":"7374","dalei":"9","type":"sport"}},
{"type":"Feature","geometry":{"type":"Point","coordinates":[114.27703,30.596096]},"properties":{"name":"武汉市青少年宫体育场","xiaolei":"7374006","address":"台北一路35号附近","zhonglei":"7374","dalei":"9","type":"sport"}},
{"type":"Feature","geometry":{"type":"Point","coordinates":[114.267833,30.588317]},"properties":{"name":"新华路体育中心（０８门）","xiaolei":"7374006","address":"新华路17号","zhonglei":"7374","dalei":"9","type":"sport"}},
{"type":"Feature","geometry":{"type":"Point","coordinates":[114.2689,30.589061]},"properties":{"name":"新华路体育中心（０１门）","xiaolei":"7374006","address":"新华路17号","zhonglei":"7374","dalei":"9","type":"sport"}},
{"type":"Feature","geometry":{"type":"Point","coordinates":[114.268929,30.588792]},"properties":{"name":"新华路体育中心（０２门）","xiaolei":"7374006","address":"新华路17号","zhonglei":"7374","dalei":"9","type":"sport"}},
{"type":"Feature","geometry":{"type":"Point","coordinates":[114.268899,30.588662]},"properties":{"name":"新华路体育中心（０３门）","xiaolei":"7374006","address":"新华路17号","zhonglei":"7374","dalei":"9","type":"sport"}},
{"type":"Feature","geometry":{"type":"Point","coordinates":[114.268762,30.588395]},"properties":{"name":"新华路体育中心（０４门）","xiaolei":"7374006","address":"新华路17号","zhonglei":"7374","dalei":"9","type":"sport"}},
{"type":"Feature","geometry":{"type":"Point","coordinates":[114.268616,30.588333]},"properties":{"name":"新华路体育中心（０５门）","xiaolei":"7374006","address":"新华路17号","zhonglei":"7374","dalei":"9","type":"sport"}},
{"type":"Feature","geometry":{"type":"Point","coordinates":[114.268406,30.588268]},"properties":{"name":"新华路体育中心（０６门）","xiaolei":"7374006","address":"新华路17号","zhonglei":"7374","dalei":"9","type":"sport"}},
{"type":"Feature","geometry":{"type":"Point","coordinates":[114.329922,30.583335]},"properties":{"name":"湖北大学体育馆３","xiaolei":"7374006","address":"","zhonglei":"7374","dalei":"9","type":"sport"}},
{"type":"Feature","geometry":{"type":"Point","coordinates":[114.268068,30.588264]},"properties":{"name":"新华路体育中心（０７门）","xiaolei":"7374006","address":"新华路17号","zhonglei":"7374","dalei":"9","type":"sport"}},
{"type":"Feature","geometry":{"type":"Point","coordinates":[114.256909,30.585913]},"properties":{"name":"同济羽毛球中心","xiaolei":"7374017","address":"","zhonglei":"7374","dalei":"9","type":"sport"}},
{"type":"Feature","geometry":{"type":"Point","coordinates":[114.264817,30.604637]},"properties":{"name":"汉口文体中心（北门）","xiaolei":"7374006","address":"","zhonglei":"7374","dalei":"9","type":"sport"}},
{"type":"Feature","geometry":{"type":"Point","coordinates":[114.268591,30.589642]},"properties":{"name":"新华路体育中心（１９门）","xiaolei":"7374006","address":"","zhonglei":"7374","dalei":"9","type":"sport"}},
{"type":"Feature","geometry":{"type":"Point","coordinates":[114.267403,30.589107]},"properties":{"name":"新华路体育中心（１１门）","xiaolei":"7374006","address":"","zhonglei":"7374","dalei":"9","type":"sport"}},
{"type":"Feature","geometry":{"type":"Point","coordinates":[114.2675,30.588766]},"properties":{"name":"新华路体育中心（１０门）","xiaolei":"7374006","address":"","zhonglei":"7374","dalei":"9","type":"sport"}},
{"type":"Feature","geometry":{"type":"Point","coordinates":[114.267679,30.589809]},"properties":{"name":"新华路体育中心（１５门）","xiaolei":"7374006","address":"","zhonglei":"7374","dalei":"9","type":"sport"}},
{"type":"Feature","geometry":{"type":"Point","coordinates":[114.267548,30.589718]},"properties":{"name":"新华路体育中心（１４门）","xiaolei":"7374006","address":"","zhonglei":"7374","dalei":"9","type":"sport"}},
{"type":"Feature","geometry":{"type":"Point","coordinates":[114.267385,30.58955]},"properties":{"name":"新华路体育中心（１３门）","xiaolei":"7374006","address":"","zhonglei":"7374","dalei":"9","type":"sport"}},
{"type":"Feature","geometry":{"type":"Point","coordinates":[114.268219,30.589854]},"properties":{"name":"新华路体育中心（１７门）","xiaolei":"7374006","address":"","zhonglei":"7374","dalei":"9","type":"sport"}},
{"type":"Feature","geometry":{"type":"Point","coordinates":[114.268436,30.589778]},"properties":{"name":"新华路体育中心（１８门）","xiaolei":"7374006","address":"","zhonglei":"7374","dalei":"9","type":"sport"}},
{"type":"Feature","geometry":{"type":"Point","coordinates":[114.268754,30.589408]},"properties":{"name":"新华路体育中心（２０门）","xiaolei":"7374006","address":"","zhonglei":"7374","dalei":"9","type":"sport"}},
{"type":"Feature","geometry":{"type":"Point","coordinates":[114.267633,30.588541]},"properties":{"name":"新华路体育中心（０９门）","xiaolei":"7374006","address":"","zhonglei":"7374","dalei":"9","type":"sport"}},
{"type":"Feature","geometry":{"type":"Point","coordinates":[114.267948,30.589864]},"properties":{"name":"新华路体育中心（１６门）","xiaolei":"7374006","address":"","zhonglei":"7374","dalei":"9","type":"sport"}},
{"type":"Feature","geometry":{"type":"Point","coordinates":[114.267355,30.589319]},"properties":{"name":"新华路体育中心（１２门）","xiaolei":"7374006","address":"","zhonglei":"7374","dalei":"9","type":"sport"}},
{"type":"Feature","geometry":{"type":"Point","coordinates":[114.370937,30.609859]},"properties":{"name":"武汉钢龙足球俱乐部","xiaolei":"7374004","address":"","zhonglei":"7374","dalei":"9","type":"sport"}},
{"type":"Feature","geometry":{"type":"Point","coordinates":[114.341207,30.59158]},"properties":{"name":"空中健身会所","xiaolei":"7320002","address":"徐东路7","zhonglei":"7320","dalei":"9","type":"sport"}},
{"type":"Feature","geometry":{"type":"Point","coordinates":[114.345342,30.592183]},"properties":{"name":"梵迦瑜伽馆","xiaolei":"7320002","address":"","zhonglei":"7320","dalei":"9","type":"sport"}},
{"type":"Feature","geometry":{"type":"Point","coordinates":[114.342567,30.590545]},"properties":{"name":"ｅ周汇舞蹈会所","xiaolei":"7320002","address":"徐东二号路30号","zhonglei":"7320","dalei":"9","type":"sport"}},
{"type":"Feature","geometry":{"type":"Point","coordinates":[114.392125,30.646661]},"properties":{"name":"武钢体育馆","xiaolei":"7374006","address":"红钢一街19","zhonglei":"7374","dalei":"9","type":"sport"}},
{"type":"Feature","geometry":{"type":"Point","coordinates":[114.402488,30.642898]},"properties":{"name":"瀚翔羽毛球馆","xiaolei":"7374017","address":"和平大道1546号青山公园内","zhonglei":"7374","dalei":"9","type":"sport"}},
{"type":"Feature","geometry":{"type":"Point","coordinates":[114.396874,30.639749]},"properties":{"name":"青山区乒乓球俱乐部","xiaolei":"7374015","address":"红钢四街9","zhonglei":"7374","dalei":"9","type":"sport"}},
{"type":"Feature","geometry":{"type":"Point","coordinates":[114.405849,30.644277]},"properties":{"name":"青山体育场","xiaolei":"7374006","address":"红钢城建十水泥厂路","zhonglei":"7374","dalei":"9","type":"sport"}},
{"type":"Feature","geometry":{"type":"Point","coordinates":[114.398,30.640766]},"properties":{"name":"名人健身俱乐部","xiaolei":"7320002","address":"沿港路2附6号5层","zhonglei":"7320","dalei":"9","type":"sport"}},
{"type":"Feature","geometry":{"type":"Point","coordinates":[114.386957,30.639799]},"properties":{"name":"热电网球场","xiaolei":"-9999","address":"红钢三街1","zhonglei":"9369","dalei":"9","type":"sport"}},
{"type":"Feature","geometry":{"type":"Point","coordinates":[114.378841,30.643566]},"properties":{"name":"临江公园国际网球篮球场","xiaolei":"7374006","address":"临江大道江滩29","zhonglei":"7374","dalei":"9","type":"sport"}},
{"type":"Feature","geometry":{"type":"Point","coordinates":[114.386669,30.637855]},"properties":{"name":"运鸿羽毛球馆","xiaolei":"7374017","address":"和平大道971","zhonglei":"7374","dalei":"9","type":"sport"}},
{"type":"Feature","geometry":{"type":"Point","coordinates":[114.383342,30.605735]},"properties":{"name":"宇凡天地游泳馆","xiaolei":"-9999","address":"武丰大道与仁和路交叉处附近","zhonglei":"7338","dalei":"9","type":"sport"}},
{"type":"Feature","geometry":{"type":"Point","coordinates":[114.400753,30.635303]},"properties":{"name":"佑科羽毛球馆","xiaolei":"7374017","address":"沿港路27","zhonglei":"7374","dalei":"9","type":"sport"}},
{"type":"Feature","geometry":{"type":"Point","coordinates":[114.3848,30.627408]},"properties":{"name":"苏迪曼羽毛球俱乐部","xiaolei":"7374017","address":"随州街8","zhonglei":"7374","dalei":"9","type":"sport"}},
{"type":"Feature","geometry":{"type":"Point","coordinates":[114.39259,30.641564]},"properties":{"name":"鼎盛跆拳道馆","xiaolei":"7374018","address":"建设七路24附近","zhonglei":"7374","dalei":"9","type":"sport"}},
{"type":"Feature","geometry":{"type":"Point","coordinates":[114.377195,30.642663]},"properties":{"name":"青山江滩游泳池","xiaolei":"-9999","address":"临江大道江滩28","zhonglei":"7338","dalei":"9","type":"sport"}},
{"type":"Feature","geometry":{"type":"Point","coordinates":[114.389866,30.597807]},"properties":{"name":"玛雅海滩水公园","xiaolei":"-9999","address":"平安大道","zhonglei":"9371","dalei":"9","type":"sport"}},
{"type":"Feature","geometry":{"type":"Point","coordinates":[114.394735,30.647736]},"properties":{"name":"武钢老干部门球场","xiaolei":"7374006","address":"","zhonglei":"7374","dalei":"9","type":"sport"}},
{"type":"Feature","geometry":{"type":"Point","coordinates":[114.382243,30.615062]},"properties":{"name":"武钢体育公园","xiaolei":"7374006","address":"仁和路","zhonglei":"7374","dalei":"9","type":"sport"}},
{"type":"Feature","geometry":{"type":"Point","coordinates":[114.381898,30.61504]},"properties":{"name":"武钢体育公园（西门）","xiaolei":"7374006","address":"","zhonglei":"7374","dalei":"9","type":"sport"}},
{"type":"Feature","geometry":{"type":"Point","coordinates":[114.384328,30.605966]},"properties":{"name":"宇凡羽毛球馆","xiaolei":"7374017","address":"仁和路","zhonglei":"7374","dalei":"9","type":"sport"}},
{"type":"Feature","geometry":{"type":"Point","coordinates":[114.423197,30.587866]},"properties":{"name":"武汉科技大学城市学院室内运动中心","xiaolei":"7374006","address":"","zhonglei":"7374","dalei":"9","type":"sport"}},
{"type":"Feature","geometry":{"type":"Point","coordinates":[114.166367,30.502871]},"properties":{"name":"武汉体育中心","xiaolei":"7374006","address":"车城北路58","zhonglei":"7374","dalei":"9","type":"sport"}},
{"type":"Feature","geometry":{"type":"Point","coordinates":[114.187452,30.508727]},"properties":{"name":"东方武汉国际高尔夫乡村俱乐部","xiaolei":"-9999","address":"江堤乡新新村","zhonglei":"9911","dalei":"9","type":"sport"}},
{"type":"Feature","geometry":{"type":"Point","coordinates":[114.167392,30.506182]},"properties":{"name":"武汉体育中心（８号门）","xiaolei":"7374006","address":"","zhonglei":"7374","dalei":"9","type":"sport"}},
{"type":"Feature","geometry":{"type":"Point","coordinates":[114.161836,30.502141]},"properties":{"name":"武汉体育中心（１号门）","xiaolei":"7374006","address":"武汉经济技术开发区车城北路","zhonglei":"7374","dalei":"9","type":"sport"}},
{"type":"Feature","geometry":{"type":"Point","coordinates":[114.15603,30.507766]},"properties":{"name":"美格菲健身中心（沌口店）","xiaolei":"7320002","address":"江大路5号泰合百花公园中央街C区10号","zhonglei":"7320","dalei":"9","type":"sport"}},
{"type":"Feature","geometry":{"type":"Point","coordinates":[114.218717,30.553316]},"properties":{"name":"小飞象少儿乒乓球俱乐部","xiaolei":"7374015","address":"","zhonglei":"7374","dalei":"9","type":"sport"}},
{"type":"Feature","geometry":{"type":"Point","coordinates":[114.16948,30.503151]},"properties":{"name":"武汉体育中心（东广场）","xiaolei":"7374006","address":"车城北路","zhonglei":"7374","dalei":"9","type":"sport"}},
{"type":"Feature","geometry":{"type":"Point","coordinates":[114.222957,30.559199]},"properties":{"name":"今恒Ｐ·Ｅ时代健身中心","xiaolei":"7320002","address":"汉阳大道497号汉桥村大厦8层","zhonglei":"7320","dalei":"9","type":"sport"}},
{"type":"Feature","geometry":{"type":"Point","coordinates":[114.205662,30.5678]},"properties":{"name":"力思健健身中心","xiaolei":"7320002","address":"二桥玫瑰园街108号华大大厦3层","zhonglei":"7320","dalei":"9","type":"sport"}},
{"type":"Feature","geometry":{"type":"Point","coordinates":[114.150511,30.52074]},"properties":{"name":"体育馆武英跆拳道俱乐部","xiaolei":"7374018","address":"","zhonglei":"7374","dalei":"9","type":"sport"}},
{"type":"Feature","geometry":{"type":"Point","coordinates":[114.245843,30.550687]},"properties":{"name":"卡门佛雷斯羽毛球馆","xiaolei":"7374017","address":"","zhonglei":"7374","dalei":"9","type":"sport"}},
{"type":"Feature","geometry":{"type":"Point","coordinates":[114.230016,30.575844]},"properties":{"name":"联奥羽毛球馆","xiaolei":"7374017","address":"沿河大道356","zhonglei":"7374","dalei":"9","type":"sport"}},
{"type":"Feature","geometry":{"type":"Point","coordinates":[114.209132,30.570074]},"properties":{"name":"汉阳江汉二桥街文体站","xiaolei":"7374006","address":"知音东村74","zhonglei":"7374","dalei":"9","type":"sport"}},
{"type":"Feature","geometry":{"type":"Point","coordinates":[114.210321,30.569415]},"properties":{"name":"知音溜冰城","xiaolei":"-9999","address":"知音东村45号","zhonglei":"9360","dalei":"9","type":"sport"}},
{"type":"Feature","geometry":{"type":"Point","coordinates":[114.20438,30.562528]},"properties":{"name":"奇迹健身俱乐部","xiaolei":"7320002","address":"汉阳大道687号汉商集团21购物中心3层","zhonglei":"7320","dalei":"9","type":"sport"}},
{"type":"Feature","geometry":{"type":"Point","coordinates":[114.20438,30.562528]},"properties":{"name":"蒂贝丽儿瑜伽馆","xiaolei":"7320002","address":"汉阳大道687号汉商集团21购物中心3层","zhonglei":"7320","dalei":"9","type":"sport"}},
{"type":"Feature","geometry":{"type":"Point","coordinates":[114.164752,30.500618]},"properties":{"name":"武汉体育中心（２号门）","xiaolei":"7374006","address":"车城北路58","zhonglei":"7374","dalei":"9","type":"sport"}},
{"type":"Feature","geometry":{"type":"Point","coordinates":[114.169108,30.501848]},"properties":{"name":"武汉体育中心（４号门）","xiaolei":"7374006","address":"体育路","zhonglei":"7374","dalei":"9","type":"sport"}},
{"type":"Feature","geometry":{"type":"Point","coordinates":[114.169535,30.505871]},"properties":{"name":"武汉体育中心游泳馆训练馆","xiaolei":"-9999","address":"","zhonglei":"7338","dalei":"9","type":"sport"}},
{"type":"Feature","geometry":{"type":"Point","coordinates":[114.169263,30.505971]},"properties":{"name":"武汉体育中心游泳馆","xiaolei":"-9999","address":"车城北路58","zhonglei":"7338","dalei":"9","type":"sport"}},
{"type":"Feature","geometry":{"type":"Point","coordinates":[114.167864,30.506496]},"properties":{"name":"武汉体育中心（１０号门）","xiaolei":"7374006","address":"","zhonglei":"7374","dalei":"9","type":"sport"}},
{"type":"Feature","geometry":{"type":"Point","coordinates":[114.169013,30.504447]},"properties":{"name":"武汉体育中心体育馆","xiaolei":"7374006","address":"","zhonglei":"7374","dalei":"9","type":"sport"}},
{"type":"Feature","geometry":{"type":"Point","coordinates":[114.232694,30.580033]},"properties":{"name":"武汉滨江阁大酒店羽毛球乒乓球馆","xiaolei":"7374006","address":"解放大道667号","zhonglei":"7374","dalei":"9","type":"sport"}},
{"type":"Feature","geometry":{"type":"Point","coordinates":[114.20325,30.550347]},"properties":{"name":"湖北省广播学校运动场","xiaolei":"7374006","address":"高家咀1号附近","zhonglei":"7374","dalei":"9","type":"sport"}},
{"type":"Feature","geometry":{"type":"Point","coordinates":[114.211487,30.572781]},"properties":{"name":"高乐福高尔夫","xiaolei":"-9999","address":"琴台大道500号郭茨口站体育训练基地","zhonglei":"9911","dalei":"9","type":"sport"}},
{"type":"Feature","geometry":{"type":"Point","coordinates":[114.166666,30.505667]},"properties":{"name":"武汉体育中心沙滩排球场","xiaolei":"7374006","address":"","zhonglei":"7374","dalei":"9","type":"sport"}},
{"type":"Feature","geometry":{"type":"Point","coordinates":[114.167166,30.50215]},"properties":{"name":"长青树健身俱乐部（武汉体育中心沌","xiaolei":"7320002","address":"","zhonglei":"7320","dalei":"9","type":"sport"}},
{"type":"Feature","geometry":{"type":"Point","coordinates":[114.169656,30.503725]},"properties":{"name":"武汉体育中心（６号门）","xiaolei":"7374006","address":"车城北路","zhonglei":"7374","dalei":"9","type":"sport"}},
{"type":"Feature","geometry":{"type":"Point","coordinates":[114.215517,30.557197]},"properties":{"name":"汉阳全民健身中心","xiaolei":"7320002","address":"","zhonglei":"7320","dalei":"9","type":"sport"}},
{"type":"Feature","geometry":{"type":"Point","coordinates":[114.214492,30.555462]},"properties":{"name":"汉阳区门球场","xiaolei":"7374006","address":"","zhonglei":"7374","dalei":"9","type":"sport"}},
{"type":"Feature","geometry":{"type":"Point","coordinates":[114.230996,30.551934]},"properties":{"name":"瑞特羽球中心","xiaolei":"7374017","address":"七里庙红光路","zhonglei":"7374","dalei":"9","type":"sport"}},
{"type":"Feature","geometry":{"type":"Point","coordinates":[114.165869,30.500203]},"properties":{"name":"武汉体育中心（３号门）","xiaolei":"7374006","address":"车城北路","zhonglei":"7374","dalei":"9","type":"sport"}},
{"type":"Feature","geometry":{"type":"Point","coordinates":[114.170786,30.507534]},"properties":{"name":"武汉体育中心（１３号门）","xiaolei":"7374006","address":"","zhonglei":"7374","dalei":"9","type":"sport"}},
{"type":"Feature","geometry":{"type":"Point","coordinates":[114.1686,30.506242]},"properties":{"name":"武汉体育中心（１１号门）","xiaolei":"7374006","address":"","zhonglei":"7374","dalei":"9","type":"sport"}},
{"type":"Feature","geometry":{"type":"Point","coordinates":[114.232694,30.580033]},"properties":{"name":"炎龙羽球馆","xiaolei":"7374017","address":"","zhonglei":"7374","dalei":"9","type":"sport"}},
{"type":"Feature","geometry":{"type":"Point","coordinates":[114.170615,30.507038]},"properties":{"name":"武汉体育中心（１２号门）","xiaolei":"7374006","address":"","zhonglei":"7374","dalei":"9","type":"sport"}},
{"type":"Feature","geometry":{"type":"Point","coordinates":[114.169746,30.514875]},"properties":{"name":"三角湖羽毛球馆","xiaolei":"7374017","address":"","zhonglei":"7374","dalei":"9","type":"sport"}},
{"type":"Feature","geometry":{"type":"Point","coordinates":[114.218894,30.553575]},"properties":{"name":"新星少儿乒乓球训练馆","xiaolei":"7374015","address":"","zhonglei":"7374","dalei":"9","type":"sport"}},
{"type":"Feature","geometry":{"type":"Point","coordinates":[114.162667,30.521135]},"properties":{"name":"江汉大学高尔夫学院训练基地","xiaolei":"-9999","address":"江汉大学内","zhonglei":"9911","dalei":"9","type":"sport"}},
{"type":"Feature","geometry":{"type":"Point","coordinates":[114.169362,30.502803]},"properties":{"name":"武汉体育中心（５号门）","xiaolei":"7374006","address":"","zhonglei":"7374","dalei":"9","type":"sport"}},
{"type":"Feature","geometry":{"type":"Point","coordinates":[114.206027,30.56661]},"properties":{"name":"元泉瑜伽（龙阳大道）","xiaolei":"7320002","address":"二桥路19号汉江阳光城","zhonglei":"7320","dalei":"9","type":"sport"}},
{"type":"Feature","geometry":{"type":"Point","coordinates":[114.206699,30.568459]},"properties":{"name":"腾龙跆拳道","xiaolei":"7374018","address":"","zhonglei":"7374","dalei":"9","type":"sport"}},
{"type":"Feature","geometry":{"type":"Point","coordinates":[114.245837,30.577219]},"properties":{"name":"中环羽毛球馆","xiaolei":"7374017","address":"硚口路","zhonglei":"7374","dalei":"9","type":"sport"}},
{"type":"Feature","geometry":{"type":"Point","coordinates":[114.231413,30.558318]},"properties":{"name":"纤雅瑜伽","xiaolei":"7320002","address":"","zhonglei":"7320","dalei":"9","type":"sport"}},
{"type":"Feature","geometry":{"type":"Point","coordinates":[114.162267,30.500645]},"properties":{"name":"山道健身会所（沌口店）","xiaolei":"7320002","address":"湘隆时代广场5层","zhonglei":"7320","dalei":"9","type":"sport"}},
{"type":"Feature","geometry":{"type":"Point","coordinates":[114.170065,30.514371]},"properties":{"name":"三角湖游泳池","xiaolei":"-9999","address":"","zhonglei":"7338","dalei":"9","type":"sport"}},
{"type":"Feature","geometry":{"type":"Point","coordinates":[114.165722,30.506939]},"properties":{"name":"武汉体育中心（９号门）","xiaolei":"7374006","address":"","zhonglei":"7374","dalei":"9","type":"sport"}},
{"type":"Feature","geometry":{"type":"Point","coordinates":[114.168272,30.505853]},"properties":{"name":"武汉体育中心（７号门）","xiaolei":"7374006","address":"","zhonglei":"7374","dalei":"9","type":"sport"}},
{"type":"Feature","geometry":{"type":"Point","coordinates":[114.22103,30.56013]},"properties":{"name":"武汉市汉阳区予悦瑜伽馆","xiaolei":"7320002","address":"汉阳大道642号","zhonglei":"7320","dalei":"9","type":"sport"}},
{"type":"Feature","geometry":{"type":"Point","coordinates":[114.170422,30.508495]},"properties":{"name":"新概念健康家园","xiaolei":"7320002","address":"","zhonglei":"7320","dalei":"9","type":"sport"}},
{"type":"Feature","geometry":{"type":"Point","coordinates":[114.276407,30.554851]},"properties":{"name":"恒温游泳馆（滨江大道）","xiaolei":"-9999","address":"汉阳大道8号","zhonglei":"7338","dalei":"9","type":"sport"}},
{"type":"Feature","geometry":{"type":"Point","coordinates":[114.289688,30.575977]},"properties":{"name":"东方龙跆拳道馆（民生路分馆）","xiaolei":"7374018","address":"民生路5","zhonglei":"7374","dalei":"9","type":"sport"}},
{"type":"Feature","geometry":{"type":"Point","coordinates":[114.289688,30.575977]},"properties":{"name":"武汉东方龙搏击俱乐部","xiaolei":"7374006","address":"民生路5","zhonglei":"7374","dalei":"9","type":"sport"}},
{"type":"Feature","geometry":{"type":"Point","coordinates":[114.275798,30.554628]},"properties":{"name":"莲花湖水上乐园","xiaolei":"-9999","address":"","zhonglei":"9371","dalei":"9","type":"sport"}},
{"type":"Feature","geometry":{"type":"Point","coordinates":[114.266893,30.558342]},"properties":{"name":"龟北路３号羽毛球馆","xiaolei":"7374017","address":"龟北路3","zhonglei":"7374","dalei":"9","type":"sport"}},
{"type":"Feature","geometry":{"type":"Point","coordinates":[114.288751,30.572028]},"properties":{"name":"野力时尚运动","xiaolei":"7374006","address":"民权路1号长江大厦4层","zhonglei":"7374","dalei":"9","type":"sport"}},
{"type":"Feature","geometry":{"type":"Point","coordinates":[114.270572,30.541605]},"properties":{"name":"汉阳江滩水上乐园","xiaolei":"-9999","address":"腰路堤","zhonglei":"9371","dalei":"9","type":"sport"}},
{"type":"Feature","geometry":{"type":"Point","coordinates":[114.270985,30.542574]},"properties":{"name":"汉阳江滩篮球场","xiaolei":"7374012","address":"滨江大道","zhonglei":"7374","dalei":"9","type":"sport"}},
{"type":"Feature","geometry":{"type":"Point","coordinates":[114.271672,30.543742]},"properties":{"name":"汉阳江滩足球场","xiaolei":"7374004","address":"","zhonglei":"7374","dalei":"9","type":"sport"}},
{"type":"Feature","geometry":{"type":"Point","coordinates":[114.261583,30.551562]},"properties":{"name":"伯牙瑜伽中心","xiaolei":"7320002","address":"汉阳大道134号汉商大厦写字楼13层1310","zhonglei":"7320","dalei":"9","type":"sport"}},
{"type":"Feature","geometry":{"type":"Point","coordinates":[114.258599,30.574414]},"properties":{"name":"东华跆拳道馆","xiaolei":"7374018","address":"集贤路特1号武汉市硚口区青少年宫6层","zhonglei":"7374","dalei":"9","type":"sport"}},
{"type":"Feature","geometry":{"type":"Point","coordinates":[114.254866,30.578837]},"properties":{"name":"武汉体育馆","xiaolei":"7374006","address":"解放大道612","zhonglei":"7374","dalei":"9","type":"sport"}},
{"type":"Feature","geometry":{"type":"Point","coordinates":[114.254881,30.578848]},"properties":{"name":"跆英跆拳道正道馆（南丰大厦西北）","xiaolei":"7374018","address":"解放大道612号武汉体育馆","zhonglei":"7374","dalei":"9","type":"sport"}},
{"type":"Feature","geometry":{"type":"Point","coordinates":[114.264378,30.576576]},"properties":{"name":"美格菲健身中心（汉口店）","xiaolei":"7320002","address":"武胜路134号泰合广场1层","zhonglei":"7320","dalei":"9","type":"sport"}},
{"type":"Feature","geometry":{"type":"Point","coordinates":[114.254689,30.579947]},"properties":{"name":"武汉体育馆（西北门）","xiaolei":"7374006","address":"解放大道612","zhonglei":"7374","dalei":"9","type":"sport"}},
{"type":"Feature","geometry":{"type":"Point","coordinates":[114.255405,30.579327]},"properties":{"name":"武汉体育馆（东门）","xiaolei":"7374006","address":"解放大道612","zhonglei":"7374","dalei":"9","type":"sport"}},
{"type":"Feature","geometry":{"type":"Point","coordinates":[114.260041,30.574393]},"properties":{"name":"硚口区青少年宫恒温游泳馆","xiaolei":"-9999","address":"武胜西街6附19","zhonglei":"7338","dalei":"9","type":"sport"}},
{"type":"Feature","geometry":{"type":"Point","coordinates":[114.367578,30.560623]},"properties":{"name":"明涛户外运动基地","xiaolei":"7320004","address":"","zhonglei":"7320","dalei":"9","type":"sport"}},
{"type":"Feature","geometry":{"type":"Point","coordinates":[114.352028,30.555855]},"properties":{"name":"武汉大学医学部羽毛球馆","xiaolei":"7374017","address":"","zhonglei":"7374","dalei":"9","type":"sport"}},
{"type":"Feature","geometry":{"type":"Point","coordinates":[114.328685,30.582786]},"properties":{"name":"湖北大学游泳池","xiaolei":"-9999","address":"","zhonglei":"7338","dalei":"9","type":"sport"}},
{"type":"Feature","geometry":{"type":"Point","coordinates":[114.293078,30.545761]},"properties":{"name":"刘勇跆拳道馆","xiaolei":"7374018","address":"解放路407号","zhonglei":"7374","dalei":"9","type":"sport"}},
{"type":"Feature","geometry":{"type":"Point","coordinates":[114.293078,30.545761]},"properties":{"name":"龙一跆拳道馆（武昌分馆）","xiaolei":"7374018","address":"","zhonglei":"7374","dalei":"9","type":"sport"}},
{"type":"Feature","geometry":{"type":"Point","coordinates":[114.296337,30.52551]},"properties":{"name":"武汉市武泰闸体育场","xiaolei":"7374006","address":"巡司河路","zhonglei":"7374","dalei":"9","type":"sport"}},
{"type":"Feature","geometry":{"type":"Point","coordinates":[114.309386,30.512651]},"properties":{"name":"Ｋ腾健身会馆","xiaolei":"7320002","address":"恒安路134","zhonglei":"7320","dalei":"9","type":"sport"}},
{"type":"Feature","geometry":{"type":"Point","coordinates":[114.329112,30.54834]},"properties":{"name":"洪山体育馆","xiaolei":"7374006","address":"体育馆路1","zhonglei":"7374","dalei":"9","type":"sport"}},
{"type":"Feature","geometry":{"type":"Point","coordinates":[114.327787,30.550874]},"properties":{"name":"湖北省体育局洪山体育中心","xiaolei":"7374006","address":"体育馆路特1号","zhonglei":"7374","dalei":"9","type":"sport"}},
{"type":"Feature","geometry":{"type":"Point","coordinates":[114.327787,30.550874]},"properties":{"name":"湖北省全民健身中心（体育馆路）","xiaolei":"7320002","address":"体育馆路特1号","zhonglei":"7320","dalei":"9","type":"sport"}},
{"type":"Feature","geometry":{"type":"Point","coordinates":[114.327787,30.550874]},"properties":{"name":"英东游泳跳水馆","xiaolei":"-9999","address":"体育馆路特1号","zhonglei":"7338","dalei":"9","type":"sport"}},
{"type":"Feature","geometry":{"type":"Point","coordinates":[114.339427,30.553244]},"properties":{"name":"武汉天鹰青少年体育俱乐部","xiaolei":"7374006","address":"东湖路89","zhonglei":"7374","dalei":"9","type":"sport"}},
{"type":"Feature","geometry":{"type":"Point","coordinates":[114.342851,30.54695]},"properties":{"name":"水果湖第一小学游泳馆","xiaolei":"-9999","address":"东三路3号","zhonglei":"7338","dalei":"9","type":"sport"}},
{"type":"Feature","geometry":{"type":"Point","coordinates":[114.359096,30.525161]},"properties":{"name":"跆风跆拳道俱乐部","xiaolei":"7374018","address":"珞喻路205号广埠屯菜场3层图书城内","zhonglei":"7374","dalei":"9","type":"sport"}},
{"type":"Feature","geometry":{"type":"Point","coordinates":[114.348757,30.529371]},"properties":{"name":"嘉丽然肚皮舞瑜伽俱乐部","xiaolei":"7320002","address":"珞瑜路1号鹏程国际A座916-918","zhonglei":"7320","dalei":"9","type":"sport"}},
{"type":"Feature","geometry":{"type":"Point","coordinates":[114.366301,30.509791]},"properties":{"name":"湖北交通职业技术学院游泳馆","xiaolei":"-9999","address":"雄楚大道455号","zhonglei":"7338","dalei":"9","type":"sport"}},
{"type":"Feature","geometry":{"type":"Point","coordinates":[114.330221,30.536375]},"properties":{"name":"洪山公园游泳池","xiaolei":"-9999","address":"","zhonglei":"7338","dalei":"9","type":"sport"}},
{"type":"Feature","geometry":{"type":"Point","coordinates":[114.330221,30.536375]},"properties":{"name":"洪山公园滚轴溜冰场","xiaolei":"-9999","address":"武珞路509号","zhonglei":"9360","dalei":"9","type":"sport"}},
{"type":"Feature","geometry":{"type":"Point","coordinates":[114.330221,30.536375]},"properties":{"name":"洪山公园健身舞场","xiaolei":"7320002","address":"","zhonglei":"7320","dalei":"9","type":"sport"}},
{"type":"Feature","geometry":{"type":"Point","coordinates":[114.347716,30.538393]},"properties":{"name":"悍风健身运动中心","xiaolei":"7320002","address":"八一路151","zhonglei":"7320","dalei":"9","type":"sport"}},
{"type":"Feature","geometry":{"type":"Point","coordinates":[114.347716,30.538393]},"properties":{"name":"搏乐散打搏击俱乐部","xiaolei":"7374006","address":"八一路151","zhonglei":"7374","dalei":"9","type":"sport"}},
{"type":"Feature","geometry":{"type":"Point","coordinates":[114.334534,30.544977]},"properties":{"name":"水果湖第二中学乒乓球馆","xiaolei":"7374015","address":"八一路7号","zhonglei":"7374","dalei":"9","type":"sport"}},
{"type":"Feature","geometry":{"type":"Point","coordinates":[114.334534,30.544977]},"properties":{"name":"水果湖第二中学羽毛球馆","xiaolei":"7374017","address":"八一路7号","zhonglei":"7374","dalei":"9","type":"sport"}},
{"type":"Feature","geometry":{"type":"Point","coordinates":[114.348757,30.529371]},"properties":{"name":"武汉清心瑜伽会所","xiaolei":"7320002","address":"珞瑜路1号鹏程国际A座2303","zhonglei":"7320","dalei":"9","type":"sport"}},
{"type":"Feature","geometry":{"type":"Point","coordinates":[114.348757,30.529371]},"properties":{"name":"子瑜高温瑜伽会所","xiaolei":"7320002","address":"珞瑜路1号鹏程国际A座1012","zhonglei":"7320","dalei":"9","type":"sport"}},
{"type":"Feature","geometry":{"type":"Point","coordinates":[114.350964,30.530374]},"properties":{"name":"武汉大学信息学部体育馆","xiaolei":"7374006","address":"珞喻路37号","zhonglei":"7374","dalei":"9","type":"sport"}},
{"type":"Feature","geometry":{"type":"Point","coordinates":[114.351359,30.521538]},"properties":{"name":"博雅溜冰城","xiaolei":"-9999","address":"满江红","zhonglei":"9360","dalei":"9","type":"sport"}},
{"type":"Feature","geometry":{"type":"Point","coordinates":[114.351359,30.521538]},"properties":{"name":"帕菲克国际健身俱乐部（桂元路）","xiaolei":"7320002","address":"满江红","zhonglei":"7320","dalei":"9","type":"sport"}},
{"type":"Feature","geometry":{"type":"Point","coordinates":[114.310493,30.518493]},"properties":{"name":"南湖花园羽毛球馆","xiaolei":"7374017","address":"恒安路345附近","zhonglei":"7374","dalei":"9","type":"sport"}},
{"type":"Feature","geometry":{"type":"Point","coordinates":[114.327787,30.550874]},"properties":{"name":"湖北洪山网球俱乐部","xiaolei":"-9999","address":"体育馆路特1号","zhonglei":"9369","dalei":"9","type":"sport"}},
{"type":"Feature","geometry":{"type":"Point","coordinates":[114.312882,30.551598]},"properties":{"name":"宝益身健美健身","xiaolei":"7320002","address":"中山路341号","zhonglei":"7320","dalei":"9","type":"sport"}},
{"type":"Feature","geometry":{"type":"Point","coordinates":[114.32983,30.549232]},"properties":{"name":"洪山体育馆（东北门）","xiaolei":"7374006","address":"体育馆路1","zhonglei":"7374","dalei":"9","type":"sport"}},
{"type":"Feature","geometry":{"type":"Point","coordinates":[114.330005,30.547846]},"properties":{"name":"洪山体育馆（东南门）","xiaolei":"7374006","address":"体育馆路","zhonglei":"7374","dalei":"9","type":"sport"}},
{"type":"Feature","geometry":{"type":"Point","coordinates":[114.328745,30.54718]},"properties":{"name":"洪山体育馆（南门）","xiaolei":"7374006","address":"体育馆路1","zhonglei":"7374","dalei":"9","type":"sport"}},
{"type":"Feature","geometry":{"type":"Point","coordinates":[114.292344,30.545564]},"properties":{"name":"宏博溜冰城","xiaolei":"-9999","address":"大成路","zhonglei":"9360","dalei":"9","type":"sport"}},
{"type":"Feature","geometry":{"type":"Point","coordinates":[114.296754,30.541905]},"properties":{"name":"清风健身（武昌旗舰店）","xiaolei":"7320002","address":"彭刘杨路240","zhonglei":"7320","dalei":"9","type":"sport"}},
{"type":"Feature","geometry":{"type":"Point","coordinates":[114.302787,30.533176]},"properties":{"name":"武昌文化体育中心","xiaolei":"7374006","address":"首义路198","zhonglei":"7374","dalei":"9","type":"sport"}},
{"type":"Feature","geometry":{"type":"Point","coordinates":[114.300655,30.536208]},"properties":{"name":"武昌区紫阳湖游泳池","xiaolei":"-9999","address":"张之洞路224","zhonglei":"7338","dalei":"9","type":"sport"}},
{"type":"Feature","geometry":{"type":"Point","coordinates":[114.296722,30.52571]},"properties":{"name":"武汉市武泰闸体育场（东北门）","xiaolei":"7374006","address":"武泰闸三角塘14号","zhonglei":"7374","dalei":"9","type":"sport"}},
{"type":"Feature","geometry":{"type":"Point","coordinates":[114.25289,30.579466]},"properties":{"name":"冠军游泳池","xiaolei":"-9999","address":"解放大道610","zhonglei":"7338","dalei":"9","type":"sport"}},
{"type":"Feature","geometry":{"type":"Point","coordinates":[114.34477,30.512074]},"properties":{"name":"帕菲克国际健身俱乐部（雄楚大道）","xiaolei":"7320002","address":"","zhonglei":"7320","dalei":"9","type":"sport"}},
{"type":"Feature","geometry":{"type":"Point","coordinates":[114.36564,30.572654]},"properties":{"name":"梨园网球中心","xiaolei":"-9999","address":"东湖路","zhonglei":"9369","dalei":"9","type":"sport"}},
{"type":"Feature","geometry":{"type":"Point","coordinates":[114.306046,30.541637]},"properties":{"name":"中南财经政法大学体育场","xiaolei":"7374006","address":"武珞路114号","zhonglei":"7374","dalei":"9","type":"sport"}},
{"type":"Feature","geometry":{"type":"Point","coordinates":[114.357702,30.572568]},"properties":{"name":"军旅国际羽毛球俱乐部","xiaolei":"7374017","address":"东亭路19","zhonglei":"7374","dalei":"9","type":"sport"}},
{"type":"Feature","geometry":{"type":"Point","coordinates":[114.336717,30.555519]},"properties":{"name":"中北羽毛球馆","xiaolei":"7374017","address":"中北路18号","zhonglei":"7374","dalei":"9","type":"sport"}},
{"type":"Feature","geometry":{"type":"Point","coordinates":[114.342114,30.553034]},"properties":{"name":"陈中跆拳道俱乐部","xiaolei":"7374018","address":"东湖路98号2层","zhonglei":"7374","dalei":"9","type":"sport"}},
{"type":"Feature","geometry":{"type":"Point","coordinates":[114.34119,30.552519]},"properties":{"name":"水果湖高中游泳馆","xiaolei":"-9999","address":"东湖路74号","zhonglei":"7338","dalei":"9","type":"sport"}},
{"type":"Feature","geometry":{"type":"Point","coordinates":[114.263281,30.570922]},"properties":{"name":"刘勇国际健身会（武胜路）","xiaolei":"7320002","address":"中山大道244号5层","zhonglei":"7320","dalei":"9","type":"sport"}},
{"type":"Feature","geometry":{"type":"Point","coordinates":[114.269482,30.579271]},"properties":{"name":"六角亭体育场","xiaolei":"7374006","address":"顺道街144","zhonglei":"7374","dalei":"9","type":"sport"}},
{"type":"Feature","geometry":{"type":"Point","coordinates":[114.324483,30.550447]},"properties":{"name":"永搏羽毛球馆","xiaolei":"7374017","address":"民主二路26","zhonglei":"7374","dalei":"9","type":"sport"}},
{"type":"Feature","geometry":{"type":"Point","coordinates":[114.361815,30.511874]},"properties":{"name":"金轮溜冰城","xiaolei":"-9999","address":"卓刀泉南路31附39附近","zhonglei":"9360","dalei":"9","type":"sport"}},
{"type":"Feature","geometry":{"type":"Point","coordinates":[114.254873,30.578848]},"properties":{"name":"中体倍力健身俱乐部（武汉体育馆店","xiaolei":"7320002","address":"解放大道612号武汉体育馆","zhonglei":"7320","dalei":"9","type":"sport"}},
{"type":"Feature","geometry":{"type":"Point","coordinates":[114.279496,30.577507]},"properties":{"name":"佰家康健身会所","xiaolei":"7320002","address":"","zhonglei":"7320","dalei":"9","type":"sport"}},
{"type":"Feature","geometry":{"type":"Point","coordinates":[114.366215,30.564884]},"properties":{"name":"听涛天然泳场","xiaolei":"-9999","address":"","zhonglei":"7338","dalei":"9","type":"sport"}},
{"type":"Feature","geometry":{"type":"Point","coordinates":[114.252244,30.574168]},"properties":{"name":"中山健身园","xiaolei":"7320004","address":"","zhonglei":"7320","dalei":"9","type":"sport"}},
{"type":"Feature","geometry":{"type":"Point","coordinates":[114.302923,30.533166]},"properties":{"name":"武昌文化体育中心（东门）","xiaolei":"7374006","address":"首义路198","zhonglei":"7374","dalei":"9","type":"sport"}},
{"type":"Feature","geometry":{"type":"Point","coordinates":[114.296216,30.560681]},"properties":{"name":"滨江网球","xiaolei":"-9999","address":"","zhonglei":"9369","dalei":"9","type":"sport"}},
{"type":"Feature","geometry":{"type":"Point","coordinates":[114.349173,30.577334]},"properties":{"name":"百利羽毛球馆","xiaolei":"7374017","address":"徐东大街298","zhonglei":"7374","dalei":"9","type":"sport"}},
{"type":"Feature","geometry":{"type":"Point","coordinates":[114.36496,30.507201]},"properties":{"name":"名都花园运动中心","xiaolei":"7374006","address":"","zhonglei":"7374","dalei":"9","type":"sport"}},
{"type":"Feature","geometry":{"type":"Point","coordinates":[114.260984,30.553642]},"properties":{"name":"铜锣湾溜冰城","xiaolei":"-9999","address":"鹦鹉大道27号新世界百货汉阳店","zhonglei":"9360","dalei":"9","type":"sport"}},
{"type":"Feature","geometry":{"type":"Point","coordinates":[114.342336,30.520687]},"properties":{"name":"武汉理工大学西区体育馆（北门）","xiaolei":"7374006","address":"","zhonglei":"7374","dalei":"9","type":"sport"}},
{"type":"Feature","geometry":{"type":"Point","coordinates":[114.325845,30.537878]},"properties":{"name":"阳光天使婴儿游泳馆","xiaolei":"-9999","address":"中南路3号阜华·领秀中南9层918","zhonglei":"7338","dalei":"9","type":"sport"}},
{"type":"Feature","geometry":{"type":"Point","coordinates":[114.330442,30.54453]},"properties":{"name":"风云中华跆拳道馆（中南路）","xiaolei":"7374018","address":"中南路80号中南大厦乙座5层","zhonglei":"7374","dalei":"9","type":"sport"}},
{"type":"Feature","geometry":{"type":"Point","coordinates":[114.353286,30.518027]},"properties":{"name":"华中师范大学佑铭体育馆","xiaolei":"7374006","address":"珞喻路152号","zhonglei":"7374","dalei":"9","type":"sport"}},
{"type":"Feature","geometry":{"type":"Point","coordinates":[114.267883,30.558487]},"properties":{"name":"武汉快意攀岩俱乐部","xiaolei":"7374006","address":"龟山北路3号极限运动场","zhonglei":"7374","dalei":"9","type":"sport"}},
{"type":"Feature","geometry":{"type":"Point","coordinates":[114.267883,30.558487]},"properties":{"name":"武汉ＣＴ跑酷俱乐部","xiaolei":"7374006","address":"龟山北路3号","zhonglei":"7374","dalei":"9","type":"sport"}},
{"type":"Feature","geometry":{"type":"Point","coordinates":[114.306994,30.53756]},"properties":{"name":"湖北星之源乒乓球俱乐部","xiaolei":"7374015","address":"","zhonglei":"7374","dalei":"9","type":"sport"}},
{"type":"Feature","geometry":{"type":"Point","coordinates":[114.37188,30.50033]},"properties":{"name":"中南财经政法大学武汉学院体育馆","xiaolei":"7374006","address":"雄楚大道666号","zhonglei":"7374","dalei":"9","type":"sport"}},
{"type":"Feature","geometry":{"type":"Point","coordinates":[114.362408,30.545267]},"properties":{"name":"武汉大学工学部体育馆","xiaolei":"7374006","address":"东湖南路","zhonglei":"7374","dalei":"9","type":"sport"}},
{"type":"Feature","geometry":{"type":"Point","coordinates":[114.348394,30.520218]},"properties":{"name":"武汉理工大学东区体育馆","xiaolei":"7374006","address":"","zhonglei":"7374","dalei":"9","type":"sport"}},
{"type":"Feature","geometry":{"type":"Point","coordinates":[114.352026,30.555854]},"properties":{"name":"武汉大学医学部体育馆","xiaolei":"7374006","address":"武汉大学医学部内","zhonglei":"7374","dalei":"9","type":"sport"}},
{"type":"Feature","geometry":{"type":"Point","coordinates":[114.290522,30.549563]},"properties":{"name":"青云跆拳道","xiaolei":"7374018","address":"","zhonglei":"7374","dalei":"9","type":"sport"}},
{"type":"Feature","geometry":{"type":"Point","coordinates":[114.295626,30.542068]},"properties":{"name":"唐龙泰拳国际健身会馆","xiaolei":"7320002","address":"彭刘杨路234号博大数码广场2层","zhonglei":"7320","dalei":"9","type":"sport"}},
{"type":"Feature","geometry":{"type":"Point","coordinates":[114.306851,30.540736]},"properties":{"name":"星展网球俱乐部","xiaolei":"-9999","address":"","zhonglei":"9369","dalei":"9","type":"sport"}},
{"type":"Feature","geometry":{"type":"Point","coordinates":[114.336993,30.512826]},"properties":{"name":"崇文羽毛球馆","xiaolei":"7374017","address":"雄楚大道","zhonglei":"7374","dalei":"9","type":"sport"}},
{"type":"Feature","geometry":{"type":"Point","coordinates":[114.316414,30.515793]},"properties":{"name":"刘勇国际健身会羽毛球运动中心","xiaolei":"7374017","address":"","zhonglei":"7374","dalei":"9","type":"sport"}},
{"type":"Feature","geometry":{"type":"Point","coordinates":[114.354894,30.557239]},"properties":{"name":"白云边网球馆","xiaolei":"-9999","address":"","zhonglei":"9369","dalei":"9","type":"sport"}},
{"type":"Feature","geometry":{"type":"Point","coordinates":[114.364154,30.503473]},"properties":{"name":"花园乒乓球馆（康福路）","xiaolei":"7374015","address":"","zhonglei":"7374","dalei":"9","type":"sport"}},
{"type":"Feature","geometry":{"type":"Point","coordinates":[114.363171,30.503475]},"properties":{"name":"华师励志跆拳道馆","xiaolei":"7374018","address":"","zhonglei":"7374","dalei":"9","type":"sport"}},
{"type":"Feature","geometry":{"type":"Point","coordinates":[114.268628,30.543761]},"properties":{"name":"威尔士健身俱乐部（武汉店）","xiaolei":"7320002","address":"滨江大道188","zhonglei":"7320","dalei":"9","type":"sport"}},
{"type":"Feature","geometry":{"type":"Point","coordinates":[114.315048,30.54295]},"properties":{"name":"长春观全真龙门精武馆","xiaolei":"7374006","address":"","zhonglei":"7374","dalei":"9","type":"sport"}},
{"type":"Feature","geometry":{"type":"Point","coordinates":[114.269384,30.579429]},"properties":{"name":"六角亭体育场（北门）","xiaolei":"7374006","address":"顺道街144","zhonglei":"7374","dalei":"9","type":"sport"}},
{"type":"Feature","geometry":{"type":"Point","coordinates":[114.321279,30.534156]},"properties":{"name":"梅苑健身苑","xiaolei":"7320002","address":"","zhonglei":"7320","dalei":"9","type":"sport"}},
{"type":"Feature","geometry":{"type":"Point","coordinates":[114.325474,30.529005]},"properties":{"name":"圣铸跆拳道馆","xiaolei":"7374018","address":"丁字桥","zhonglei":"7374","dalei":"9","type":"sport"}},
{"type":"Feature","geometry":{"type":"Point","coordinates":[114.331206,30.50046]},"properties":{"name":"南湖幸福湾水上公园","xiaolei":"-9999","address":"","zhonglei":"9371","dalei":"9","type":"sport"}},
{"type":"Feature","geometry":{"type":"Point","coordinates":[114.314751,30.526291]},"properties":{"name":"千江月恒温泳池","xiaolei":"-9999","address":"静安路10号","zhonglei":"7338","dalei":"9","type":"sport"}},
{"type":"Feature","geometry":{"type":"Point","coordinates":[114.307006,30.53771]},"properties":{"name":"中南财经政法大学首义校区体育馆","xiaolei":"7374006","address":"武珞路114","zhonglei":"7374","dalei":"9","type":"sport"}},
{"type":"Feature","geometry":{"type":"Point","coordinates":[114.323765,30.506262]},"properties":{"name":"武汉理工大学体育中心","xiaolei":"7374006","address":"","zhonglei":"7374","dalei":"9","type":"sport"}},
{"type":"Feature","geometry":{"type":"Point","coordinates":[114.330689,30.501038]},"properties":{"name":"金地·运动会所","xiaolei":"7374006","address":"","zhonglei":"7374","dalei":"9","type":"sport"}},
{"type":"Feature","geometry":{"type":"Point","coordinates":[114.337498,30.516354]},"properties":{"name":"武汉理工大学鉴湖校区体育场","xiaolei":"7374006","address":"工大路21号","zhonglei":"7374","dalei":"9","type":"sport"}},
{"type":"Feature","geometry":{"type":"Point","coordinates":[114.361713,30.546656]},"properties":{"name":"武汉大学体育馆","xiaolei":"7374006","address":"武汉大学工学部内","zhonglei":"7374","dalei":"9","type":"sport"}},
{"type":"Feature","geometry":{"type":"Point","coordinates":[114.342465,30.520544]},"properties":{"name":"武汉理工大学西区体育馆","xiaolei":"7374006","address":"","zhonglei":"7374","dalei":"9","type":"sport"}},
{"type":"Feature","geometry":{"type":"Point","coordinates":[114.293078,30.545761]},"properties":{"name":"刘勇健身会","xiaolei":"7320002","address":"司门口大成路","zhonglei":"7320","dalei":"9","type":"sport"}},
{"type":"Feature","geometry":{"type":"Point","coordinates":[114.289578,30.548012]},"properties":{"name":"昌欣乒乓球俱乐部","xiaolei":"7374015","address":"","zhonglei":"7374","dalei":"9","type":"sport"}},
{"type":"Feature","geometry":{"type":"Point","coordinates":[114.336306,30.557838]},"properties":{"name":"凯撒健身会馆","xiaolei":"7320002","address":"中北路129","zhonglei":"7320","dalei":"9","type":"sport"}},
{"type":"Feature","geometry":{"type":"Point","coordinates":[114.321988,30.574763]},"properties":{"name":"山道健身","xiaolei":"7320002","address":"徐东湖北大学学子园2层","zhonglei":"7320","dalei":"9","type":"sport"}},
{"type":"Feature","geometry":{"type":"Point","coordinates":[114.330194,30.582845]},"properties":{"name":"湖大健身俱乐部","xiaolei":"7320002","address":"","zhonglei":"7320","dalei":"9","type":"sport"}},
{"type":"Feature","geometry":{"type":"Point","coordinates":[114.32973,30.582884]},"properties":{"name":"湖北大学网球场","xiaolei":"-9999","address":"","zhonglei":"9369","dalei":"9","type":"sport"}},
{"type":"Feature","geometry":{"type":"Point","coordinates":[114.330814,30.541559]},"properties":{"name":"中南羽毛球馆","xiaolei":"7374017","address":"中南三路34号","zhonglei":"7374","dalei":"9","type":"sport"}},
{"type":"Feature","geometry":{"type":"Point","coordinates":[114.327456,30.53727]},"properties":{"name":"元泉瑜伽（武珞路）","xiaolei":"7320002","address":"中南路中建广场C座28层M1M2","zhonglei":"7320","dalei":"9","type":"sport"}},
{"type":"Feature","geometry":{"type":"Point","coordinates":[114.327456,30.53727]},"properties":{"name":"静心瑜伽","xiaolei":"7320002","address":"中南路中建广场C座19层","zhonglei":"7320","dalei":"9","type":"sport"}},
{"type":"Feature","geometry":{"type":"Point","coordinates":[114.344175,30.530568]},"properties":{"name":"武汉喻斌特别团体街舞俱乐部（总部","xiaolei":"7320002","address":"武珞路717号兆富国际11层1105","zhonglei":"7320","dalei":"9","type":"sport"}},
{"type":"Feature","geometry":{"type":"Point","coordinates":[114.287459,30.579079]},"properties":{"name":"空中健身会所","xiaolei":"7320002","address":"宝利金商业中心4层","zhonglei":"7320","dalei":"9","type":"sport"}},
{"type":"Feature","geometry":{"type":"Point","coordinates":[114.251145,30.572436]},"properties":{"name":"金太阳健身俱乐部","xiaolei":"7320002","address":"","zhonglei":"7320","dalei":"9","type":"sport"}},
{"type":"Feature","geometry":{"type":"Point","coordinates":[114.359871,30.570951]},"properties":{"name":"湖北日报传媒集团门球厂","xiaolei":"7374006","address":"东湖路181号","zhonglei":"7374","dalei":"9","type":"sport"}},
{"type":"Feature","geometry":{"type":"Point","coordinates":[114.360068,30.570444]},"properties":{"name":"湖北日报传媒集团运动场","xiaolei":"7374006","address":"东湖路181号","zhonglei":"7374","dalei":"9","type":"sport"}},
{"type":"Feature","geometry":{"type":"Point","coordinates":[114.357475,30.567296]},"properties":{"name":"泰和瑜伽","xiaolei":"7320002","address":"东湖路181号","zhonglei":"7320","dalei":"9","type":"sport"}},
{"type":"Feature","geometry":{"type":"Point","coordinates":[114.360596,30.582418]},"properties":{"name":"天合跆拳道馆","xiaolei":"7374018","address":"东湖花苑1期3栋1单元1层","zhonglei":"7374","dalei":"9","type":"sport"}},
{"type":"Feature","geometry":{"type":"Point","coordinates":[114.260459,30.551721]},"properties":{"name":"伊特斯国际健身俱乐部","xiaolei":"7320002","address":"汉阳大道143号","zhonglei":"7320","dalei":"9","type":"sport"}},
{"type":"Feature","geometry":{"type":"Point","coordinates":[114.257797,30.548973]},"properties":{"name":"武汉尚武社跆拳道馆","xiaolei":"7374018","address":"","zhonglei":"7374","dalei":"9","type":"sport"}},
{"type":"Feature","geometry":{"type":"Point","coordinates":[114.253906,30.549924]},"properties":{"name":"汉水跆拳道馆","xiaolei":"7374018","address":"","zhonglei":"7374","dalei":"9","type":"sport"}},
{"type":"Feature","geometry":{"type":"Point","coordinates":[114.253768,30.54973]},"properties":{"name":"新星乒乓球俱乐部","xiaolei":"7374015","address":"","zhonglei":"7374","dalei":"9","type":"sport"}},
{"type":"Feature","geometry":{"type":"Point","coordinates":[114.268545,30.553098]},"properties":{"name":"大桥局羽毛球馆","xiaolei":"7374017","address":"汉阳大道36","zhonglei":"7374","dalei":"9","type":"sport"}},
{"type":"Feature","geometry":{"type":"Point","coordinates":[114.331041,30.549942]},"properties":{"name":"洪山宾馆网球场","xiaolei":"-9999","address":"中北路1号","zhonglei":"9369","dalei":"9","type":"sport"}},
{"type":"Feature","geometry":{"type":"Point","coordinates":[114.332449,30.550755]},"properties":{"name":"雅玛瑜伽","xiaolei":"7320002","address":"楚天都市花园D座10B","zhonglei":"7320","dalei":"9","type":"sport"}},
{"type":"Feature","geometry":{"type":"Point","coordinates":[114.314746,30.526287]},"properties":{"name":"千江月健身游泳馆","xiaolei":"-9999","address":"","zhonglei":"7338","dalei":"9","type":"sport"}},
{"type":"Feature","geometry":{"type":"Point","coordinates":[114.316194,30.516244]},"properties":{"name":"刘勇国际健身会（瑞安街）","xiaolei":"7320002","address":"瑞安街","zhonglei":"7320","dalei":"9","type":"sport"}},
{"type":"Feature","geometry":{"type":"Point","coordinates":[114.298998,30.537384]},"properties":{"name":"莱美国际健身中心","xiaolei":"7320002","address":"南国首义汇B1层北区","zhonglei":"7320","dalei":"9","type":"sport"}},
{"type":"Feature","geometry":{"type":"Point","coordinates":[114.302557,30.539925]},"properties":{"name":"首义健身","xiaolei":"7320002","address":"","zhonglei":"7320","dalei":"9","type":"sport"}},
{"type":"Feature","geometry":{"type":"Point","coordinates":[114.325847,30.537893]},"properties":{"name":"武汉市武昌区瑜馨瑜伽健身馆","xiaolei":"7320002","address":"中南路3号阜华·领秀中南18层1810","zhonglei":"7320","dalei":"9","type":"sport"}},
{"type":"Feature","geometry":{"type":"Point","coordinates":[114.318785,30.542387]},"properties":{"name":"鑫阳跆拳道俱乐部","xiaolei":"7374018","address":"武珞路凯乐花园3号门2层内","zhonglei":"7374","dalei":"9","type":"sport"}},
{"type":"Feature","geometry":{"type":"Point","coordinates":[114.278226,30.583053]},"properties":{"name":"前进街任冬社区全民健身中心","xiaolei":"7320002","address":"自治街186","zhonglei":"7320","dalei":"9","type":"sport"}},
{"type":"Feature","geometry":{"type":"Point","coordinates":[114.295495,30.548475]},"properties":{"name":"博乐综合搏击俱乐部分馆","xiaolei":"7374006","address":"民主路157号百汇商城2层","zhonglei":"7374","dalei":"9","type":"sport"}},
{"type":"Feature","geometry":{"type":"Point","coordinates":[114.282815,30.578692]},"properties":{"name":"民权街积庆社区全民健身中心","xiaolei":"7320002","address":"","zhonglei":"7320","dalei":"9","type":"sport"}},
{"type":"Feature","geometry":{"type":"Point","coordinates":[114.283502,30.574285]},"properties":{"name":"民族街涂家社区全民健身中心","xiaolei":"7320002","address":"花楼街71","zhonglei":"7320","dalei":"9","type":"sport"}},
{"type":"Feature","geometry":{"type":"Point","coordinates":[114.280543,30.57355]},"properties":{"name":"民族街武胜社区全民健身中心","xiaolei":"7320002","address":"乔家巷12","zhonglei":"7320","dalei":"9","type":"sport"}},
{"type":"Feature","geometry":{"type":"Point","coordinates":[114.287819,30.57087]},"properties":{"name":"民族街和平社区全民健身中心","xiaolei":"7320002","address":"","zhonglei":"7320","dalei":"9","type":"sport"}},
{"type":"Feature","geometry":{"type":"Point","coordinates":[114.373742,30.50784]},"properties":{"name":"山道健身会所（虎泉街）","xiaolei":"7320002","address":"","zhonglei":"7320","dalei":"9","type":"sport"}},
{"type":"Feature","geometry":{"type":"Point","coordinates":[114.261583,30.551562]},"properties":{"name":"汉武武术散打气功拳击防身术","xiaolei":"7374006","address":"汉阳大道134号汉商大厦写字楼14层1418","zhonglei":"7374","dalei":"9","type":"sport"}},
{"type":"Feature","geometry":{"type":"Point","coordinates":[114.264714,30.549981]},"properties":{"name":"天天乒乓球馆","xiaolei":"7374015","address":"北城路38号","zhonglei":"7374","dalei":"9","type":"sport"}},
{"type":"Feature","geometry":{"type":"Point","coordinates":[114.264714,30.549981]},"properties":{"name":"建桥乒乓球活动中心","xiaolei":"7374015","address":"北城路38","zhonglei":"7374","dalei":"9","type":"sport"}},
{"type":"Feature","geometry":{"type":"Point","coordinates":[114.356842,30.5674]},"properties":{"name":"正心武道","xiaolei":"7374018","address":"","zhonglei":"7374","dalei":"9","type":"sport"}},
{"type":"Feature","geometry":{"type":"Point","coordinates":[114.338265,30.550126]},"properties":{"name":"风云中华跆拳道馆（水果湖横路）","xiaolei":"7374018","address":"水果湖横路15号鹏程商务中心","zhonglei":"7374","dalei":"9","type":"sport"}},
{"type":"Feature","geometry":{"type":"Point","coordinates":[114.346357,30.527068]},"properties":{"name":"武道跆拳道馆街道口总馆","xiaolei":"7374018","address":"","zhonglei":"7374","dalei":"9","type":"sport"}},
{"type":"Feature","geometry":{"type":"Point","coordinates":[114.329231,30.534197]},"properties":{"name":"松涛跆拳道馆","xiaolei":"7374018","address":"武珞路558附1号合丰财富时代C座","zhonglei":"7374","dalei":"9","type":"sport"}},
{"type":"Feature","geometry":{"type":"Point","coordinates":[114.338523,30.517511]},"properties":{"name":"学海健身中心","xiaolei":"7320002","address":"","zhonglei":"7320","dalei":"9","type":"sport"}},
{"type":"Feature","geometry":{"type":"Point","coordinates":[114.340865,30.506749]},"properties":{"name":"武汉羽健羽毛球馆","xiaolei":"7374017","address":"","zhonglei":"7374","dalei":"9","type":"sport"}},
{"type":"Feature","geometry":{"type":"Point","coordinates":[114.354174,30.540602]},"properties":{"name":"武汉大学风雨操场","xiaolei":"7374006","address":"","zhonglei":"7374","dalei":"9","type":"sport"}},
{"type":"Feature","geometry":{"type":"Point","coordinates":[114.356352,30.540674]},"properties":{"name":"武汉大学宋卿体育馆","xiaolei":"7374006","address":"珞珈山武汉大学内","zhonglei":"7374","dalei":"9","type":"sport"}},
{"type":"Feature","geometry":{"type":"Point","coordinates":[114.349966,30.553831]},"properties":{"name":"水上运动俱乐部","xiaolei":"7374006","address":"东湖路140号弘毅大酒店门口","zhonglei":"7374","dalei":"9","type":"sport"}},
{"type":"Feature","geometry":{"type":"Point","coordinates":[114.361145,30.546244]},"properties":{"name":"武汉大学工学部体育馆（西门）","xiaolei":"7374006","address":"","zhonglei":"7374","dalei":"9","type":"sport"}},
{"type":"Feature","geometry":{"type":"Point","coordinates":[114.351705,30.542287]},"properties":{"name":"型动健身俱乐部","xiaolei":"7320002","address":"","zhonglei":"7320","dalei":"9","type":"sport"}},
{"type":"Feature","geometry":{"type":"Point","coordinates":[114.350672,30.55517]},"properties":{"name":"武汉大学篮球场","xiaolei":"7374012","address":"","zhonglei":"7374","dalei":"9","type":"sport"}},
{"type":"Feature","geometry":{"type":"Point","coordinates":[114.283859,30.579209]},"properties":{"name":"龙一跆拳道馆（民生馆）","xiaolei":"7374018","address":"民生路205号长江饭店3层","zhonglei":"7374","dalei":"9","type":"sport"}},
{"type":"Feature","geometry":{"type":"Point","coordinates":[114.373754,30.525747]},"properties":{"name":"武汉教育学院湖滨高尔夫练习场","xiaolei":"-9999","address":"","zhonglei":"9911","dalei":"9","type":"sport"}},
{"type":"Feature","geometry":{"type":"Point","coordinates":[114.328148,30.551079]},"properties":{"name":"洪山体育馆（北门）","xiaolei":"7374006","address":"","zhonglei":"7374","dalei":"9","type":"sport"}},
{"type":"Feature","geometry":{"type":"Point","coordinates":[114.300806,30.535978]},"properties":{"name":"馨佳恒温游泳馆","xiaolei":"-9999","address":"张之洞路226","zhonglei":"7338","dalei":"9","type":"sport"}},
{"type":"Feature","geometry":{"type":"Point","coordinates":[114.330709,30.579165]},"properties":{"name":"武汉师范学院体育馆１","xiaolei":"7374006","address":"","zhonglei":"7374","dalei":"9","type":"sport"}},
{"type":"Feature","geometry":{"type":"Point","coordinates":[114.370438,30.522513]},"properties":{"name":"中南体育学院体操馆","xiaolei":"7374006","address":"珞喻路461","zhonglei":"7374","dalei":"9","type":"sport"}},
{"type":"Feature","geometry":{"type":"Point","coordinates":[114.370725,30.52305]},"properties":{"name":"武汉体育学院小球馆","xiaolei":"7374006","address":"珞喻路461","zhonglei":"7374","dalei":"9","type":"sport"}},
{"type":"Feature","geometry":{"type":"Point","coordinates":[114.289949,30.540654]},"properties":{"name":"湖北艺术学院体育馆","xiaolei":"7374006","address":"解放路255","zhonglei":"7374","dalei":"9","type":"sport"}},
{"type":"Feature","geometry":{"type":"Point","coordinates":[114.329768,30.582266]},"properties":{"name":"湖北大学２号体育馆","xiaolei":"7374006","address":"友谊大道368号","zhonglei":"7374","dalei":"9","type":"sport"}},
{"type":"Feature","geometry":{"type":"Point","coordinates":[114.370407,30.522378]},"properties":{"name":"武汉体育学院体育艺术馆","xiaolei":"7374006","address":"珞喻路461","zhonglei":"7374","dalei":"9","type":"sport"}},
{"type":"Feature","geometry":{"type":"Point","coordinates":[114.31566,30.51485]},"properties":{"name":"松涛游泳池","xiaolei":"-9999","address":"瑞安街224","zhonglei":"7338","dalei":"9","type":"sport"}},
{"type":"Feature","geometry":{"type":"Point","coordinates":[114.37204,30.520728]},"properties":{"name":"中南体育学院重竞技馆","xiaolei":"7374006","address":"珞喻路461","zhonglei":"7374","dalei":"9","type":"sport"}},
{"type":"Feature","geometry":{"type":"Point","coordinates":[114.372306,30.521576]},"properties":{"name":"武汉体育学院综合馆","xiaolei":"7374006","address":"珞喻路461","zhonglei":"7374","dalei":"9","type":"sport"}},
{"type":"Feature","geometry":{"type":"Point","coordinates":[114.374637,30.522391]},"properties":{"name":"武汉体育学院篮球馆","xiaolei":"7374006","address":"","zhonglei":"7374","dalei":"9","type":"sport"}},
{"type":"Feature","geometry":{"type":"Point","coordinates":[114.322611,30.554515]},"properties":{"name":"汉奥羽球中心武昌馆","xiaolei":"7374017","address":"","zhonglei":"7374","dalei":"9","type":"sport"}},
{"type":"Feature","geometry":{"type":"Point","coordinates":[114.372883,30.521435]},"properties":{"name":"武汉体育学院体育馆","xiaolei":"7374006","address":"","zhonglei":"7374","dalei":"9","type":"sport"}},
{"type":"Feature","geometry":{"type":"Point","coordinates":[114.329748,30.549285]},"properties":{"name":"洪山体育馆（东门）","xiaolei":"7374006","address":"体育馆路1","zhonglei":"7374","dalei":"9","type":"sport"}},
{"type":"Feature","geometry":{"type":"Point","coordinates":[114.374063,30.525641]},"properties":{"name":"武汉体育学院恒温游泳馆","xiaolei":"7374006","address":"","zhonglei":"7374","dalei":"9","type":"sport"}},
{"type":"Feature","geometry":{"type":"Point","coordinates":[114.351934,30.531736]},"properties":{"name":"武汉大学信息学部游泳池","xiaolei":"-9999","address":"","zhonglei":"7338","dalei":"9","type":"sport"}},
{"type":"Feature","geometry":{"type":"Point","coordinates":[114.369988,30.520891]},"properties":{"name":"武汉体育学院体育艺术馆（南门）","xiaolei":"7374006","address":"","zhonglei":"7374","dalei":"9","type":"sport"}},
{"type":"Feature","geometry":{"type":"Point","coordinates":[114.386599,30.571637]},"properties":{"name":"湖心泳场","xiaolei":"-9999","address":"","zhonglei":"7338","dalei":"9","type":"sport"}},
{"type":"Feature","geometry":{"type":"Point","coordinates":[114.40424,30.563963]},"properties":{"name":"沙滩浴场","xiaolei":"-9999","address":"","zhonglei":"9371","dalei":"9","type":"sport"}},
{"type":"Feature","geometry":{"type":"Point","coordinates":[114.386624,30.538278]},"properties":{"name":"东湖八一游泳场","xiaolei":"-9999","address":"","zhonglei":"7338","dalei":"9","type":"sport"}},
{"type":"Feature","geometry":{"type":"Point","coordinates":[114.415156,30.538629]},"properties":{"name":"梁子湖高尔夫易东练习场","xiaolei":"-9999","address":"鲁磨路东湖钓鱼台","zhonglei":"9911","dalei":"9","type":"sport"}},
{"type":"Feature","geometry":{"type":"Point","coordinates":[114.38293,30.503209]},"properties":{"name":"武汉工程大学游泳池","xiaolei":"-9999","address":"","zhonglei":"7338","dalei":"9","type":"sport"}},
{"type":"Feature","geometry":{"type":"Point","coordinates":[114.412714,30.510444]},"properties":{"name":"华中科技大学光谷体育馆","xiaolei":"7374006","address":"珞喻路1037号","zhonglei":"7374","dalei":"9","type":"sport"}},
{"type":"Feature","geometry":{"type":"Point","coordinates":[114.412786,30.509562]},"properties":{"name":"华中科技大学光谷体育馆（东南门）","xiaolei":"7374006","address":"珞喻路1037号华中科技大学洪山校区光","zhonglei":"7374","dalei":"9","type":"sport"}},
{"type":"Feature","geometry":{"type":"Point","coordinates":[114.377989,30.50424]},"properties":{"name":"武汉绿色世界高尔夫练习场","xiaolei":"-9999","address":"雄楚大道668号","zhonglei":"9911","dalei":"9","type":"sport"}},
{"type":"Feature","geometry":{"type":"Point","coordinates":[114.38664,30.538557]},"properties":{"name":"封都山游泳场","xiaolei":"-9999","address":"东湖东路14","zhonglei":"7338","dalei":"9","type":"sport"}},
{"type":"Feature","geometry":{"type":"Point","coordinates":[114.38801,30.570292]},"properties":{"name":"东湖疑海沙滩浴场（东北一门）","xiaolei":"-9999","address":"","zhonglei":"9371","dalei":"9","type":"sport"}},
{"type":"Feature","geometry":{"type":"Point","coordinates":[114.3896,30.569603]},"properties":{"name":"东湖疑海沙滩浴场（环湖路）","xiaolei":"-9999","address":"","zhonglei":"9371","dalei":"9","type":"sport"}},
{"type":"Feature","geometry":{"type":"Point","coordinates":[114.428672,30.51438]},"properties":{"name":"韵苑体育馆","xiaolei":"7374006","address":"","zhonglei":"7374","dalei":"9","type":"sport"}},
{"type":"Feature","geometry":{"type":"Point","coordinates":[114.3932,30.524054]},"properties":{"name":"中国地质大学西区羽毛球馆","xiaolei":"7374017","address":"鲁磨路485","zhonglei":"7374","dalei":"9","type":"sport"}},
{"type":"Feature","geometry":{"type":"Point","coordinates":[114.392728,30.524416]},"properties":{"name":"中国地质大学西区体育馆","xiaolei":"7374006","address":"鲁磨路485","zhonglei":"7374","dalei":"9","type":"sport"}},
{"type":"Feature","geometry":{"type":"Point","coordinates":[114.395175,30.529977]},"properties":{"name":"中国地质大学北区体育活动中心","xiaolei":"7374006","address":"鲁磨路388号","zhonglei":"7374","dalei":"9","type":"sport"}},
{"type":"Feature","geometry":{"type":"Point","coordinates":[114.392863,30.531207]},"properties":{"name":"中国地质大学北区体限健身俱乐部","xiaolei":"7320002","address":"鲁磨路388号","zhonglei":"7320","dalei":"9","type":"sport"}},
{"type":"Feature","geometry":{"type":"Point","coordinates":[114.424625,30.507116]},