{"type":"FeatureCollection", "features": [
{"type":"Feature","geometry":{"type":"Point","coordinates":[114.254885,30.699079]},"properties":{"name":"盘龙城遗址","address":"","zhonglei":"7337","dalei":"10","type":"view"}},
{"type":"Feature","geometry":{"type":"Point","coordinates":[114.457237,30.711744]},"properties":{"name":"田田生态园","address":"开隆高新科技园附近","zhonglei":"7337","dalei":"10","type":"view"}},
{"type":"Feature","geometry":{"type":"Point","coordinates":[114.176524,30.660355]},"properties":{"name":"金银湖生态旅游区","address":"","zhonglei":"7337","dalei":"10","type":"view"}},
{"type":"Feature","geometry":{"type":"Point","coordinates":[114.208681,30.66482]},"properties":{"name":"岱园","address":"","zhonglei":"7337","dalei":"10","type":"view"}},
{"type":"Feature","geometry":{"type":"Point","coordinates":[114.294948,30.589311]},"properties":{"name":"惠罗公司旧址","address":"鄱阳街153","zhonglei":"7337","dalei":"10","type":"view"}},
{"type":"Feature","geometry":{"type":"Point","coordinates":[114.298183,30.591514]},"properties":{"name":"东方汇理银行汉口分行旧址","address":"沿江大道171号","zhonglei":"7337","dalei":"10","type":"view"}},
{"type":"Feature","geometry":{"type":"Point","coordinates":[114.291801,30.596511]},"properties":{"name":"京汉火车站","address":"京汉大道1232","zhonglei":"7337","dalei":"10","type":"view"}},
{"type":"Feature","geometry":{"type":"Point","coordinates":[114.291805,30.596511]},"properties":{"name":"大智门车站旧址","address":"京汉大道1232","zhonglei":"7337","dalei":"10","type":"view"}},
{"type":"Feature","geometry":{"type":"Point","coordinates":[114.290392,30.593379]},"properties":{"name":"汉口中华全国总工会旧址","address":"友益街16","zhonglei":"7337","dalei":"10","type":"view"}},
{"type":"Feature","geometry":{"type":"Point","coordinates":[114.28924,30.587995]},"properties":{"name":"盐业银行大楼","address":"中山大道988","zhonglei":"7337","dalei":"10","type":"view"}},
{"type":"Feature","geometry":{"type":"Point","coordinates":[114.289076,30.58494]},"properties":{"name":"汉口商业银行大楼","address":"南京路64号","zhonglei":"7337","dalei":"10","type":"view"}},
{"type":"Feature","geometry":{"type":"Point","coordinates":[114.294247,30.583602]},"properties":{"name":"汉口汇丰银行大楼","address":"沿江大道143号","zhonglei":"7337","dalei":"10","type":"view"}},
{"type":"Feature","geometry":{"type":"Point","coordinates":[114.293037,30.590997]},"properties":{"name":"高氏医院旧址","address":"黎黄陂路38号","zhonglei":"7337","dalei":"10","type":"view"}},
{"type":"Feature","geometry":{"type":"Point","coordinates":[114.29495,30.589995]},"properties":{"name":"美国海军青年会旧址","address":"黎黄陂路10","zhonglei":"7337","dalei":"10","type":"view"}},
{"type":"Feature","geometry":{"type":"Point","coordinates":[114.295118,30.589556]},"properties":{"name":"中华基督教信义大楼旧址","address":"洞庭街77","zhonglei":"7337","dalei":"10","type":"view"}},
{"type":"Feature","geometry":{"type":"Point","coordinates":[114.295446,30.589396]},"properties":{"name":"俄国巡捕房旧址","address":"黎黄陂路8","zhonglei":"7337","dalei":"10","type":"view"}},
{"type":"Feature","geometry":{"type":"Point","coordinates":[114.296996,30.588924]},"properties":{"name":"华俄道胜银行旧址","address":"沿江大道162","zhonglei":"7337","dalei":"10","type":"view"}},
{"type":"Feature","geometry":{"type":"Point","coordinates":[114.298097,30.595354]},"properties":{"name":"汉口美最时洋行大楼","address":"一元路2","zhonglei":"7337","dalei":"10","type":"view"}},
{"type":"Feature","geometry":{"type":"Point","coordinates":[114.2918,30.596513]},"properties":{"name":"大智门火车站","address":"京汉大道1232","zhonglei":"7337","dalei":"10","type":"view"}},
{"type":"Feature","geometry":{"type":"Point","coordinates":[114.292256,30.591503]},"properties":{"name":"武汉基督教青年会汉口会所旧址","address":"黎黄陂路10","zhonglei":"7337","dalei":"10","type":"view"}},
{"type":"Feature","geometry":{"type":"Point","coordinates":[114.289998,30.588782]},"properties":{"name":"汉口西门子洋行旧址","address":"中山大道1004","zhonglei":"7337","dalei":"10","type":"view"}},
{"type":"Feature","geometry":{"type":"Point","coordinates":[114.292538,30.591015]},"properties":{"name":"万国医院旧址","address":"黎黄陂路49","zhonglei":"7337","dalei":"10","type":"view"}},
{"type":"Feature","geometry":{"type":"Point","coordinates":[114.293341,30.590477]},"properties":{"name":"日伪汉口放送局旧址","address":"胜利街171号","zhonglei":"7337","dalei":"10","type":"view"}},
{"type":"Feature","geometry":{"type":"Point","coordinates":[114.294378,30.589709]},"properties":{"name":"珞珈山街房子","address":"珞珈山街46","zhonglei":"7337","dalei":"10","type":"view"}},
{"type":"Feature","geometry":{"type":"Point","coordinates":[114.29675,30.588597]},"properties":{"name":"顺丰洋行旧址","address":"黎黄陂路1号","zhonglei":"7337","dalei":"10","type":"view"}},
{"type":"Feature","geometry":{"type":"Point","coordinates":[114.295307,30.589158]},"properties":{"name":"邦可花园旧址","address":"洞庭街78","zhonglei":"7337","dalei":"10","type":"view"}},
{"type":"Feature","geometry":{"type":"Point","coordinates":[114.294608,30.588794]},"properties":{"name":"巴公房子","address":"鄱阳街86","zhonglei":"7337","dalei":"10","type":"view"}},
{"type":"Feature","geometry":{"type":"Point","coordinates":[114.305708,30.60889]},"properties":{"name":"汉口新四军军部旧址","address":"汉口胜利街332-352号","zhonglei":"7337","dalei":"10","type":"view"}},
{"type":"Feature","geometry":{"type":"Point","coordinates":[114.312444,30.626778]},"properties":{"name":"京汉铁路总工会旧址","address":"解放大道2185","zhonglei":"7337","dalei":"10","type":"view"}},
{"type":"Feature","geometry":{"type":"Point","coordinates":[114.287522,30.586218]},"properties":{"name":"金城银行","address":"保华街2","zhonglei":"7337","dalei":"10","type":"view"}},
{"type":"Feature","geometry":{"type":"Point","coordinates":[114.290419,30.593718]},"properties":{"name":"刘少奇同志旧居","address":"尚德里1","zhonglei":"7337","dalei":"10","type":"view"}},
{"type":"Feature","geometry":{"type":"Point","coordinates":[114.301245,30.600475]},"properties":{"name":"安利英洋行汉口分行","address":"","zhonglei":"7337","dalei":"10","type":"view"}},
{"type":"Feature","geometry":{"type":"Point","coordinates":[114.284932,30.587351]},"properties":{"name":"吴佩孚公馆","address":"南京路122","zhonglei":"7337","dalei":"10","type":"view"}},
{"type":"Feature","geometry":{"type":"Point","coordinates":[114.291322,30.594019]},"properties":{"name":"华商饭店旧址","address":"友益街新成里旁","zhonglei":"7337","dalei":"10","type":"view"}},
{"type":"Feature","geometry":{"type":"Point","coordinates":[114.281193,30.583996]},"properties":{"name":"宁波会馆","address":"前进五路111附1","zhonglei":"7337","dalei":"10","type":"view"}},
{"type":"Feature","geometry":{"type":"Point","coordinates":[114.281051,30.584131]},"properties":{"name":"江苏会馆","address":"前进五路111号附近","zhonglei":"7337","dalei":"10","type":"view"}},
{"type":"Feature","geometry":{"type":"Point","coordinates":[114.284759,30.584173]},"properties":{"name":"国货商场","address":"江汉路121号","zhonglei":"7337","dalei":"10","type":"view"}},
{"type":"Feature","geometry":{"type":"Point","coordinates":[114.285046,30.584303]},"properties":{"name":"聚兴城银行","address":"江汉路114","zhonglei":"7337","dalei":"10","type":"view"}},
{"type":"Feature","geometry":{"type":"Point","coordinates":[114.286256,30.583391]},"properties":{"name":"中国银行大楼","address":"市区东路152号","zhonglei":"7337","dalei":"10","type":"view"}},
{"type":"Feature","geometry":{"type":"Point","coordinates":[114.286256,30.583391]},"properties":{"name":"中国银行汉口银行旧址","address":"中山大道593","zhonglei":"7337","dalei":"10","type":"view"}},
{"type":"Feature","geometry":{"type":"Point","coordinates":[114.292522,30.584074]},"properties":{"name":"汉口麦加利银行大楼","address":"","zhonglei":"7337","dalei":"10","type":"view"}},
{"type":"Feature","geometry":{"type":"Point","coordinates":[114.288278,30.584957]},"properties":{"name":"中孚银行旧址","address":"南京路47","zhonglei":"7337","dalei":"10","type":"view"}},
{"type":"Feature","geometry":{"type":"Point","coordinates":[114.287386,30.583727]},"properties":{"name":"广东银行汉口分行","address":"扬子街17","zhonglei":"7337","dalei":"10","type":"view"}},
{"type":"Feature","geometry":{"type":"Point","coordinates":[114.286898,30.583657]},"properties":{"name":"中央信托局汉口分局","address":"中山大道908","zhonglei":"7337","dalei":"10","type":"view"}},
{"type":"Feature","geometry":{"type":"Point","coordinates":[114.287053,30.583965]},"properties":{"name":"浙江实业银行汉口分行旧址","address":"中山大道910","zhonglei":"7337","dalei":"10","type":"view"}},
{"type":"Feature","geometry":{"type":"Point","coordinates":[114.290388,30.589032]},"properties":{"name":"汉口电话局旧址","address":"合作路51","zhonglei":"7337","dalei":"10","type":"view"}},
{"type":"Feature","geometry":{"type":"Point","coordinates":[114.296311,30.590432]},"properties":{"name":"李凡洛夫公馆","address":"洞庭街90","zhonglei":"7337","dalei":"10","type":"view"}},
{"type":"Feature","geometry":{"type":"Point","coordinates":[114.297635,30.590181]},"properties":{"name":"三北轮船公司","address":"沿江大道166号","zhonglei":"7337","dalei":"10","type":"view"}},
{"type":"Feature","geometry":{"type":"Point","coordinates":[114.297458,30.590651]},"properties":{"name":"俄国领事馆旧址","address":"沿江大道洞庭小路特1号","zhonglei":"7337","dalei":"10","type":"view"}},
{"type":"Feature","geometry":{"type":"Point","coordinates":[114.296685,30.591408]},"properties":{"name":"汉口赞育药房旧址","address":"","zhonglei":"7337","dalei":"10","type":"view"}},
{"type":"Feature","geometry":{"type":"Point","coordinates":[114.296685,30.591408]},"properties":{"name":"赞育汽水厂旧址","address":"","zhonglei":"7337","dalei":"10","type":"view"}},
{"type":"Feature","geometry":{"type":"Point","coordinates":[114.294285,30.590141]},"properties":{"name":"裕民部洋行","address":"黎黄陂路26","zhonglei":"7337","dalei":"10","type":"view"}},
{"type":"Feature","geometry":{"type":"Point","coordinates":[114.29596,30.593079]},"properties":{"name":"平汉铁路南局旧址","address":"胜利街174","zhonglei":"7337","dalei":"10","type":"view"}},
{"type":"Feature","geometry":{"type":"Point","coordinates":[114.293482,30.590671]},"properties":{"name":"俄租界工部局旧址","address":"","zhonglei":"7337","dalei":"10","type":"view"}},
{"type":"Feature","geometry":{"type":"Point","coordinates":[114.297884,30.59507]},"properties":{"name":"江汉关监督公署旧址","address":"一元路5","zhonglei":"7337","dalei":"10","type":"view"}},
{"type":"Feature","geometry":{"type":"Point","coordinates":[114.296676,30.607968]},"properties":{"name":"西商赛马俱乐部旧址","address":"解放大道1809号","zhonglei":"7337","dalei":"10","type":"view"}},
{"type":"Feature","geometry":{"type":"Point","coordinates":[114.295297,30.583887]},"properties":{"name":"汉口江滩（南门）","address":"","zhonglei":"7337","dalei":"10","type":"view"}},
{"type":"Feature","geometry":{"type":"Point","coordinates":[114.314899,30.648297]},"properties":{"name":"百步亭花园文化长廊","address":"安居路18","zhonglei":"7337","dalei":"10","type":"view"}},
{"type":"Feature","geometry":{"type":"Point","coordinates":[114.294195,30.589563]},"properties":{"name":"珞珈碑路高级住宅区旧址","address":"珞珈山街46","zhonglei":"7337","dalei":"10","type":"view"}},
{"type":"Feature","geometry":{"type":"Point","coordinates":[114.29373,30.58987]},"properties":{"name":"五花宾馆旧址","address":"黎黄陂路27","zhonglei":"7337","dalei":"10","type":"view"}},
{"type":"Feature","geometry":{"type":"Point","coordinates":[114.294951,30.589733]},"properties":{"name":"汉口信义公所旧址","address":"洞庭街77","zhonglei":"7337","dalei":"10","type":"view"}},
{"type":"Feature","geometry":{"type":"Point","coordinates":[114.286506,30.58749]},"properties":{"name":"华商总会旧址","address":"江汉二路157","zhonglei":"7337","dalei":"10","type":"view"}},
{"type":"Feature","geometry":{"type":"Point","coordinates":[114.287552,30.58505]},"properties":{"name":"大陆坊旧址","address":"中山大道930附1","zhonglei":"7337","dalei":"10","type":"view"}},
{"type":"Feature","geometry":{"type":"Point","coordinates":[114.29673,30.594962]},"properties":{"name":"萧耀南公馆旧址","address":"中山大道913","zhonglei":"7337","dalei":"10","type":"view"}},
{"type":"Feature","geometry":{"type":"Point","coordinates":[114.305602,30.604825]},"properties":{"name":"日本领事馆旧址","address":"沿江大道234号","zhonglei":"7337","dalei":"10","type":"view"}},
{"type":"Feature","geometry":{"type":"Point","coordinates":[114.293024,30.584218]},"properties":{"name":"保安洋行旧址","address":"青岛路8","zhonglei":"7337","dalei":"10","type":"view"}},
{"type":"Feature","geometry":{"type":"Point","coordinates":[114.29373,30.58987]},"properties":{"name":"首善堂","address":"黎黄陂路27","zhonglei":"7337","dalei":"10","type":"view"}},
{"type":"Feature","geometry":{"type":"Point","coordinates":[114.292344,30.584195]},"properties":{"name":"春江大楼","address":"洞庭街41","zhonglei":"7337","dalei":"10","type":"view"}},
{"type":"Feature","geometry":{"type":"Point","coordinates":[114.292392,30.589831]},"properties":{"name":"胜利街１５５号旧址","address":"胜利街155号","zhonglei":"7337","dalei":"10","type":"view"}},
{"type":"Feature","geometry":{"type":"Point","coordinates":[114.296063,30.592319]},"properties":{"name":"涂堃山公馆旧址","address":"车站路10","zhonglei":"7337","dalei":"10","type":"view"}},
{"type":"Feature","geometry":{"type":"Point","coordinates":[114.299101,30.591977]},"properties":{"name":"汉口江滩车站路闸口","address":"沿江大道174号","zhonglei":"7337","dalei":"10","type":"view"}},
{"type":"Feature","geometry":{"type":"Point","coordinates":[114.303679,30.60476]},"properties":{"name":"日租界军官宿舍旧址","address":"胜利街272","zhonglei":"7337","dalei":"10","type":"view"}},
{"type":"Feature","geometry":{"type":"Point","coordinates":[114.291757,30.596516]},"properties":{"name":"京汉火车站旧址（北门）","address":"京汉大道1232","zhonglei":"7337","dalei":"10","type":"view"}},
{"type":"Feature","geometry":{"type":"Point","coordinates":[114.290209,30.586887]},"properties":{"name":"英文楚报馆旧址","address":"胜利街77","zhonglei":"7337","dalei":"10","type":"view"}},
{"type":"Feature","geometry":{"type":"Point","coordinates":[114.296636,30.594307]},"properties":{"name":"胜利街２５７号旧址","address":"胜利街257","zhonglei":"7337","dalei":"10","type":"view"}},
{"type":"Feature","geometry":{"type":"Point","coordinates":[114.295536,30.59341]},"properties":{"name":"德明饭店旧址","address":"胜利街245","zhonglei":"7337","dalei":"10","type":"view"}},
{"type":"Feature","geometry":{"type":"Point","coordinates":[114.297834,30.592378]},"properties":{"name":"立兴洋行汉口分行旧址","address":"洞庭街118号","zhonglei":"7337","dalei":"10","type":"view"}},
{"type":"Feature","geometry":{"type":"Point","coordinates":[114.294615,30.584513]},"properties":{"name":"亚细亚火油公司汉口分公司旧址","address":"沿江大道148","zhonglei":"7337","dalei":"10","type":"view"}},
{"type":"Feature","geometry":{"type":"Point","coordinates":[114.296725,30.586831]},"properties":{"name":"汉口江滩兰陵路闸口","address":"","zhonglei":"7337","dalei":"10","type":"view"}},
{"type":"Feature","geometry":{"type":"Point","coordinates":[114.293264,30.592215]},"properties":{"name":"岳飞街１号","address":"岳飞街1","zhonglei":"7337","dalei":"10","type":"view"}},
{"type":"Feature","geometry":{"type":"Point","coordinates":[114.295451,30.591993]},"properties":{"name":"车站路２５号旧址","address":"车站路25","zhonglei":"7337","dalei":"10","type":"view"}},
{"type":"Feature","geometry":{"type":"Point","coordinates":[114.299107,30.593671]},"properties":{"name":"由立兴洋行所建的自用办公楼和仓库","address":"沿江大道183号","zhonglei":"7337","dalei":"10","type":"view"}},
{"type":"Feature","geometry":{"type":"Point","coordinates":[114.295302,30.5946]},"properties":{"name":"中山大道８８９号旧址","address":"中山大道889","zhonglei":"7337","dalei":"10","type":"view"}},
{"type":"Feature","geometry":{"type":"Point","coordinates":[114.280294,30.583753]},"properties":{"name":"圣若瑟女子中学","address":"自治街242","zhonglei":"7337","dalei":"10","type":"view"}},
{"type":"Feature","geometry":{"type":"Point","coordinates":[114.292403,30.584811]},"properties":{"name":"平和打包厂旧址","address":"青岛路10号","zhonglei":"7337","dalei":"10","type":"view"}},
{"type":"Feature","geometry":{"type":"Point","coordinates":[114.293168,30.587639]},"properties":{"name":"汉口电灯公司旧址","address":"鄱阳街56","zhonglei":"7337","dalei":"10","type":"view"}},
{"type":"Feature","geometry":{"type":"Point","coordinates":[114.28226,30.586494]},"properties":{"name":"汉口民国日报社旧址","address":"泰宁街2号","zhonglei":"7337","dalei":"10","type":"view"}},
{"type":"Feature","geometry":{"type":"Point","coordinates":[114.291981,30.594636]},"properties":{"name":"大舞台旧址","address":"友益街105号","zhonglei":"7337","dalei":"10","type":"view"}},
{"type":"Feature","geometry":{"type":"Point","coordinates":[114.28403,30.587335]},"properties":{"name":"南京路１１３号旧址","address":"南京路113号","zhonglei":"7337","dalei":"10","type":"view"}},
{"type":"Feature","geometry":{"type":"Point","coordinates":[114.302781,30.604473]},"properties":{"name":"胜利街３２５号旧址","address":"","zhonglei":"7337","dalei":"10","type":"view"}},
{"type":"Feature","geometry":{"type":"Point","coordinates":[114.497305,30.59189]},"properties":{"name":"武汉严西湖湿地生态园","address":"","zhonglei":"7337","dalei":"10","type":"view"}},
{"type":"Feature","geometry":{"type":"Point","coordinates":[114.388383,30.595751]},"properties":{"name":"欢乐谷出口","address":"欢乐大道186号","zhonglei":"7337","dalei":"10","type":"view"}},
{"type":"Feature","geometry":{"type":"Point","coordinates":[114.230394,30.546432]},"properties":{"name":"抚琴亭","address":"","zhonglei":"7337","dalei":"10","type":"view"}},
{"type":"Feature","geometry":{"type":"Point","coordinates":[114.224007,30.539772]},"properties":{"name":"洗笔亭","address":"","zhonglei":"7337","dalei":"10","type":"view"}},
{"type":"Feature","geometry":{"type":"Point","coordinates":[114.224703,30.535338]},"properties":{"name":"研墨亭","address":"","zhonglei":"7337","dalei":"10","type":"view"}},
{"type":"Feature","geometry":{"type":"Point","coordinates":[114.230755,30.54552]},"properties":{"name":"吟咏亭","address":"","zhonglei":"7337","dalei":"10","type":"view"}},
{"type":"Feature","geometry":{"type":"Point","coordinates":[114.274943,30.55873]},"properties":{"name":"龟山三国城","address":"龟北路特1号","zhonglei":"7337","dalei":"10","type":"view"}},
{"type":"Feature","geometry":{"type":"Point","coordinates":[114.293326,30.5821]},"properties":{"name":"汉口横滨正金银行大楼","address":"南京路2","zhonglei":"7337","dalei":"10","type":"view"}},
{"type":"Feature","geometry":{"type":"Point","coordinates":[114.293944,30.582948]},"properties":{"name":"汉口花旗银行大楼","address":"沿江大道142","zhonglei":"7337","dalei":"10","type":"view"}},
{"type":"Feature","geometry":{"type":"Point","coordinates":[114.292079,30.578571]},"properties":{"name":"江汉关大楼","address":"沿江大道95","zhonglei":"7337","dalei":"10","type":"view"}},
{"type":"Feature","geometry":{"type":"Point","coordinates":[114.291677,30.579077]},"properties":{"name":"汉口日清洋行大楼","address":"沿江大道131","zhonglei":"7337","dalei":"10","type":"view"}},
{"type":"Feature","geometry":{"type":"Point","coordinates":[114.270979,30.55776]},"properties":{"name":"龟山","address":"龟北路特1号","zhonglei":"7337","dalei":"10","type":"view"}},
{"type":"Feature","geometry":{"type":"Point","coordinates":[114.27511,30.558011]},"properties":{"name":"龟山电视塔","address":"龟北路特1号龟山公园","zhonglei":"7337","dalei":"10","type":"view"}},
{"type":"Feature","geometry":{"type":"Point","coordinates":[114.258342,30.556513]},"properties":{"name":"古琴台","address":"琴台大道10","zhonglei":"7337","dalei":"10","type":"view"}},
{"type":"Feature","geometry":{"type":"Point","coordinates":[114.280078,30.574612]},"properties":{"name":"孙中山先生之像","address":"","zhonglei":"7337","dalei":"10","type":"view"}},
{"type":"Feature","geometry":{"type":"Point","coordinates":[114.293189,30.553307]},"properties":{"name":"中共史第五次全国代表大会开幕式会","address":"都府堤69","zhonglei":"7337","dalei":"10","type":"view"}},
{"type":"Feature","geometry":{"type":"Point","coordinates":[114.335659,30.533506]},"properties":{"name":"洪山宝塔","address":"宝通寺","zhonglei":"7337","dalei":"10","type":"view"}},
{"type":"Feature","geometry":{"type":"Point","coordinates":[114.29759,30.547006]},"properties":{"name":"蛇山","address":"","zhonglei":"7337","dalei":"10","type":"view"}},
{"type":"Feature","geometry":{"type":"Point","coordinates":[114.308127,30.543909]},"properties":{"name":"黄鹄山庄","address":"","zhonglei":"7337","dalei":"10","type":"view"}},
{"type":"Feature","geometry":{"type":"Point","coordinates":[114.301977,30.528186]},"properties":{"name":"起义门","address":"","zhonglei":"7337","dalei":"10","type":"view"}},
{"type":"Feature","geometry":{"type":"Point","coordinates":[114.294808,30.555862]},"properties":{"name":"武昌农民运动讲习所旧址","address":"都府堤129号附近","zhonglei":"7337","dalei":"10","type":"view"}},
{"type":"Feature","geometry":{"type":"Point","coordinates":[114.348178,30.550717]},"properties":{"name":"放鹰台","address":"","zhonglei":"7337","dalei":"10","type":"view"}},
{"type":"Feature","geometry":{"type":"Point","coordinates":[114.332416,30.547178]},"properties":{"name":"董必武纪念像","address":"","zhonglei":"7337","dalei":"10","type":"view"}},
{"type":"Feature","geometry":{"type":"Point","coordinates":[114.329426,30.535887]},"properties":{"name":"无影塔","address":"","zhonglei":"7337","dalei":"10","type":"view"}},
{"type":"Feature","geometry":{"type":"Point","coordinates":[114.288143,30.548724]},"properties":{"name":"武汉长江大桥","address":"","zhonglei":"7337","dalei":"10","type":"view"}},
{"type":"Feature","geometry":{"type":"Point","coordinates":[114.302809,30.535316]},"properties":{"name":"辛亥首义发难处工程营旧址","address":"紫阳路234","zhonglei":"7337","dalei":"10","type":"view"}},
{"type":"Feature","geometry":{"type":"Point","coordinates":[114.361156,30.56176]},"properties":{"name":"毛泽东旧居","address":"临江大道","zhonglei":"7337","dalei":"10","type":"view"}},
{"type":"Feature","geometry":{"type":"Point","coordinates":[114.291141,30.542239]},"properties":{"name":"武汉中央军事政治学校旧址","address":"","zhonglei":"7337","dalei":"10","type":"view"}},
{"type":"Feature","geometry":{"type":"Point","coordinates":[114.290147,30.546612]},"properties":{"name":"乃园遗址","address":"乃园94附1","zhonglei":"7337","dalei":"10","type":"view"}},
{"type":"Feature","geometry":{"type":"Point","coordinates":[114.284863,30.581412]},"properties":{"name":"汉口水塔","address":"前进五路2附4","zhonglei":"7337","dalei":"10","type":"view"}},
{"type":"Feature","geometry":{"type":"Point","coordinates":[114.330854,30.547727]},"properties":{"name":"洪山广场","address":"洪山路","zhonglei":"7337","dalei":"10","type":"view"}},
{"type":"Feature","geometry":{"type":"Point","coordinates":[114.371514,30.575882]},"properties":{"name":"国风情园","address":"","zhonglei":"7337","dalei":"10","type":"view"}},
{"type":"Feature","geometry":{"type":"Point","coordinates":[114.288042,30.581844]},"properties":{"name":"上海银行汉口分行旧址","address":"江汉路60","zhonglei":"7337","dalei":"10","type":"view"}},
{"type":"Feature","geometry":{"type":"Point","coordinates":[114.290293,30.579766]},"properties":{"name":"台湾银行汉口分行旧址","address":"江汉路21","zhonglei":"7337","dalei":"10","type":"view"}},
{"type":"Feature","geometry":{"type":"Point","coordinates":[114.291275,30.579242]},"properties":{"name":"日信洋行旧址","address":"江汉路步行街12","zhonglei":"7337","dalei":"10","type":"view"}},
{"type":"Feature","geometry":{"type":"Point","coordinates":[114.30651,30.550511]},"properties":{"name":"私立武汉中学校旧址","address":"","zhonglei":"7337","dalei":"10","type":"view"}},
{"type":"Feature","geometry":{"type":"Point","coordinates":[114.30651,30.550511]},"properties":{"name":"武汉中学旧址","address":"","zhonglei":"7337","dalei":"10","type":"view"}},
{"type":"Feature","geometry":{"type":"Point","coordinates":[114.294808,30.555862]},"properties":{"name":"中央农民运动讲习所旧址","address":"","zhonglei":"7337","dalei":"10","type":"view"}},
{"type":"Feature","geometry":{"type":"Point","coordinates":[114.281512,30.578441]},"properties":{"name":"汉口新市场旧址","address":"中山大道704附1号","zhonglei":"7337","dalei":"10","type":"view"}},
{"type":"Feature","geometry":{"type":"Point","coordinates":[114.281298,30.578262]},"properties":{"name":"武汉国民政府旧址","address":"中山大道708","zhonglei":"7337","dalei":"10","type":"view"}},
{"type":"Feature","geometry":{"type":"Point","coordinates":[114.366244,30.536487]},"properties":{"name":"周恩来故居","address":"","zhonglei":"7337","dalei":"10","type":"view"}},
{"type":"Feature","geometry":{"type":"Point","coordinates":[114.366761,30.536401]},"properties":{"name":"郭沫若故居","address":"","zhonglei":"7337","dalei":"10","type":"view"}},
{"type":"Feature","geometry":{"type":"Point","coordinates":[114.355821,30.539279]},"properties":{"name":"六一纪念亭","address":"","zhonglei":"7337","dalei":"10","type":"view"}},
{"type":"Feature","geometry":{"type":"Point","coordinates":[114.34473,30.5307]},"properties":{"name":"国立武汉大学牌楼","address":"","zhonglei":"7337","dalei":"10","type":"view"}},
{"type":"Feature","geometry":{"type":"Point","coordinates":[114.366818,30.537273]},"properties":{"name":"珞珈山水塔","address":"","zhonglei":"7337","dalei":"10","type":"view"}},
{"type":"Feature","geometry":{"type":"Point","coordinates":[114.288646,30.580885]},"properties":{"name":"四明银行汉口分行","address":"江汉路45","zhonglei":"7337","dalei":"10","type":"view"}},
{"type":"Feature","geometry":{"type":"Point","coordinates":[114.350238,30.555002]},"properties":{"name":"毛泽东雕像","address":"","zhonglei":"7337","dalei":"10","type":"view"}},
{"type":"Feature","geometry":{"type":"Point","coordinates":[114.269529,30.541523]},"properties":{"name":"汉阳江滩游园","address":"拦江路139附6附近","zhonglei":"7337","dalei":"10","type":"view"}},
{"type":"Feature","geometry":{"type":"Point","coordinates":[114.356771,30.531515]},"properties":{"name":"陈永龄雕像","address":"","zhonglei":"7337","dalei":"10","type":"view"}},
{"type":"Feature","geometry":{"type":"Point","coordinates":[114.366451,30.565011]},"properties":{"name":"东湖风景名胜区听涛景区","address":"沿湖大道2","zhonglei":"7337","dalei":"10","type":"view"}},
{"type":"Feature","geometry":{"type":"Point","coordinates":[114.274867,30.557487]},"properties":{"name":"胜像宝塔","address":"龟北路特1号","zhonglei":"7337","dalei":"10","type":"view"}},
{"type":"Feature","geometry":{"type":"Point","coordinates":[114.36999,30.564168]},"properties":{"name":"松坡","address":"","zhonglei":"7337","dalei":"10","type":"view"}},
{"type":"Feature","geometry":{"type":"Point","coordinates":[114.27482,30.579037]},"properties":{"name":"济生路电话分局旧址","address":"友谊路90","zhonglei":"7337","dalei":"10","type":"view"}},
{"type":"Feature","geometry":{"type":"Point","coordinates":[114.260846,30.556815]},"properties":{"name":"龟山风景区（西门）","address":"","zhonglei":"7337","dalei":"10","type":"view"}},
{"type":"Feature","geometry":{"type":"Point","coordinates":[114.302786,30.554641]},"properties":{"name":"翁守谦故居","address":"","zhonglei":"7337","dalei":"10","type":"view"}},
{"type":"Feature","geometry":{"type":"Point","coordinates":[114.274689,30.557945]},"properties":{"name":"亚洲桅杆","address":"龟北路特1号","zhonglei":"7337","dalei":"10","type":"view"}},
{"type":"Feature","geometry":{"type":"Point","coordinates":[114.29919,30.544417]},"properties":{"name":"武昌起义军政府旧址售票处","address":"武珞路1号","zhonglei":"7337","dalei":"10","type":"view"}},
{"type":"Feature","geometry":{"type":"Point","coordinates":[114.304212,30.554157]},"properties":{"name":"仁济医院","address":"","zhonglei":"7337","dalei":"10","type":"view"}},
{"type":"Feature","geometry":{"type":"Point","coordinates":[114.303648,30.554996]},"properties":{"name":"瑞典教区旧址","address":"","zhonglei":"7337","dalei":"10","type":"view"}},
{"type":"Feature","geometry":{"type":"Point","coordinates":[114.278738,30.559005]},"properties":{"name":"龟山风景区（东门）","address":"","zhonglei":"7337","dalei":"10","type":"view"}},
{"type":"Feature","geometry":{"type":"Point","coordinates":[114.301838,30.554885]},"properties":{"name":"昙华林３２号","address":"","zhonglei":"7337","dalei":"10","type":"view"}},
{"type":"Feature","geometry":{"type":"Point","coordinates":[114.299192,30.544417]},"properties":{"name":"中华民国军政府鄂军都督府旧址","address":"武珞路1号","zhonglei":"7337","dalei":"10","type":"view"}},
{"type":"Feature","geometry":{"type":"Point","coordinates":[114.320655,30.539552]},"properties":{"name":"中华循道公会弘道会旧址","address":"武珞路345","zhonglei":"7337","dalei":"10","type":"view"}},
{"type":"Feature","geometry":{"type":"Point","coordinates":[114.303075,30.546202]},"properties":{"name":"岳武穆遗像亭","address":"民主路56号","zhonglei":"7337","dalei":"10","type":"view"}},
{"type":"Feature","geometry":{"type":"Point","coordinates":[114.300321,30.546291]},"properties":{"name":"乐天亭","address":"民主路56号","zhonglei":"7337","dalei":"10","type":"view"}},
{"type":"Feature","geometry":{"type":"Point","coordinates":[114.298834,30.545978]},"properties":{"name":"鹅碑亭","address":"民主路56号","zhonglei":"7337","dalei":"10","type":"view"}},
{"type":"Feature","geometry":{"type":"Point","coordinates":[114.366999,30.570446]},"properties":{"name":"东湖风景名胜区听涛景区（北门）","address":"","zhonglei":"7337","dalei":"10","type":"view"}},
{"type":"Feature","geometry":{"type":"Point","coordinates":[114.366388,30.565213]},"properties":{"name":"东湖风景名胜区听涛景区（东门）","address":"沿湖大道2","zhonglei":"7337","dalei":"10","type":"view"}},
{"type":"Feature","geometry":{"type":"Point","coordinates":[114.298973,30.545956]},"properties":{"name":"黄鹤楼（南大门）","address":"民主路56","zhonglei":"7337","dalei":"10","type":"view"}},
{"type":"Feature","geometry":{"type":"Point","coordinates":[114.367927,30.558857]},"properties":{"name":"苍柏园","address":"","zhonglei":"7337","dalei":"10","type":"view"}},
{"type":"Feature","geometry":{"type":"Point","coordinates":[114.289541,30.549365]},"properties":{"name":"辛亥百年徐荣廷故居","address":"民主路6","zhonglei":"7337","dalei":"10","type":"view"}},
{"type":"Feature","geometry":{"type":"Point","coordinates":[114.30331,30.554462]},"properties":{"name":"花园山牧师楼","address":"","zhonglei":"7337","dalei":"10","type":"view"}},
{"type":"Feature","geometry":{"type":"Point","coordinates":[114.300862,30.556679]},"properties":{"name":"石瑛旧居","address":"","zhonglei":"7337","dalei":"10","type":"view"}},
{"type":"Feature","geometry":{"type":"Point","coordinates":[114.254942,30.548802]},"properties":{"name":"三圣殿","address":"","zhonglei":"7337","dalei":"10","type":"view"}},
{"type":"Feature","geometry":{"type":"Point","coordinates":[114.254777,30.547529]},"properties":{"name":"罗汉堂","address":"","zhonglei":"7337","dalei":"10","type":"view"}},
{"type":"Feature","geometry":{"type":"Point","coordinates":[114.25344,30.547391]},"properties":{"name":"双面观音","address":"","zhonglei":"7337","dalei":"10","type":"view"}},
{"type":"Feature","geometry":{"type":"Point","coordinates":[114.253178,30.546554]},"properties":{"name":"财宝天王殿","address":"","zhonglei":"7337","dalei":"10","type":"view"}},
{"type":"Feature","geometry":{"type":"Point","coordinates":[114.254676,30.548097]},"properties":{"name":"韦驮殿","address":"","zhonglei":"7337","dalei":"10","type":"view"}},
{"type":"Feature","geometry":{"type":"Point","coordinates":[114.254448,30.548515]},"properties":{"name":"藏经阁","address":"","zhonglei":"7337","dalei":"10","type":"view"}},
{"type":"Feature","geometry":{"type":"Point","coordinates":[114.254925,30.548471]},"properties":{"name":"万佛殿","address":"","zhonglei":"7337","dalei":"10","type":"view"}},
{"type":"Feature","geometry":{"type":"Point","coordinates":[114.368131,30.563842]},"properties":{"name":"小梅岭","address":"","zhonglei":"7337","dalei":"10","type":"view"}},
{"type":"Feature","geometry":{"type":"Point","coordinates":[114.366841,30.554542]},"properties":{"name":"先月亭","address":"","zhonglei":"7337","dalei":"10","type":"view"}},
{"type":"Feature","geometry":{"type":"Point","coordinates":[114.367307,30.575592]},"properties":{"name":"武汉东湖牡丹园（北门）","address":"","zhonglei":"7337","dalei":"10","type":"view"}},
{"type":"Feature","geometry":{"type":"Point","coordinates":[114.369657,30.576228]},"properties":{"name":"东湖风景区","address":"东湖路特1号","zhonglei":"7337","dalei":"10","type":"view"}},
{"type":"Feature","geometry":{"type":"Point","coordinates":[114.303248,30.546105]},"properties":{"name":"岳飞雕像","address":"民主路56号","zhonglei":"7337","dalei":"10","type":"view"}},
{"type":"Feature","geometry":{"type":"Point","coordinates":[114.301945,30.545966]},"properties":{"name":"紫薇苑（东门）","address":"民主路56号","zhonglei":"7337","dalei":"10","type":"view"}},
{"type":"Feature","geometry":{"type":"Point","coordinates":[114.298683,30.546585]},"properties":{"name":"古碑廊","address":"民主路56号","zhonglei":"7337","dalei":"10","type":"view"}},
{"type":"Feature","geometry":{"type":"Point","coordinates":[114.254478,30.548128]},"properties":{"name":"大雄宝殿","address":"","zhonglei":"7337","dalei":"10","type":"view"}},
{"type":"Feature","geometry":{"type":"Point","coordinates":[114.298833,30.547348]},"properties":{"name":"仙枣亭","address":"民主路56号","zhonglei":"7337","dalei":"10","type":"view"}},
{"type":"Feature","geometry":{"type":"Point","coordinates":[114.299141,30.547083]},"properties":{"name":"杜鹃园","address":"民主路56号","zhonglei":"7337","dalei":"10","type":"view"}},
{"type":"Feature","geometry":{"type":"Point","coordinates":[114.2983,30.546913]},"properties":{"name":"米芾拜石铜雕","address":"民主路56号","zhonglei":"7337","dalei":"10","type":"view"}},
{"type":"Feature","geometry":{"type":"Point","coordinates":[114.301127,30.546551]},"properties":{"name":"一揽亭","address":"民主路56号","zhonglei":"7337","dalei":"10","type":"view"}},
{"type":"Feature","geometry":{"type":"Point","coordinates":[114.303754,30.545167]},"properties":{"name":"黄鹤楼（东门）","address":"","zhonglei":"7337","dalei":"10","type":"view"}},
{"type":"Feature","geometry":{"type":"Point","coordinates":[114.292328,30.549228]},"properties":{"name":"户部巷（南门）","address":"","zhonglei":"7337","dalei":"10","type":"view"}},
{"type":"Feature","geometry":{"type":"Point","coordinates":[114.279102,30.577929]},"properties":{"name":"长江书店旧址","address":"","zhonglei":"7337","dalei":"10","type":"view"}},
{"type":"Feature","geometry":{"type":"Point","coordinates":[114.309697,30.55095]},"properties":{"name":"钱基博故居","address":"","zhonglei":"7337","dalei":"10","type":"view"}},
{"type":"Feature","geometry":{"type":"Point","coordinates":[114.292647,30.578436]},"properties":{"name":"一·三惨案遗址","address":"","zhonglei":"7337","dalei":"10","type":"view"}},
{"type":"Feature","geometry":{"type":"Point","coordinates":[114.410091,30.555201]},"properties":{"name":"东湖楚城","address":"","zhonglei":"7337","dalei":"10","type":"view"}},
{"type":"Feature","geometry":{"type":"Point","coordinates":[114.402998,30.546554]},"properties":{"name":"东湖磨山景区（西南门）","address":"","zhonglei":"7337","dalei":"10","type":"view"}}
]}